time,roll_setpoint,gyro_roll,pitch_setpoint,gyro_pitch,yaw_setpoint,gyro_yaw
0.0,3.221088436188455,6.2679790870788175,3.543197279807301,7.850629698621383,2.2547619053319186,0.6784345924437121
0.001,3.299582398918418,10.959545057048633,3.62954063881026,12.552894457508916,2.3097076792428926,4.223665999303493
0.002,3.3777459409858164,12.944611887830597,3.7155205350843983,14.434436445181642,2.364422158690071,6.095190710737281
0.003,3.455574210797501,12.328971804062919,3.8011316318772517,13.852462417374468,2.4189019475582505,6.154774265903093
0.004,3.533062390490227,9.729194586065953,3.88636862953925,11.198221628994467,2.473143673343159,4.643996006907167
0.005,3.6102056963405573,7.08993121394375,3.9712262659746136,7.808571312820501,2.52714398743839,2.796915830516424
0.006,3.686999379171322,4.877192755858914,4.055699317088455,5.279576532808902,2.580899565419925,1.4133286992385776
0.007,3.763438724754603,3.039836994448181,4.139782597230063,3.6773549414198543,2.634407107328222,0.551891592461845
0.008,3.839519054211185,0.9482546428794478,4.223470959632304,1.340803677931442,2.6876633379478294,-0.5259677802854497
0.009,3.9152357244064526,-1.795930824586558,4.3067592968470985,-1.9585670946939728,2.740665007084517,-2.1330458015778575
0.01,3.9905841283426917,-5.047461904355696,4.389642541176961,-5.436885193439622,2.793408889839884,-4.4125562080575005
0.011,4.0655596955477415,-7.828700100233183,4.472115665102516,-8.64103344560776,2.845891786883419,-6.35914423152724
0.012,4.140157892459986,-8.95194769879307,4.5541736817059855,-9.45102339100795,2.8981105247219903,-7.105865317220218
0.013,4.214374222809629,-7.12157877727454,4.635811645090592,-7.424696079412307,2.95006195596674,-5.450327533641445
0.014,4.28820422799622,-2.4751443430130418,4.7170246507958415,-2.646558086974826,3.0017429595973537,-1.987699545315131
0.015,4.3616434874624,3.4260704188447586,4.797807836208641,3.8022560597217416,3.05315044122368,1.9757739982748173
0.016,4.4346876190638245,8.120044151210625,4.878156380970207,9.38048589060399,3.104281333344677,4.951757096099507
0.017,4.507332279435237,10.101952378616849,4.958065507378761,11.868874231828542,3.1551325956046656,6.274448773700075
0.018,4.5795731643526425,9.066772062611433,5.0375304807879075,10.375849220425938,3.2057012150468496,5.14816848259682
0.019,4.651406009091567,5.795711310220618,5.116546610000724,7.309429404253698,3.2559842063640967,2.694256369011897
0.02,4.722826588781357,2.9327375909518274,5.195109247659493,3.902264766372581,3.30597861214695,0.5105132081021575
0.021,4.793830718755473,1.0371834223798122,5.27321379063102,1.8215589805156778,3.3556815031288307,-1.055776430723587
0.022,4.864414254897774,0.09253258491598526,5.350855680387552,1.1081113002327667,3.4050899784284416,-1.558982810425454
0.023,4.934573093984735,-0.553566893247111,5.428030403383209,0.18592650626554175,3.454201165789314,-2.1875886766014943
0.024,5.004303174023567,-1.795941563943221,5.504733491425925,-0.6498629745735318,3.5030122218164967,-2.7425384259629224
0.025,5.073600474586228,-3.569091326928794,5.580960522044851,-2.3118770571244758,3.5515203322103592,-3.6017168782766094
0.026,5.142461017139256,-4.424817453466565,5.656707118853182,-3.871526402474935,3.599722711997479,-4.188048453675245
0.027,5.210880865369442,-3.735293429332928,5.731968951906387,-2.741656963696154,3.6476166057586092,-3.391401846604936
0.028,5.278856125505255,-0.28682231705596584,5.8067417380557815,0.7401430809619289,3.6951992878536783,-1.1279722655969842
0.029,5.346382946634043,5.111814148544019,5.881021241297448,6.41396703533625,3.7424680626438303,2.4913846348213484
0.03,5.413457521014937,11.048250732540708,5.954803273116432,12.718673073498227,3.7894202647104556,6.594003958820392
0.031,5.480076084387463,14.992966368388021,6.028083692826209,16.90255082608759,3.8360532590712237,9.364073936665886
0.032,5.546234916275796,15.701914317572491,6.100858407903376,17.548115006088203,3.8823644413930567,9.52598182657926
0.033,5.611930340288663,13.603874309134552,6.17312337431753,15.06168457286618,3.928351238202064,7.884044568017666
0.034,5.6771587244148485,9.11095485091229,6.2448745968563335,10.337419750536398,3.974011107090394,5.073953018135586
0.035,5.741916481314269,4.519605711518269,6.316108129445697,5.226409095378012,4.019341536919988,2.069606674499234
0.036,5.806200068604601,1.3902965977723096,6.386820075465061,2.410598046128787,4.064340048023221,-0.03921775388888249
0.037,5.8700059891434355,0.309467460783599,6.457006588057779,0.8848138597665383,4.109004192400405,-0.9020093957301143
0.038,5.933330791305923,-0.7174286478049341,6.526663870436516,0.09836406442180312,4.153331553914145,-1.371064670858864
0.039,5.996171069257885,-1.458520256822493,6.5957881761836745,-0.8286119859529384,4.19731974848052,-1.8710564217551147
0.04,6.058523463224383,-2.538738517264517,6.664375809546822,-1.6488919249902532,4.240966424257068,-2.408135895193897
0.041,6.120384659753688,-3.0622772691977023,6.732423125729057,-2.3864487069155293,4.284269261827581,-2.997147418670352
0.042,6.181751391976656,-2.0919598766509653,6.7999265311743216,-1.3906537132870636,4.3272259743836585,-2.3078341642642197
0.043,6.242620439861469,0.8609790145869267,6.866882483847616,2.02744657359059,4.3698343079030275,-0.3178556386810487
0.044,6.302988630463721,5.6269857735613,6.933287493510094,7.12062102142923,4.4120920413246045,3.2197864270209973
0.045,6.3628528381718334,10.79714942494492,6.999138121989017,12.545440509030854,4.453996986720283,6.557284771051966
0.046,6.422209984947755,13.749409589582873,7.064430983442531,15.980190066677391,4.495546989463429,8.720567880585184
0.047,6.481057040562951,13.66116401664189,7.129162744619247,15.73143214168368,4.5367399283940655,8.66484879813994
0.048,6.5393910228296495,10.778936718788247,7.193330125112615,12.10908537144034,4.577573715980754,6.702861427322544
0.049,6.597208997827305,6.012265337011384,7.2569298976100365,6.694389672413136,4.618046298479113,3.468361138947387
0.05,6.654508080124296,1.9787891063759449,7.319958888136727,2.3090159267741965,4.658155656087007,0.6298588953909192
0.051,6.711285432994797,-0.4399420414630768,7.382413976294277,-0.4919361387270378,4.697899803096357,-1.1928857753384716
0.052,6.76753826863083,-0.721277206674074,7.444292095493913,-0.9578255777470384,4.73727678804158,-1.4603819786148922
0.053,6.82326384834947,0.30345062901458775,7.505590233184417,0.31504717845502483,4.776284693844628,-0.8050018379715036
0.054,6.878459482795181,1.3690633676648059,7.566305431074699,1.6575280145796691,4.814921637956626,0.01637700210329518
0.055,6.933122532137267,1.4226829771784844,7.626434785350994,2.0699700252900044,4.8531857724960865,0.2846650154233341
0.056,6.987250406262419,2.1837142573338952,7.685975446888661,2.844917662483113,4.891075284383692,0.6795477423190364
0.057,7.0408405649623464,4.057115011751927,7.744924621458582,4.770500238189233,4.928588395473642,1.8964810608834484
0.058,7.093890518116458,7.678395691324313,7.803279569928105,8.374117191719225,4.96572336268152,4.283485278480323
0.059,7.1463978258696095,11.895387872382365,7.861037608456571,13.412843861428442,5.002478478108726,7.271303986941882
0.06,7.198360098804855,16.202131797151928,7.918196108685342,17.902281488371806,5.038852069163398,10.246021761567865
0.061,7.249774998111233,18.290019253643003,7.974752497922357,19.925492101699078,5.074842498677863,11.194549075338076
0.062,7.30064023574654,16.854448364477673,8.030704259321194,18.38836450075017,5.110448165022578,10.343512775763688
0.063,7.350953574595092,12.467061129633754,8.086048932054602,13.411829861399166,5.145667502216564,7.448958350125164
0.064,7.400712828620459,6.715580902988064,8.140784111482505,7.386139041562907,5.180498980034321,3.4372122868699195
0.065,7.449915863013141,1.8913896680961813,8.194907449314455,1.7264395033922302,5.214941104109198,-0.15073128075366737
0.066,7.498560594333212,-0.7769464788800384,8.248416653766535,-1.427325863818175,5.248992416033248,-1.8700083162327332
0.067,7.546644990647877,-1.198919781620912,8.301309489712665,-1.4537774561025278,5.282651493453514,-1.8642791146489124
0.068,7.594167071663945,0.14798546101302534,8.35358377883034,-0.1961929873258459,5.315916950164761,-0.8748921002605456
0.069,7.641124908855225,1.9207225375691346,8.405237399740749,1.4105163326603964,5.348787436198657,0.1464166627223089
0.07,7.687516625584808,2.4733704923326005,8.45626828814329,2.3789328675038908,5.381261637909366,1.0470559655245428
0.071,7.733340397222232,3.307575163146828,8.506674436944456,3.526702370928361,5.413338278055562,1.5762388682458988
0.072,7.77859445125553,4.646354659084009,8.556453896381084,4.953528431576345,5.445016115878871,2.5749224598184863
0.073,7.8232770673981396,7.649587005398176,8.605604774137953,7.799331049517894,5.476293947178697,4.4603994547301005
0.074,7.867386577690672,11.37594223903222,8.65412523545974,11.404789412802185,5.50717060438347,7.283448246560333
0.075,7.910921366597526,14.45894822424388,8.702013503257279,14.925834833693795,5.5376449566182675,9.218822549495075
0.076,7.953879871098349,15.430090194542284,8.749267858208185,16.23477331429951,5.567715909768844,9.79638829906493
0.077,7.996260580774324,13.57226162044406,8.795886638851757,14.238167686678608,5.597382406542026,8.327310254189062
0.078,8.038062037889294,9.090742279537876,8.841868241678224,9.364719842860962,5.626643426522505,5.205581152574107
0.079,8.07928283746568,3.665944938596518,8.887211121212248,3.277572215410117,5.655497986225976,1.6089450038528241
0.08,8.119921627355257,-0.1959097254713864,8.931913790090784,-1.6914561051192578,5.68394513914868,-1.2874486947973685
0.081,8.159977108304703,-1.60711006452933,8.975974819135175,-2.810544645159336,5.711983975813292,-2.4318428409081734
0.082,8.199448034015951,-0.3506637839084741,9.019392837417547,-1.327692447131093,5.739613623811166,-1.446036143359425
0.083,8.238333211201375,2.2899277175679416,9.062166532321514,2.0787415352656415,5.766833247840962,0.7337751157638515
0.084,8.27663149963373,5.508565909592823,9.104294649597104,5.591267378744475,5.79364204974361,3.158652038531741
0.085,8.314341812190914,8.097509831903992,9.145775993410007,7.961662842063307,5.820039268533639,4.672017645199194
0.086,8.351463114895509,9.605782776223347,9.186609426385061,9.565335294862017,5.846024180426856,5.856734132143781
0.087,8.387994426949106,10.701088991878297,9.226793869644018,10.862944814423479,5.871596098864374,6.84637147291454
0.088,8.423934820761426,13.00526335963023,9.26632830283757,13.07287389067777,5.896754374532998,8.23964258166459
0.089,8.459283421974213,15.351246776274458,9.305211764171634,16.251331850760845,5.921498395381949,10.075983435810858
0.09,8.494039409479925,17.21787948706151,9.343443350427918,18.651237359083325,5.9458275866359465,11.264833603057374
0.091,8.528202015435198,16.68552167322057,9.38102221697872,18.576097296792646,5.969741410804638,10.877550212320802
0.092,8.5617705252691,13.06852837252627,9.417947577796012,15.297812092352123,5.9932393676883695,8.735906070005012
0.093,8.594744277686168,7.843043656393391,9.454218705454785,9.343323062592575,6.016320994380317,5.145590897185907
0.094,8.627122664664231,2.097273192022193,9.489834931130655,3.1246798909782862,6.038985865264961,0.7576508360948835
0.095,8.65890513144703,-2.0745956684631226,9.524795644591734,-1.705974483998494,6.061233592012921,-2.227461822019766
0.096,8.690091176531613,-3.2193988244219405,9.559100294184775,-2.9539252273546097,6.083063823572129,-2.979163162617697
0.097,8.720680351650541,-1.1665900686096808,9.592748386815597,-0.5367266802413209,6.104476246155379,-1.6605635805860421
0.098,8.750672261748878,2.4887979316800717,9.625739487923767,3.0670279719454845,6.125470583224215,0.7640663226216398
0.099,8.780066564955995,6.124706027106976,9.658073221451595,6.911031564197494,6.146046595469196,3.1935644813386825
0.1,8.80886297255217,8.019318133145934,9.689749269807388,9.657356612111878,6.166204080786518,4.80976362970099
0.101,8.837061248930006,9.48023390697719,9.720767373823007,11.220754852606083,6.185942874251004,5.722953789962407
0.102,8.864661211550661,10.302335262838708,9.751127332705728,11.968469201843991,6.205262848085463,6.381494556164434
0.103,8.891662730894913,11.234124741453847,9.780829003984405,13.273133001733683,6.224163911626438,7.259176428178947
0.104,8.918065730409031,12.812013033267597,9.809872303449936,14.784124691927314,6.242646011286322,8.396670425521656
0.105,8.943870186445512,13.968229527281762,9.838257205090065,16.13732599317784,6.260709130511858,9.184010835019325
0.106,8.969076128198637,13.153772604792717,9.865983741018502,15.53173179493567,6.278353289739045,8.8598421878817
0.107,8.9936836376349,10.467447588668291,9.893052001398392,12.139972812104897,6.29557854634443,6.827611343083682
0.108,9.017692849418289,5.532704848227036,9.919462134360119,6.736356885784392,6.312384994592802,3.260750660289366
0.109,9.04110395083043,0.4815409691309105,9.945214345913472,1.5757573205631337,6.3287727655813,0.17812590164949516
0.11,9.063917181685632,-2.48835923665584,9.970308899854196,-1.3680599878273672,6.344742027179942,-1.783750768477879
0.111,9.086132834240804,-1.569991511780918,9.994746117664885,-1.1533296705330613,6.360292983968562,-1.5819122425455312
0.112,9.107751253100284,1.7841213885447198,10.018526378410314,2.5610504216513164,6.375425877170199,0.6961718768962744
0.113,9.128772835115576,6.552137158846342,10.041650118627135,7.878198847589777,6.390140984580903,4.2164091873077805
0.114,9.149198029280011,10.956072303467888,10.064117832208014,12.945482235044327,6.404438620496007,7.610955327050202
0.115,9.169027336618353,13.751640465753798,10.085930070280188,15.863977962399535,6.418319135632847,9.647900438254982
0.116,9.18826131007134,14.86424990769702,10.107087441078475,16.83766379563861,6.431782917049937,10.364532565783273
0.117,9.206900554375213,14.845721196857944,10.127590609812735,16.84052829546761,6.444830388062649,10.219594894597453
0.118,9.224945725936184,14.981823986976472,10.147440298529803,16.84292118964209,6.4574620081553284,10.215389396014421
0.119,9.242397532699936,15.313051970747004,10.16663728596993,17.219671933760292,6.469678272889955,10.08428482328226
0.12,9.259256734016097,14.985711284060036,10.185182407417708,16.72715301316058,6.481479713811267,9.82894869465203
0.121,9.275524140497758,13.510019719338628,10.203076554547534,15.000630081209131,6.492866898348431,8.771439483984594
0.122,9.291200613876011,9.623590197065848,10.220320675263613,11.013555563810362,6.5038404297132075,6.310176943885635
0.123,9.306287066849553,4.734151164231337,10.236915773534509,5.2200009426373715,6.514400946794686,2.8490034765776433
0.124,9.32078446292935,0.03234283473150512,10.252862909222285,-0.05610395518683475,6.524549124050544,-0.4605272158102274
0.125,9.334693816278396,-2.742006620885867,10.268163197906237,-3.1640237552043473,6.534285671394876,-1.973761425361566
0.126,9.34801619154658,-2.0854733592348875,10.28281781070124,-1.9560887734069912,6.543611334082606,-1.454222220459922
0.127,9.360752703700658,1.8460556641984827,10.296827974070725,2.0355717875262425,6.5525268925904605,1.0253046192946842
0.128,9.372904517849397,7.10290877099259,10.310194969634338,7.190847328204134,6.561033162494578,4.642279769982515
0.129,9.384472849063851,11.66185401231225,10.322920133970237,12.432677376443387,6.569130994344695,7.4753777174637275
0.13,9.395458962192835,13.701934518855243,10.33500485841212,15.032867254949453,6.576821273534985,9.12946918202261
0.131,9.405864171673603,14.121979810198377,10.346450588840964,15.533222841605795,6.584104920171521,9.26595737161357
0.132,9.415689841337734,12.92944573048954,10.357258825471508,14.129247602859955,6.590982888936414,8.580005796610696
0.133,9.42493738421227,11.841312548289917,10.367431122633498,12.975904180471808,6.5974561689485895,7.685142093492162
0.134,9.433608262316135,11.40328831058587,10.37696908854775,12.43996798672643,6.6035257836212935,7.159158399604836
0.135,9.441703986451794,10.393541127539226,10.385874385096974,11.691994679527978,6.609192790516255,6.808911783615678
0.136,9.449226115992277,8.97656023103509,10.394148727591505,10.369870452862875,6.614458281194593,5.763110219583798
0.137,9.4561762586635,6.472036602858532,10.401793884529852,7.495198249584029,6.61932338106445,3.9801956826297324
0.138,9.462556070321966,2.3407245435202473,10.408811677354164,4.208363866753421,6.623789249225376,1.5459438097098523
0.139,9.468367254727813,-0.686422121969338,10.415203980200594,0.9351240615437924,6.627857078309469,-0.5347698449093095
0.14,9.473611563313298,-1.5059964777854642,10.42097271964463,-0.16285965895869303,6.631528094319308,-1.0043035592975036
0.141,9.478290794946707,0.7066138608514265,10.426119874441378,2.3582922426392106,6.634803556462694,0.5080718655571772
0.142,9.482406795691702,5.869452866607839,10.430647475260873,7.9761321520881445,6.637684756984191,3.9843595309079403
0.143,9.485961458562159,12.148850409868787,10.434557604418375,14.390122837206967,6.640173020993511,8.131809259149705
0.144,9.488956723272521,16.708272243664553,10.437852395599775,19.399309753026312,6.642269706290764,11.150392898139884
0.145,9.49139457598367,18.873870312288474,10.440534033582036,21.297516784263983,6.6439762031885685,12.470429736409123
0.146,9.493277049044373,18.025669549801002,10.44260475394881,20.847049756978695,6.645293934331061,11.913638056395627
0.147,9.494606220728304,16.098295207057692,10.444066842801135,18.18108127654974,6.646224354509813,10.171669280545972
0.148,9.495384214966695,13.610613656610527,10.444922636463366,15.152007248598213,6.646768950476686,8.2317604691467
0.149,9.495613201076615,11.749434244419014,10.445174521184278,13.131482513848852,6.6469292407536305,6.836290867242887
0.15,9.495295393484954,10.316600993008388,10.44482493283345,11.475614066419748,6.646706775439467,5.821756662622456
0.151,9.494433051448059,8.674697349502898,10.443876356592865,9.321984555786681,6.646103136013641,4.568460245112587
0.152,9.493028478767169,5.9908766549221415,10.442331326643886,6.275803671756488,6.645119935137018,2.6147312428133107
0.153,9.491084023499546,2.2138263202825454,10.440192425849501,2.3321842534024917,6.643758816449682,0.48530070125506786
0.154,9.488602077665455,-0.4167228508343328,10.437462285432002,-0.4231585400757698,6.642021454365818,-1.3902652708704073
0.155,9.485585076950926,-1.094265754062505,10.43414358464602,-1.080238242154076,6.639909553865648,-1.5151462539280294
0.156,9.482035500406411,1.7197059757891697,10.430239050447053,1.7123003097428082,6.6374248502844875,0.2677524135275702
0.157,9.477955870141287,6.717876421112568,10.425751457155416,6.711286980015811,6.6345691090989005,3.7531842736388827
0.158,9.473348751014328,12.165278208653085,10.42068362611576,13.013312762654369,6.631344125710029,7.294579910973273
0.159,9.46821675032008,16.286963509786794,10.415038425352089,17.459346695529142,6.627751725224056,10.363963601955566
0.16,9.462562517471255,17.608039862793625,10.408818769218382,18.85516607190371,6.623793762229878,10.96128943120706
0.161,9.456388743677138,15.566776766220656,10.402027618044853,16.992402363477453,6.619472120573996,9.808956237954856
0.162,9.449698161618043,12.29543236098793,10.394667977779848,13.539673342979992,6.61478871313263,7.540900858059331
0.163,9.442493545115852,9.252710541735617,10.386742899627437,10.154279637057575,6.609745481581096,5.705391518948578
0.164,9.434777708800691,7.473516886114965,10.378255479680762,8.19218108307978,6.604344396160483,4.577402969280638
0.165,9.426553507773752,6.810272044335212,10.369208858551128,7.288224858563031,6.598587455441626,3.840829652241351
0.166,9.417823837266303,6.319034277024663,10.359606220992934,6.288375689004653,6.592476686086411,3.3661673919797135
0.167,9.408591632294945,4.951894012009777,10.34945079552444,4.957991176733826,6.586014142606461,2.424490562201883
0.168,9.398859867313115,3.120702663496818,10.338745854044427,3.1572330892647216,6.57920190711918,1.2220655989864664
0.169,9.388631555858904,1.8829065118016404,10.327494711444794,1.9419474025097632,6.572042089101233,0.6215609102143471
0.17,9.377909750199194,2.9346291567403897,10.315700725219115,3.110366647539718,6.564536825139435,1.348334101756958
0.171,9.3666975409702,6.451568467446433,10.303367295067222,6.9775321479155,6.55668827867914,3.550157739290462
0.172,9.354998056814399,11.831173360586611,10.290497862495839,12.86397139340987,6.548498639770079,7.536273219899856
0.173,9.342814464013909,17.30342619278468,10.2770959104153,18.689882648256546,6.539970124809736,11.16090945292531
0.174,9.330149966120391,20.92552911421109,10.26316496273243,22.568985749326707,6.531104976284274,13.547702151245076
0.175,9.31700780358143,21.117425323501728,10.248708583939573,22.706588948649365,6.521905462507,13.775780731403572
0.176,9.303391253363527,18.235342410221012,10.23373037869988,19.241432462015474,6.512373877354468,11.557013392176781
0.177,9.289303628571663,13.393451602971822,10.21823399142883,14.327449231366899,6.502512540000163,8.233536562950913
0.178,9.274748278065541,8.863048530205292,10.202223105872095,9.904389924888703,6.492323794645879,5.391699933896532
0.179,9.259728586072473,5.7600938741449905,10.18570144467972,6.676089576476157,6.481810010250731,3.658230823045841
0.18,9.244247971797048,4.553633703838771,10.168672768976753,5.301530716722495,6.470973580257933,2.6192652280843687
0.181,9.22830988902751,4.094498592189908,10.151140877930262,4.367582324733958,6.459816922319257,2.0293883096834766
0.182,9.211917825738986,3.1968030323336913,10.133109608312886,3.0426295453773857,6.44834247801729,1.3561987114471696
0.183,9.195075303693534,1.7390971331213025,10.114582834062888,1.807765378420493,6.436552712585473,0.6123822294824279
0.184,9.177785878037115,1.4851036159911022,10.095564465840827,1.1297185912447922,6.42445011462598,0.43083010263242105
0.185,9.160053136893463,2.53849592834099,10.07605845058281,2.3458998010065493,6.412037195825424,1.2285974638187191
0.186,9.141880700954951,5.856411017278317,10.056068771050448,6.358501022952426,6.399316490668466,3.493409798526097
0.187,9.123272223070467,10.358168061579917,10.035599445377514,11.53384414411118,6.386290556149326,6.8722048145869215
0.188,9.104231387830358,14.998884972550568,10.014654526613395,16.859969635961654,6.37296197148125,10.24720733141481
0.189,9.084761911148467,17.661614123592255,9.993238102263314,19.430403132409317,6.3593333378039265,11.864554350804609
0.19,9.064867539841323,17.400077734001563,9.971354293825456,18.36932170977876,6.345407277888926,11.119126543270387
0.191,9.044552051204521,14.296904811541541,9.949007256324974,14.05110545926383,6.331186435843164,8.629710170438104
0.192,9.023819252586343,9.256294029861726,9.926201177844977,9.06170907207746,6.31667347681044,5.366597947244683
0.193,9.002672980958634,5.32064890121319,9.902940279054498,4.552200352673271,6.301871086671043,2.560407406382139
0.194,8.98111710248504,2.9003916182441483,9.879228812733546,2.5468551520613607,6.2867819717395275,1.1301653849852418
0.195,8.959155512086577,2.899473196756621,9.855071063295235,2.362232822007522,6.271408858460603,1.0978814414368978
0.196,8.936792133004632,3.7460747813112745,9.830471346305096,3.450775800629536,6.255754493103242,1.8957676995435282
0.197,8.914030916361419,4.644815401871691,9.805434007997562,4.130372516783867,6.239821641452993,2.3532931356722564
0.198,8.890875840717941,5.229588126673004,9.779963424789736,4.996836213606834,6.2236130885025585,2.634533692848718
0.199,8.8673309116295,5.901156447532883,9.75406400279245,5.8624187172392865,6.207131638140649,3.4194043245287977
0.2,8.843400161198787,7.7258130918590435,9.727740177318665,8.277734272745626,6.190380112839151,4.5684522803707415
0.201,8.819087647626652,10.863068564668277,9.700996412389319,12.343689872729357,6.173361353338656,7.048769448418587
0.202,8.794397454760514,15.696719590833442,9.673837200236566,17.139337050936433,6.156078218332359,10.147835427282633
0.203,8.769333691640556,19.552628833599535,9.646267060804613,21.868338679536556,6.138533584148389,12.782391320189966
0.204,8.74390049204365,20.772078475713222,9.618290541248015,23.574006321977066,6.120730344430555,13.796721456596732
0.205,8.718102014025147,19.169586659693017,9.589912215427663,21.31022191511643,6.102671409817603,12.364179553185844
0.206,8.691942439458552,14.285773960906633,9.561136683404408,15.992512784159786,6.084359707620986,8.73883135648962
0.207,8.665425973573068,8.500814338338888,9.531968570930376,9.406032717330962,6.0657981815011475,4.6480416813939875
0.208,8.63855684448918,3.8795436806153916,9.502412528938098,4.660424691001476,6.046989791142426,1.241403906956982
0.209,8.611339302752206,1.3879299254848556,9.472473233027427,2.303343772555113,6.027937511926544,-0.2795059674974709
0.21,8.583777620863946,0.964801718590043,9.442155382950341,2.211644311345914,6.008644334604762,-0.3018197843143744
0.211,8.555876092812435,2.2938717602007044,9.411463702093679,3.177817868541011,5.9891132649687036,0.5411314475492732
0.212,8.52763903359985,4.205072937320627,9.380402936959836,4.301466163525101,5.969347323519895,1.5016274310059128
0.213,8.499070778768669,5.2601630513106725,9.348977856645536,5.2897024433753,5.949349545138068,2.2454157774743275
0.214,8.470175683926028,5.978977163497911,9.317193252318631,6.081046446464165,5.929122978748219,2.7746034216144144
0.215,8.440958124266466,7.609196442841182,9.285053936693114,8.06420171861584,5.908670686986525,4.0811581013442675
0.216,8.411422494092951,10.17784724503078,9.252564743502248,10.879646319401804,5.887995745865066,6.06990311207467
0.217,8.381573206336393,13.529494912286705,9.219730526970032,14.770803499151999,5.867101244435474,8.735497713703307
0.218,8.351414692073535,16.867882160870536,9.186556161280889,18.04850001567592,5.8459902844514735,10.708233991868301
0.219,8.32095140004344,17.387470270921696,9.153046540047784,18.672589369715265,5.8246659800304075,11.376340319627504
0.22,8.29018779616245,14.89789573332234,9.119206575778694,16.089380389618626,5.8031314573137145,9.875875483373244
0.221,8.25912836303783,9.962087851804345,9.085041199341614,10.598682141090912,5.7813898541264805,6.805687179114949
0.222,8.227777599480001,4.6971265689094865,9.050555359428003,4.796956126564906,5.759444319636001,3.0253029601705923
0.223,8.196140020013551,0.5912598217402163,9.015754022014907,0.785784761316215,5.737298014009486,0.5797066046084893
0.224,8.164220154386934,-0.00470380464296305,8.980642169825629,-0.5556460568091683,5.714954108070853,-0.15079785022916248
0.225,8.13202254708104,1.4645898478140307,8.945224801789143,1.1969972938103126,5.6924157829567275,1.0657289476633798
0.226,8.099551756816574,4.85771607446797,8.909506932498232,4.581509458010826,5.669686229771601,3.2557125428372338
0.227,8.066812356060401,8.06984460470322,8.873493591666442,8.081644336311472,5.64676864924228,5.3484319940022385
0.228,8.033808930530784,10.341082799574563,8.837189823583863,10.51346484785973,5.6236662513715485,6.835468936370662
0.229,8.000546078701703,11.842998792483058,8.800600686571874,11.72379376021582,5.6003822550911915,7.581895037030859
0.23,7.967028411306167,13.295785881293567,8.763731252436784,13.34153859561858,5.5769198879143165,8.419575294063847
0.231,7.933260550838723,15.295799745005477,8.726586605922595,15.562478516974075,5.553282385587106,9.818802701945415
0.232,7.899247131057032,17.78867761872964,8.689171844162736,18.373099331337585,5.529472991739922,11.4273549478056
0.233,7.86499279648276,19.42401340140249,8.651492076131037,19.976321456077322,5.505494957537931,12.54665844624845
0.234,7.830502201901646,18.289379108301205,8.61355242209181,19.244049453979734,5.4813515413311515,12.136380739639872
0.235,7.795780011862973,14.692920744932572,8.575358013049271,15.176285520349191,5.457046008304081,9.550804802849582
0.236,7.760830900178323,9.125286774294345,8.536913990196156,9.326106220041947,5.432581630124826,5.390708171377016
0.237,7.725659549419841,2.7834429501235265,8.498225504361825,2.899325590308833,5.4079616845938885,1.1658027230244512
0.238,7.690270650417884,-1.5502836910366202,8.459297715459673,-1.3463736235497326,5.383189455292518,-1.84022630604656
0.239,7.654668901758282,-2.2937108329552096,8.420135791934111,-2.2397716939871533,5.358268231230797,-2.5334496408488176
0.24,7.61885900927909,-0.054720605082311025,8.380744910207,0.317130567863698,5.333201306495362,-1.09394130453809
0.241,7.582845685567045,3.384939231519665,8.34113025412375,3.9297570779381683,5.307991979896931,1.0581856516391972
0.242,7.54663364945363,6.466799443250778,8.301297014398994,7.301886407637606,5.2826435546175405,3.674476124167057
0.243,7.510227625510939,8.485541097348165,8.261250388062033,9.492430403919151,5.257159337857657,5.282642312402376
0.244,7.47363234354725,9.245123470010345,8.220995577901975,10.50960040550791,5.231542640483075,5.891798429319968
0.245,7.436852538102515,9.909662961984054,8.180537791912768,11.321143958203724,5.20579677667176,6.263971872475202
0.246,7.3998929479436475,10.838961353120476,8.139882242738013,12.806954239982055,5.179925063560553,7.1686499571406515
0.247,7.3627583155598275,12.22748638881037,8.09903414711581,14.442422104773286,5.153930820891879,8.255287409154445
0.248,7.3254533866577285,12.928759742408305,8.057998725323502,15.546110744480291,5.127817370660409,9.003549068428612
0.249,7.287982909656843,12.18813804184952,8.016781200622528,14.209603842037406,5.1015880367597894,8.25345332105698
0.25,7.2503516351848445,9.14772967653297,7.97538679870333,10.461375806342819,5.075246144629391,5.92472906174224
0.251,7.212564315573152,4.1595078945896855,7.933820747130468,4.942051795346334,5.048795020901206,2.656965165292415
0.252,7.174625704352627,-0.7890782962382161,7.89208827478789,-0.23767755659508794,5.022237993046838,-0.7523661906668986
0.253,7.136540555749578,-3.558813357275846,7.850194611324537,-2.85845784100937,4.995578389024704,-2.467153718897733
0.254,7.098313624182009,-2.7146064876105225,7.808144986600211,-2.31771493600786,4.968819536927406,-1.846616680147556
0.255,7.059949663756272,1.167863130137782,7.7659446301319,1.8011592950881639,4.94196476462939,0.7303875793714036
0.256,7.0214534277640634,6.314227887432868,7.7235987705404705,7.052584139361129,4.915017399434844,4.086733642519897
0.257,6.982829668179929,10.350579832359514,7.681112634997922,11.821769349631914,4.88798076772595,7.307197480174439
0.258,6.944083135159224,12.912103611415528,7.638491448675147,14.378029907000421,4.860858194611457,8.876793266571102
0.259,6.905218576536675,13.701562392035736,7.595740434190343,15.167837271801368,4.833653003575672,9.327520255693253
0.26,6.866240737325496,14.1679549565917,7.552864811058046,15.058291978702904,4.806368516127847,9.213955488521805
0.261,6.827154359217225,13.936085992007744,7.509869795138948,15.053455038515583,4.779008051452057,9.341941574167699
0.262,6.7879641800821995,14.13351612090766,7.46676059809042,15.503365801600795,4.75157492605754,9.334736019172457
0.263,6.748674933470865,13.257745620748178,7.423542426817953,15.085309437921362,4.7240724534296055,9.142607503229323
0.264,6.709291348115822,11.114638598246314,7.380220482927404,13.041929470173645,4.696503943681075,7.72857637152271
0.265,6.6698181474348015,7.1924595881393305,7.336799962178282,8.579392616968054,4.668872703204361,5.200647043155896
0.266,6.630260049034488,2.2634881788123584,7.293286053937938,3.238857838391735,4.6411820343241414,1.8009886496370835
0.267,6.59062176421538,-2.105948583552262,7.249683940636919,-1.9360305467680146,4.613435234950766,-1.4625345345853615
0.268,6.550907997477579,-4.430790851064068,7.205998797225337,-4.63871458446276,4.5856355982343056,-2.974798250389311
0.269,6.5111234460277165,-2.818768172932521,7.162235790630489,-3.168823922613625,4.557786412219401,-2.0569119361085155
0.27,6.471272799286959,1.061451028473111,7.118400079215656,1.3878492352208411,4.529890959500871,0.866106624934968
0.271,6.431360738400166,6.445803675985053,7.074496812240183,7.337767542007052,4.501952516880116,4.47314866049848
0.272,6.391391935746305,10.37771251475464,7.030531129320936,11.534696383180275,4.473974355022413,7.462504348241889
0.273,6.351371054450077,12.567242326438233,6.986508159895085,13.822524460083233,4.445959738115054,8.718544243204088
0.274,6.311302747894917,12.308446190021472,6.942433022684409,13.977848113061047,4.417911923526441,8.513847242816492
0.275,6.271191659237288,10.98573070727354,6.898310825161017,12.753095493348713,4.389834161466101,7.816193230074502
0.276,6.23104242092246,10.281555132332137,6.854146663014706,11.429429637342029,4.361729694645722,6.858864430653766
0.277,6.1908596542016845,9.741789830453698,6.809945619621853,10.51164754407608,4.333601757941179,6.7204249477991524
0.278,6.150647968650945,9.01205224950438,6.7657127655160405,9.950957487004494,4.305453578055661,6.380217909709982
0.279,6.110411961691203,7.655310354933402,6.721453157860324,7.851217101868664,4.277288373183842,5.303280508762974
0.28,6.070156218110315,4.5412547291904914,6.677171839921346,4.66063718556687,4.24910935267722,3.1415397929520292
0.281,6.029885309586552,0.7161193334533582,6.632873840545208,0.7451166701961647,4.220919716710586,0.5568654142520222
0.282,5.989603794213879,-2.1886890497164817,6.588564173635268,-2.3497174050830383,4.192722655949716,-1.5177772988601088
0.283,5.94931621602894,-2.755770357692363,6.5442478376318345,-3.010311083390885,4.164521351220258,-1.8689467549760375
0.284,5.9090271045398755,0.28330024595342795,6.499929814993863,0.2741041586067805,4.136318973177913,-0.1024094011143486
0.285,5.868740974256994,5.599016419911907,6.455615071682694,5.698848381079834,4.108118681979896,3.471547610774699
0.286,5.82846232422531,11.351710111102847,6.411308556647842,11.699777746507323,4.079923626957717,7.482384822579054
0.287,5.788195637559081,15.669564083800534,6.36701520131499,16.41204529090323,4.051736946291356,10.442878548253042
0.288,5.7479453809782655,17.033125236254804,6.322739919076093,18.05325856393723,4.023561766684786,11.459066097390318
0.289,5.707716004347111,15.421056193180261,6.278487604781822,16.93191202454986,3.9954012030429773,10.807547297121475
0.29,5.667511940214732,13.048617668883793,6.234263134236206,14.46146441639236,3.9672583581503122,9.061388767952398
0.291,5.627337603357918,10.247686969803233,6.19007136369371,11.697735672720388,3.9391363223505422,7.078568430275979
0.292,5.5871973903260335,8.489122499677254,6.145917129358637,9.584749091796258,3.9110381732282233,5.615332141658444
0.293,5.547095678988222,7.196227290008545,6.101805246887045,8.04951450067068,3.882966975291755,4.72629946569301
0.294,5.507036828082819,5.02508511746505,6.057740510891101,5.211812844476236,3.8549257796579726,3.3064247213403526
0.295,5.467025176769138,2.405782485617854,6.013727694446052,2.28541328422169,3.826917623738396,1.3968814004415409
0.296,5.427065044181566,-1.2730795523198708,5.969771548599723,-1.6926888070904385,3.798945530927096,-1.1563043090065963
0.297,5.387160728986127,-3.5053053535426857,5.9258768018847405,-4.52858656279642,3.771012510290289,-2.703313293082992
0.298,5.347316508939439,-3.8900276805231764,5.882048159833384,-4.5984974812868105,3.743121556257607,-2.6348916450386124
0.299,5.307536640450233,-1.235357592154008,5.838290304495257,-1.3972325159666168,3.715275648315163,-0.512883375893538
0.3,5.267825358143346,3.851672717839696,5.794607893957681,4.109941161145257,3.6874777507003422,3.009449278719542
0.301,5.228186874426374,9.393130267903041,5.751005561869012,9.89748545416905,3.6597308120984615,6.521889602590995
0.302,5.188625379058888,13.307074613594772,5.707487916964777,13.65469088937094,3.6320377653412215,8.98528067195879
0.303,5.149145038724393,14.078491263131042,5.664059542596833,14.567031007360594,3.604401527107075,9.582420689785842
0.304,5.109749996604938,12.326063557438783,5.620724996265432,12.730555996675918,3.5768249976234565,8.50097580812324
0.305,5.070444371958542,8.70788275698941,5.5774888091543975,8.806996162403793,3.549311060370979,6.216879449355681
0.306,5.03123225969939,5.663398119178214,5.534355485669329,5.41674278373795,3.521862581789573,4.003961665740458
0.307,4.9921177299809045,3.4870609445781655,5.491329502978996,3.5615537714651726,3.494482410986633,2.7574425620651906
0.308,4.953104827781667,2.4192514053919356,5.448415310559834,2.3784851051593368,3.467173379447167,1.9492136180596624
0.309,4.914197572494326,1.6612891331710067,5.40561732974376,1.511141127851158,3.4399383007460282,1.316134905484375
0.31,4.875399957517412,0.5228888289795002,5.362939953269153,-0.03769347683181756,3.412779970262188,0.20973212833206878
0.311,4.836715949850232,-1.204708968017984,5.320387544835255,-1.5532632052153073,3.3857011648951625,-1.168007028620612
0.312,4.798149489690758,-1.9809122547952418,5.277964438659834,-2.4605449768712164,3.3587046427835303,-1.551474803471141
0.313,4.759704490036671,-0.4874416289912755,5.235674939040338,-1.010818072379756,3.3317931430256693,-0.46939463299831496
0.314,4.721384836289494,3.295213244340813,5.193523319918444,3.0269839787544326,3.3049693854026456,2.1216171000902366
0.315,4.683194385861908,8.784289748999909,5.1515138244481,9.119226387196441,3.2782360701033353,6.016371642235913
0.316,4.645136967788326,14.091752601559019,5.109650664567159,14.602591026924856,3.251595877451828,9.69050404042187
0.317,4.6072163823386525,17.17138984599806,5.067938020572518,18.365733101731962,3.2250514676370567,11.636093195684527
0.318,4.569436400635408,17.06993985212883,5.02638004069895,17.95171316005221,3.1986054804447854,11.401153924449458
0.319,4.5318007642741245,13.734167788882901,4.984980840701537,14.247740328544875,3.172260534991887,9.191056234154454
0.32,4.494313184947167,9.152948818143404,4.943744503441884,9.46013391500702,3.1460192294630165,5.961567625256494
0.321,4.456977344070912,5.064951777442766,4.902675078478004,5.357772883402627,3.1198841408496385,3.1305786711129397
0.322,4.419796892416423,2.6514547026240876,4.861776581658066,2.6086635709261614,3.0938578246914963,1.4672422048218188
0.323,4.382775449743562,1.4876777223041309,4.821052994717919,0.9754873327396698,3.0679428148204932,0.4789875112283739
0.324,4.345916604438667,0.8748866268295972,4.780508264882534,-0.016905968236677005,3.042141623107067,-0.22999911909114212
0.325,4.309223913155743,-0.3449805366364691,4.740146304471318,-1.0071414058944228,3.01645673920902,-0.7228584001038234
0.326,4.2727009004612935,-1.7786347321457674,4.699970990507423,-2.2532329494968746,2.9908906303229053,-1.6590786893881173
0.327,4.236351058482729,-2.3194498060479303,4.659986164331002,-3.2406474272457144,2.96544574093791,-2.2771530202446564
0.328,4.200177846560496,-1.4249285954211324,4.620195631216546,-1.6082035364391585,2.9401244925923473,-1.2750759280325354
0.329,4.164184690903849,2.0121544118571455,4.580603159994235,2.291367255480398,2.9149292836326945,1.3148414501952554
0.33,4.128374984250415,6.786013495338789,4.541212482675458,7.985336129741309,2.8898624889752904,4.500191781229796
0.331,4.092752085529465,11.335105125981377,4.502027294082412,12.740165364573372,2.8649264598706257,7.648044309125391
0.332,4.057319319529055,13.298734254949657,4.463051251481962,15.237166693910996,2.8401235236703384,9.231636154176723
0.333,4.022079976566935,11.822290219594183,4.4242879742236285,14.36235658559502,2.8154559835968542,8.28774150166068
0.334,3.987037312165387,8.161201755121883,4.385741043381926,9.941210574337358,2.7909261185157708,5.671787132749998
0.335,3.9521945467299187,3.2992225738288345,4.347414001402911,4.2519943305798655,2.7665361827109427,2.2329846998198777
0.336,3.917554865231928,-0.18272618128537133,4.309310351755121,0.04055931233041399,2.7422884056623493,-0.42149367524775716
0.337,3.883121416895297,-1.929466080839993,4.271433558584827,-2.0538987662014208,2.718184991826708,-1.4716065971538508
0.338,3.848897314887025,-2.071551868807748,4.233787046375728,-1.9589569092096353,2.694228120420917,-1.4120071956449278
0.339,3.8148856360118426,-1.1139444959296458,4.196374199613027,-0.8268543434034061,2.6704199452082897,-0.9407518377382029
0.34,3.781089420410936,0.03395687116037305,4.15919836245203,0.33781570931355986,2.646762594287655,-0.3484186902618913
0.341,3.7475116712647107,0.34391322178360273,4.122262838391182,0.7716547503071522,2.6232581698852973,-0.1252754798124407
0.342,3.7141553544997175,1.1701785605082144,4.08557088994969,1.6956800878575615,2.599908748149802,0.6202658246085284
0.343,3.6810233984996916,3.4112302815469464,4.0491257383496615,3.95604950659253,2.576716378949784,2.106079329193594
0.344,3.6481186938207983,7.016680202581371,4.012930563202879,7.953248919874571,2.5536830856745585,4.556421075849003
0.345,3.615444092911062,11.574384769293033,3.9769885022021687,12.79192123061738,2.5308108650377434,7.635126519588196
0.346,3.5830024098340374,15.309714301414957,3.9413026508174416,16.799705114303908,2.508101686883826,10.03777927133796
0.347,3.5507964199967583,16.06623647606093,3.9058760619964343,18.136072314087002,2.4855574939977307,10.563574739860288
0.348,3.5188288598819355,13.557691501093656,3.8707117458701292,15.554345578448869,2.4631802019173548,8.796463482226514
0.349,3.48710242678452,8.405981543217667,3.835812669462972,10.209208068437135,2.4409716987491636,5.27912053551913
0.35,3.4556197785525606,2.4485065790231824,3.801181756407817,3.926062328110716,2.418933844986792,1.2999831774414845
0.351,3.4243835333324704,-1.8692917370752484,3.7668218866657175,-0.9810329413427317,2.397068473332729,-2.070173713329843
0.352,3.3933962693186492,-3.7848081838354206,3.7327358962505146,-3.3591553104978225,2.3753773885230545,-3.513051017544986
0.353,3.3626605245075565,-3.3412877034725534,3.6989265769583124,-3.2099653050292343,2.353862367155289,-3.469341964288626
0.354,3.3321787964562013,-2.053360466834513,3.6653966761018215,-1.1885002750133706,2.3325251575193406,-2.411044768739945
0.355,3.30195354204512,-0.463679216049945,3.632148896249632,0.2845328333869164,2.311367479431584,-1.4372638470583186
0.356,3.271987177245819,0.37039957820662606,3.599185894970401,1.175788545370355,2.2903910240720733,-0.8228930174728757
0.357,3.242282076892762,1.580289926251675,3.5665102845820384,2.1557486066317177,2.2695974538249333,0.05105273100637309
0.358,3.2128405744598574,2.998554714221095,3.5341246319058435,3.6295266911773334,2.2489884021219,1.278174387848458
0.359,3.18366496184154,6.047137648661478,3.5020314580256944,6.429608081078852,2.228565473289078,3.503472940817109
0.36,3.154757489138409,9.729846792958503,3.4702332380522503,10.184049293955443,2.2083302423968862,6.1017259387315494
0.361,3.126120364447458,12.60303900073201,3.438732400892204,12.994434019156891,2.1882842551132207,7.853523115340536
0.362,3.0977557536569647,12.83711967269901,3.407531329022661,13.058385358124287,2.168429027559875,7.905987178472963
0.363,3.069665780245983,9.778174674289364,3.3766323582705815,10.002296025387299,2.148766046172188,5.934707681572379
0.364,3.041852525088518,4.406200177925661,3.34603777759737,4.666581971450459,2.1292967675619625,2.316951308192472
0.365,3.014318026262373,-0.6246005915029222,3.3157498288886105,-1.4035564898704713,2.110022618383661,-1.2701406739794425
0.366,2.987064278862709,-4.30972881209689,3.28577070674898,-5.128113609005794,2.090944995203896,-3.4231828493664205
0.367,2.9600932348203015,-4.921297073981915,3.2561025583023318,-5.907520143582553,2.072065264374211,-4.041749838150102
0.368,2.933406802724554,-2.8378601172433724,3.22674748299701,-3.825476659403394,2.053384761907188,-2.7426095880816246
0.369,2.9070068476512523,0.13985988923985948,3.197707532416378,-0.28118647590406187,2.0349047933558766,-0.5076836738815906
0.37,2.880895190995096,2.6742207389519876,3.168984710094606,2.9158799078129656,2.0166266336965673,1.4985334386081364
0.371,2.8550736103070076,4.599343184311293,3.1405809713377084,5.302445961995346,1.9985515272149053,2.747188653739858
0.372,2.829543839136263,5.964480242849426,3.112498223049889,6.9388810481486205,1.980680687395384,3.6640381785069835
0.373,2.804307566877406,7.548211958293223,3.084738323565147,8.217303100597057,1.963015296814184,4.671535763860955
0.374,2.779366438622046,9.624902201242815,3.0573030824842506,10.853415519190952,1.945556507035432,6.168176486907154
0.375,2.7547220550154448,11.930607267867426,3.0301942605169896,13.423109935449483,1.9283054385108112,8.04683850922909
0.376,2.7303759721180167,13.093819489197703,3.0034135693298185,14.95680403774543,1.9112631804826117,9.130122285763974
0.377,2.7063297012716676,12.147456289453796,2.9769626713988346,13.625432276186325,1.8944307908901672,8.393861431261364
0.378,2.6825847089710386,8.27963813148441,2.950843179868143,9.128959120024765,1.8778092962797268,5.618658404283943
0.379,2.659142416739649,2.1126158673086763,2.9250566584136144,2.740941992640867,1.8613996917177542,1.4141214242499744
0.38,2.63600420101094,-4.062882909641801,2.8996046211120343,-3.4179208643299708,1.845202940707658,-2.7066526127214736
0.381,2.613171393014259,-7.558210732962788,2.874488532315685,-7.3626916912922535,1.8292199751099811,-5.1775929886603125
0.382,2.59064527866576,-7.747344916814095,2.8497098065323363,-7.587172125029232,1.813451695066032,-5.734667673106739
0.383,2.568427098464264,-5.188093564962846,2.825269808310691,-5.081706351479267,1.7978989689249847,-4.141765510093107
0.384,2.5465180473920634,-1.406825659381714,2.8011698521312702,-1.230023212945707,1.7825626331744442,-1.5523412728460162
0.385,2.524919274820694,1.9234099294846723,2.7774112023027637,2.1801293616437274,1.7674434923744855,0.6253753715468144
0.386,2.503631884421682,3.67143499174468,2.7539950728638507,4.398433334188147,1.7525423190951772,2.180120665115206
0.387,2.4826569340822626,4.203432100029859,2.730922627490489,5.229129102851287,1.7378598538575838,2.917671156455035
0.388,2.4619954358261067,5.212946536157989,2.7081949794087175,6.073200598772844,1.7233968050782746,3.4934552440126705
0.389,2.4416483557390185,6.5441051343354975,2.6858131913129206,7.489403077454835,1.7091538490173128,4.4241469358023044
0.39,2.4216166138996558,7.84286586697249,2.6637782752896215,9.12244291988656,1.695131629729759,5.535796126512164
0.391,2.401901084315253,8.693532576440656,2.6420911927467787,10.00543766656127,1.681330759020677,5.8740783858698675
0.392,2.382502594862352,7.383724042073922,2.6207528543485874,8.490202103218014,1.6677518164036462,4.783037664956008
0.393,2.3634219272325687,3.84995479713608,2.5997641199558257,4.360494811943482,1.654395349062798,2.1749949715583607
0.394,2.3446598168833717,-0.9676087426331414,2.579125798571709,-1.3832730796967843,1.64126187181836,-1.3586870640609559
0.395,2.326216952993895,-5.839628627319598,2.5588386482932846,-6.529194007739083,1.6283518670957264,-4.367321797076105
0.396,2.308093978425778,-8.007010462900094,2.538903376268356,-8.743524742915083,1.6156657848980447,-5.744107975921977
0.397,2.2902914896890554,-6.407832750269905,2.519320638657961,-7.498681752005991,1.6032040427823386,-4.841967969809389
0.398,2.2728100369130715,-2.429235988015943,2.500091040604379,-3.3462828655693455,1.59096702583915,-2.1181050193266895
0.399,2.2556501238224396,2.5349310094993185,2.4812151362046837,1.9631839923187033,1.5789550866757076,1.1669199755326634
0.4,2.2388122077180492,6.706372562286967,2.4626934284898545,6.188761356714361,1.5671685454026343,4.134308120131712
0.401,2.222296699463114,8.950814749746774,2.444526369409426,8.549214035646072,1.5556076896241797,5.971651199260633
0.402,2.2061039634742547,9.660166921549806,2.4267143598216805,9.417957207463523,1.5442727744319782,6.317654785052746
0.403,2.1902343177176444,9.664267569177888,2.409257749489409,9.307607292268061,1.533164022402351,6.316456847468158
0.404,2.174688033710181,9.44615353398035,2.3921568370811994,9.451328025565632,1.5222816235971266,6.254484662251461
0.405,2.159465336525713,9.301827994845004,2.3754118701782847,9.504814579658166,1.511625735567999,6.6533793653391635
0.406,2.1445664048063042,8.383405094074625,2.3590230452869347,8.978676201363879,1.501196483364413,6.087774910492898
0.407,2.129991370778531,5.796198116715518,2.3429905078563844,6.209032975530901,1.4909939595449715,4.490921479593169
0.408,2.1157403202748313,1.6783035333682248,2.3273143523023148,1.6253261703411936,1.4810182241923817,1.5172319879513403
0.409,2.1018132927598687,-3.582443213442792,2.3119946220358556,-3.844491124939346,1.471269304931908,-2.0695806898090208
0.41,2.088210281361948,-7.986030172064986,2.297031309498143,-8.51403145136549,1.4617471969533635,-5.124904683850998
0.411,2.074931232909436,-9.681152900148724,2.2824243562003796,-10.218367763536971,1.4524518630366052,-6.613708329285764
0.412,2.061976047972218,-8.26690734657243,2.26817365276944,-8.197534213556686,1.4433832335805523,-5.409609601357161
0.413,2.0493445809081665,-3.9442921971705864,2.2542790389989835,-3.6214053479506463,1.4345412066357164,-2.3714281738472365
0.414,2.037036639914625,1.524858702130914,2.2407403039060876,1.9774074112107944,1.4259256479402374,1.3028894929702282
0.415,2.0250519870848827,5.486170485066288,2.227557185793371,6.23274414940127,1.4175363909594179,4.0376576399938156
0.416,2.0133903384696703,7.2743820967291,2.2147293723166377,7.945646244842355,1.409373236928769,5.2198711831280065
0.417,2.0020513641436244,7.2950329413466095,2.202256500557987,7.913440292135703,1.401435954900537,5.315107410282142
0.418,1.9910346882767485,6.304649188800457,2.1901381571044234,6.835617362613817,1.3937242817937239,4.230860193164172
0.419,1.9803398892108435,5.453466656891311,2.178373878131928,5.588733413013223,1.3862379224475903,3.319821698420546
0.42,1.969966499540913,4.977686983825584,2.1669631494950043,4.962394656459468,1.378976549678639,3.0845380074537534
0.421,1.9599140062015126,4.328569211390283,2.155905406821664,4.753279663530375,1.3719398043410587,2.4320882638327115
0.422,1.9501818505580548,2.5309785454343143,2.1452000356138603,2.738096729913436,1.3651272953906384,1.5431730937094217
0.423,1.9407694285030574,-0.12485164107339397,2.134846371353363,-0.9446654588244554,1.3585385999521402,-0.6316503177551944
0.424,1.9316760905572998,-3.840989118535192,2.12484369961303,-4.934554039386542,1.3521732633901098,-3.0475970929047485
0.425,1.9229011419759177,-6.234739911526804,2.11519125617351,-7.496376022439493,1.3460307993831422,-5.054039528339351
0.426,1.9144438428593826,-6.190110151716532,2.105888227145321,-7.446116132150182,1.3401106900015678,-4.963838575541822
0.427,1.9063034082693822,-2.9824401897574697,2.0969337490963205,-3.7895737782815315,1.3344123857885675,-2.858512044763454
0.428,1.898479008349577,2.478753377931048,2.088326909184535,1.9882201617474344,1.3289353058447038,1.0067191027229803
0.429,1.8909697684512272,7.910287201267257,2.08006674529635,8.353627353780167,1.323678837915859,5.243928909614426
0.43,1.883774769263657,11.255317839146109,2.072152246190023,12.601157095237703,1.3186423384845598,7.883947199877361
0.431,1.8768930469495766,12.426626571060615,2.0645823516445345,14.093872786496572,1.3138251328647035,8.403533558294662
0.432,1.8703235932852076,11.089007805436502,2.0573559526137286,12.632318146665158,1.3092265152996452,7.407318398493647
0.433,1.864065355805229,8.242756590944802,2.050471891385752,10.201971096755068,1.3048457490636602,5.71648211250799
0.434,1.858117237952511,5.849221108229331,2.0439289617477625,7.494975479101838,1.3006820665667576,4.174675655087093
0.435,1.85247809923262,4.230988537530435,2.037725909155882,5.325270609389718,1.2967346694628339,3.247383143814799
0.436,1.8471467553730863,2.7827380432849775,2.031861430910395,3.5864576971725786,1.2930027287611603,2.0670382583014923
0.437,1.842121978487417,0.5631921390577834,2.026334176336159,1.0461905181616005,1.2894853849411918,0.5759817745993893
0.438,1.8374024972438239,-2.3908264287951306,2.0211427469682066,-2.243798169345092,1.2861817480706765,-1.641704092040464
0.439,1.8329869970386614,-6.09907796913188,2.0162856967425276,-6.088409452925013,1.283090897927063,-4.24308484784821
0.44,1.8288741201745573,-8.3403434310616,2.011761532192013,-8.333455743419307,1.2802118841221901,-5.694879985811548
0.441,1.8250624660431978,-7.741654794515866,2.007568712647518,-8.221067711410786,1.2775437262302383,-5.212879797979715
0.442,1.821550591312775,-4.388917727631878,2.0037056504440525,-4.626491193458729,1.2750854139189425,-3.1061365132160246
0.443,1.8183370101200547,0.7571712901980143,2.00017071113206,0.9075204975606057,1.2728359070840383,0.5912007080607241
0.444,1.8154201942670474,6.352932559830965,1.9969622136937524,6.77310173354439,1.270794135986933,4.343122754820528
0.445,1.8127985734222793,9.637921881919745,1.9940784307645074,10.525663824511101,1.2689590013955954,6.73840140358843
0.446,1.8104705353266182,9.944778007620716,1.9915175888592802,10.907826139207833,1.2673293747286327,6.943046291608638
0.447,1.8084344260036413,7.840692139458769,1.9892778686040056,8.03086348358147,1.265904098202549,5.383970201313504
0.448,1.806688549974532,4.526891184676137,1.9873574049719853,4.581091572446802,1.2646819849821722,2.8193269506638834
0.449,1.8052311704774624,1.6203962739382591,1.9857542875252088,1.5396205468276078,1.2636618193342235,1.0854115372441897
0.45,1.8040605096914613,-0.01387672343712465,1.9844665606606076,-0.4635978575136712,1.2628423567840228,0.006121897008806609
0.451,1.803174748964727,-0.773285839420202,1.9834922238611998,-1.3489685079107416,1.2622223242753088,-0.7632772095684901
0.452,1.8025720290473677,-1.1491051200442652,1.9828292319521046,-1.7682343390777295,1.2618004203331572,-1.3743303927288923
0.453,1.8022504503285388,-2.736110114069849,1.9824754953613928,-3.374800774630266,1.2615753152299771,-2.3468629311803135
0.454,1.8022080730779644,-4.139657745381166,1.982428880385761,-5.12338143868938,1.261545651154575,-3.345154037124968
0.455,1.8024429176918,-4.803140396116817,1.9826872094609802,-5.70588618473518,1.26171004238426,-3.709559725112233
0.456,1.802952964942829,-3.065631709019836,1.983248261437112,-3.621648338725265,1.2620670754599803,-2.629721981580655
0.457,1.80373615623495,0.9810802194587578,1.9841097718584453,0.7837468236669014,1.262615309364465,0.11639616865326907
0.458,1.8047903938619356,6.4885315125038305,1.9852694332481293,6.5443499499003,1.2633532757033548,3.905849637941257
0.459,1.8061135412704337,11.428142462411525,1.9867248953974772,12.430030791582105,1.2642794788893035,7.3313137955618926
0.46,1.8077034233271956,14.189783647493723,1.9884737656599154,15.22191326156919,1.2653923963290368,9.246364511126725
0.461,1.8095578265904706,13.326304311985076,1.990513609249518,14.21377638919344,1.2666904786133293,8.57954072058914
0.462,1.8116744995855782,9.773771446009032,1.9928419495441363,10.562352426328653,1.2681721497099048,6.1472120409926445
0.463,1.814051153084601,5.315474344813508,1.9954562683930614,5.689546824044196,1.2698358071592206,3.013882196704895
0.464,1.816685460390171,1.2988467106895174,1.9983540064291883,0.9890632442278011,1.2716798222731196,0.1395816891675602
0.465,1.8195750576233425,-1.180214499431162,2.001532563385677,-1.5960335110212547,1.2737025403363396,-1.567444981871806
0.466,1.8227175440154886,-2.296478688614643,2.0049892984170374,-3.0431893813414774,1.275902280810842,-2.422829621178258
0.467,1.826110482204212,-2.713074011708187,2.0087215304246335,-3.730459721983011,1.2782773375429484,-2.8979931305191
0.468,1.8297513985332339,-3.9464913546270566,2.0127265383865574,-5.081902728972174,1.2808259789732637,-3.49526048182112
0.469,1.833637783356227,-4.984509763127438,2.01700156169185,-5.863451668040045,1.2835464483493588,-4.312369371130936
0.47,1.837767091344562,-5.289393313463755,2.0215438004790185,-6.183358713798819,1.2864369639411934,-4.469132377461061
0.471,1.842136741798937,-3.6264639915539787,2.026350415978831,-4.399459804322654,1.2894957192592558,-3.327269166273059
0.472,1.846744118964848,0.05700988114896144,2.031418530861333,-0.07147991764512995,1.2927208832753934,-0.5489992603351439
0.473,1.851586572351887,5.406544127390459,2.036745229587076,5.486040206627866,1.2961106006463208,2.865309246223429
0.474,1.8566614170568054,9.733321462484072,2.0423275587624863,10.124097722706725,1.2996629919397638,5.888520080518412
0.475,1.8619659340903398,11.333339437700399,2.048162527499374,12.018440260209179,1.3033761538632378,7.112147683345645
0.476,1.867497370707739,9.577604057305996,2.054247107778513,9.829185145883526,1.307248159495417,6.112042652628676
0.477,1.8732529407429737,5.502942787181371,2.060578234817271,5.266081439758563,1.3112770585200815,3.3047191166662655
0.478,1.8792298249465933,0.8422680491540087,2.0671528074412526,0.2935812019668702,1.3154608774626153,-0.04622843254321218
0.479,1.8854251713271757,-2.9650203845636542,2.073967688459893,-4.037117934516079,1.319797619929023,-2.6271054814495396
0.48,1.8918360954963678,-4.543759383352696,2.0810197050460046,-5.338143184015239,1.3242852668474574,-3.4774985296703163
0.481,1.8984596810174428,-4.130799171787183,2.0883056491191874,-5.310992135782845,1.32892177671221,-3.0314009024350623
0.482,1.9052929797573674,-2.9467796658890997,2.095822277733104,-3.99212428534586,1.3337050858301571,-2.4257643213888658
0.483,1.9123330122423248,-2.0239647831600065,2.1035663134665574,-3.0151567008908278,1.3386331085696273,-1.8828932316231037
0.484,1.9195767680166638,-1.3056448829640104,2.1115344448183304,-2.558199293399662,1.3437037376116645,-1.8022969892229712
0.485,1.9270212060052332,-0.11595118489246614,2.1197233266057567,-1.4695785813573414,1.3489148442036631,-1.003454625780863
0.486,1.9346632548790637,2.114010945986167,2.12812958036697,1.026375067152894,1.3542642784153445,0.6615045567484303
0.487,1.9424998134243556,5.900733019675478,2.1367497947667915,5.187524805521104,1.359749869397049,3.2596372837018563
0.488,1.9505277509147518,10.312155395963458,2.1455805260062273,10.567685299896914,1.3653694256403262,6.333506042214651
0.489,1.9587439074868187,13.299676511104806,2.154618298235501,14.457693567249429,1.371120735240773,8.870634948358848
0.49,1.967145094518746,13.754136861156157,2.163859603970621,15.201371431988246,1.377001566163122,9.201566224631275
0.491,1.9757280950121707,10.723863321293683,2.173300904513388,12.06566460647103,1.3830096665085194,7.345794626869983
0.492,1.9844896639771443,5.488818808950565,2.182938630374859,6.183033757327278,1.389142764784001,3.8329333303489523
0.493,1.9934265288201418,-0.4692124061536729,2.192769181702156,-0.22766133496869978,1.3953985701740992,0.046803479608120035
0.494,2.0025353897351255,-4.673027606364201,2.2027889287086384,-4.310835765727072,1.4017747728145877,-2.964767890534005
0.495,2.0118129200975825,-6.621107416170932,2.212994212107341,-5.9345805777591565,1.4082690440683077,-4.143179588049392
0.496,2.0212557668615254,-5.877514312289948,2.223381343547678,-5.357987461043761,1.4148790368030677,-3.9658794432091735
0.497,2.0308605509593827,-4.563215994086256,2.233946606055321,-3.855852633231169,1.4216023856715678,-2.848772473283641
0.498,2.0406238677047766,-3.402285891763301,2.2446862544752544,-2.404160843648926,1.4284367073933435,-1.830484170048479
0.499,2.0505422871980974,-2.615693310446595,2.255596515917907,-0.9717188748469647,1.4353796010386681,-1.2247482004905703
0.5,2.0606123547348876,-1.621873822510911,2.2666735902083763,-0.18058462265671205,1.4424286483144213,-0.5286924599173977
0.501,2.0708305912169314,0.35272007046605425,2.2779136503386246,1.698140817132098,1.449581413851852,0.875352853537049
0.502,2.0811934935660705,3.3707460771548505,2.2893128429226777,5.356949098112464,1.4568354454962493,3.0119316270764642
0.503,2.0916975351406473,7.19431322195628,2.3008672886547124,8.960597432413046,1.464188274598453,5.404715716440074
0.504,2.1023391661545654,9.540981196499658,2.312573082770022,11.161307864076484,1.4716374163081958,7.223771392698318
0.505,2.1131148140989167,9.441848623680121,2.3244262955088084,11.17015054783733,1.4791803698692416,7.0084516986392025
0.506,2.1240208841661135,6.149443962673189,2.336422972582725,7.696619675515555,1.4868146189162794,4.947102735592957
0.507,2.1350537596765173,1.2291356528190598,2.348559135644169,2.092679441362658,1.4945376317735621,1.404816841062901
0.508,2.146209802507475,-3.450837929653826,2.3608307827582227,-3.75313878233794,1.5023468617552325,-2.1231471019740344
0.509,2.1574853535247573,-6.68540968875273,2.373233888877233,-7.073754464908875,1.5102397474673301,-4.3497435936549484
0.51,2.1688767330163254,-6.722478243549343,2.3857644063179584,-7.07284764706728,1.5182137131114277,-4.575136954996941
0.511,2.180380241128406,-4.41938763831163,2.398418265241247,-4.8035185223321575,1.5262661687898842,-2.9786831456733327
