time,roll_setpoint,gyro_roll,pitch_setpoint,gyro_pitch,yaw_setpoint,gyro_yaw
0.0,3.221088436188455,0.6094341595088627,3.543197279807301,0.3878094786020093,2.2547619053319186,-2.3214809080387093
0.001,3.299582398918418,0.3404939223098773,3.62954063881026,0.5468356972216131,2.3097076792428926,-1.964563838278373
0.002,3.3777459409858164,0.456534769240181,3.7155205350843983,0.1682525920160407,2.364422158690071,-1.7762319353486633
0.003,3.455574210797501,0.5989942355944057,3.8011316318772517,0.0886617370891757,2.4189019475582505,-1.6825960183985336
0.004,3.533062390490227,0.14888777430419775,3.88636862953925,0.2622092883636645,2.473143673343159,-1.549450868205135
0.005,3.6102056963405573,-0.12643690449868566,3.9712262659746136,0.25042039216266876,2.52714398743839,-1.2493578711988809
0.006,3.686999379171322,-0.08822513341536002,4.055699317088455,0.5481917916034476,2.580899565419925,-1.0220484116534825
0.007,3.763438724754603,-0.14265113854254047,4.139782597230063,0.14666947364198074,2.634407107328222,-0.9377528546089043
0.008,3.839519054211185,-0.13174625618914418,4.223470959632304,-0.23979786267036668,2.6876633379478294,-1.0034526141177131
0.009,3.9152357244064526,-0.28918041608494577,4.3067592968470985,-0.04648704274633206,2.740665007084517,-1.0527035962735714
0.01,3.9905841283426917,-0.08438277950388545,4.389642541176961,0.14863924881351162,2.793408889839884,-0.8420090142567616
0.011,4.0655596955477415,0.07961388553229276,4.472115665102516,0.09126032242915712,2.845891786883419,-0.9366920524227005
0.012,4.140157892459986,0.08485863649130669,4.5541736817059855,0.17022105819630076,2.8981105247219903,-0.8595644755346337
0.013,4.214374222809629,0.3018210142357826,4.635811645090592,0.31714448745558016,2.95006195596674,-0.39825793014798394
0.014,4.28820422799622,0.3651407812626135,4.7170246507958415,0.10638013342263791,3.0017429595973537,-0.29409361976137216
0.015,4.3616434874624,0.6157733127165593,4.797807836208641,0.4451410899420687,3.05315044122368,-0.16076936922593432
0.016,4.4346876190638245,1.0751863749994348,4.878156380970207,0.9343310007833968,3.104281333344677,-0.2932373703646269
0.017,4.507332279435237,1.2142027724902102,4.958065507378761,1.521940182553846,3.1551325956046656,-0.4357358651923064
0.018,4.5795731643526425,1.7002607854928977,5.0375304807879075,1.5882026934889844,3.2057012150468496,-0.28074719348774857
0.019,4.651406009091567,1.9475535183481512,5.116546610000724,1.8558683380763545,3.2559842063640967,-0.2922017525842538
0.02,4.722826588781357,2.140373148513966,5.195109247659493,2.083551645474393,3.30597861214695,-0.09867456990691409
0.021,4.793830718755473,2.213403792261248,5.27321379063102,2.4327267382637756,3.3556815031288307,-0.06876845964879007
0.022,4.864414254897774,2.659769816026285,5.350855680387552,2.653058371817446,3.4050899784284416,0.43599917629310714
0.023,4.934573093984735,2.7870758017531148,5.428030403383209,2.7342658963166127,3.454201165789314,0.3262744845199277
0.024,5.004303174023567,2.8487659633522524,5.504733491425925,3.2041934152793585,3.5030122218164967,0.6356075930842746
0.025,5.073600474586228,2.9221457238290975,5.580960522044851,3.23668880139553,3.5515203322103592,0.7409800629705793
0.026,5.142461017139256,3.168323437585719,5.656707118853182,3.3238822153230045,3.599722711997479,1.0998947058681547
0.027,5.210880865369442,3.3602852570960455,5.731968951906387,3.120640399324078,3.6476166057586092,1.33601275657553
0.028,5.278856125505255,3.5467258785846876,5.8067417380557815,3.135493553852527,3.6951992878536783,1.3494721395379368
0.029,5.346382946634043,3.7227273308891133,5.881021241297448,3.4244417587793152,3.7424680626438303,1.4500058146738009
0.03,5.413457521014937,4.2281894863242915,5.954803273116432,3.64687591848445,3.7894202647104556,1.7761526816546869
0.031,5.480076084387463,4.1786443059619796,6.028083692826209,3.9140945131522167,3.8360532590712237,2.052832362428237
0.032,5.546234916275796,4.118250748041044,6.100858407903376,4.1498125250835685,3.8823644413930567,1.929209919769502
0.033,5.611930340288663,4.0091264443861805,6.17312337431753,4.706129209038844,3.928351238202064,1.9519033536628927
0.034,5.6771587244148485,4.2025418017089775,6.2448745968563335,4.589232675067587,3.974011107090394,2.294199537663738
0.035,5.741916481314269,4.485004347976976,6.316108129445697,4.2986506786893655,4.019341536919988,2.3258995519813377
0.036,5.806200068604601,4.496516716770261,6.386820075465061,4.168746476318846,4.064340048023221,2.4058778893313306
0.037,5.8700059891434355,4.367585942196936,6.457006588057779,4.134695836549839,4.109004192400405,2.598591054839065
0.038,5.933330791305923,4.260686006162954,6.526663870436516,4.051104718295491,4.153331553914145,2.444632841567047
0.039,5.996171069257885,4.465531832231782,6.5957881761836745,4.217475088980011,4.19731974848052,2.364081585842067
0.04,6.058523463224383,4.674492157561462,6.664375809546822,4.628860601047942,4.240966424257068,2.381051638839624
0.041,6.120384659753688,4.82861850270836,6.732423125729057,5.0689387149627345,4.284269261827581,2.613648575420969
0.042,6.181751391976656,4.731687610002526,6.7999265311743216,5.2439289027977285,4.3272259743836585,2.800572880839769
0.043,6.242620439861469,4.830070604685814,6.866882483847616,5.768247340095056,4.3698343079030275,2.9303603681215202
0.044,6.302988630463721,4.901598545254347,6.933287493510094,5.697338156770805,4.4120920413246045,2.9305458852295216
0.045,6.3628528381718334,4.992438657241152,6.999138121989017,5.359438623736271,4.453996986720283,3.1120177606107413
0.046,6.422209984947755,5.210788372153194,7.064430983442531,5.652832543849212,4.495546989463429,3.099558867532559
0.047,6.481057040562951,5.283759013728961,7.129162744619247,5.287321929219262,4.5367399283940655,3.1943913091301317
0.048,6.5393910228296495,5.446492084129935,7.193330125112615,5.20334795637882,4.577573715980754,3.33029399490553
0.049,6.597208997827305,5.476651061987382,7.2569298976100365,5.414859461483881,4.618046298479113,3.5662755008830374
0.05,6.654508080124296,5.554035844224482,7.319958888136727,5.474798199292387,4.658155656087007,3.537027878225902
0.051,6.711285432994797,5.698014733410508,7.382413976294277,5.5157460828162606,4.697899803096357,3.471638159385056
0.052,6.76753826863083,5.415768894927374,7.444292095493913,5.341283146026189,4.73727678804158,3.648675522854571
0.053,6.82326384834947,5.395067910821318,7.505590233184417,5.448069469272192,4.776284693844628,3.8225649256155467
0.054,6.878459482795181,5.3520799186243115,7.566305431074699,5.7737209325853405,4.814921637956626,3.7147318326078005
0.055,6.933122532137267,5.285431341272495,7.626434785350994,5.8567102635399415,4.8531857724960865,3.542836196257264
0.056,6.987250406262419,5.303893673291672,7.685975446888661,5.750626851695853,4.891075284383692,3.71727168565954
0.057,7.0408405649623464,5.680181637885646,7.744924621458582,5.569563681838743,4.928588395473642,3.477512289211178
0.058,7.093890518116458,5.552296756842508,7.803279569928105,5.5091259618771256,4.96572336268152,3.25831513562237
0.059,7.1463978258696095,5.809587140506865,7.861037608456571,5.725277618493915,5.002478478108726,3.2641849114345094
0.06,7.198360098804855,5.5164374398812965,7.918196108685342,5.915163618886766,5.038852069163398,3.3110651098849884
0.061,7.249774998111233,5.527671258841567,7.974752497922357,5.840375720707152,5.074842498677863,3.19419386962114
0.062,7.30064023574654,5.642733327292802,8.030704259321194,5.468777515246215,5.110448165022578,3.2721113199808776
0.063,7.350953574595092,5.836358910253638,8.086048932054602,5.719022466089555,5.145667502216564,3.3521039279682046
0.064,7.400712828620459,6.040950000704855,8.140784111482505,5.6602044237758555,5.180498980034321,3.323133246398283
0.065,7.449915863013141,6.246784210811023,8.194907449314455,5.962163466231967,5.214941104109198,3.6525682544767957
0.066,7.498560594333212,6.208849086872218,8.248416653766535,5.92174014109185,5.248992416033248,3.7280832578589553
0.067,7.546644990647877,6.157160731003581,8.301309489712665,5.840061629661955,5.282651493453514,3.8973825613977153
0.068,7.594167071663945,6.3798350242413235,8.35358377883034,6.023227995388204,5.315916950164761,3.691379024861118
0.069,7.641124908855225,6.375463456162031,8.405237399740749,6.678659105708463,5.348787436198657,3.5082241800111147
0.07,7.687516625584808,6.15967925746231,8.45626828814329,6.920169145925737,5.381261637909366,3.6162983891035947
0.071,7.733340397222232,5.998928606907629,8.506674436944456,7.008182666949922,5.413338278055562,3.9122336329037193
0.072,7.77859445125553,5.901943715213934,8.556453896381084,7.141790007075871,5.445016115878871,3.7808712578244394
0.073,7.8232770673981396,6.102851751146248,8.605604774137953,6.803202801348703,5.476293947178697,3.8274453793766123
0.074,7.867386577690672,6.217541674330231,8.65412523545974,6.642106585841216,5.50717060438347,3.6796816398828534
0.075,7.910921366597526,6.435141829044497,8.702013503257279,6.196874553413831,5.5376449566182675,3.622275307159497
0.076,7.953879871098349,6.412149035065544,8.749267858208185,6.734328464891389,5.567715909768844,3.7014957950284244
0.077,7.996260580774324,6.513275790324331,8.795886638851757,7.178617637421514,5.597382406542026,3.680005001551183
0.078,8.038062037889294,6.702308726698171,8.841868241678224,7.333942629720729,5.626643426522505,3.550035697685038
0.079,8.07928283746568,6.690006399341786,8.887211121212248,7.422051328010409,5.655497986225976,3.4330764405910394
0.08,8.119921627355257,6.836660572396746,8.931913790090784,7.135226136685323,5.68394513914868,3.2527965649284014
0.081,8.159977108304703,6.749357302860798,8.975974819135175,7.1750803052703995,5.711983975813292,3.4243913393987055
0.082,8.199448034015951,6.734953097735288,9.019392837417547,7.65835501191316,5.739613623811166,3.5988175531166235
0.083,8.238333211201375,6.722592747126163,9.062166532321514,7.732661822085377,5.766833247840962,3.758115932495569
0.084,8.27663149963373,6.552934073136167,9.104294649597104,7.651118800134693,5.79364204974361,3.694228216538112
0.085,8.314341812190914,6.7410352619291825,9.145775993410007,7.319831484864896,5.820039268533639,3.907799934853864
0.086,8.351463114895509,6.723228352025725,9.186609426385061,7.71671038924219,5.846024180426856,4.061050074532892
0.087,8.387994426949106,6.807703665609355,9.226793869644018,7.75935017163662,5.871596098864374,4.103933915362133
0.088,8.423934820761426,6.981449300844881,9.26632830283757,7.431137043749943,5.896754374532998,4.122405260494046
0.089,8.459283421974213,7.134989578906478,9.305211764171634,7.323301759553315,5.921498395381949,4.072928948210349
0.09,8.494039409479925,7.320903735960789,9.343443350427918,7.152882922244636,5.9458275866359465,4.148965074003176
0.091,8.528202015435198,7.339354161006048,9.38102221697872,7.255872739461084,5.969741410804638,4.41966185430715
0.092,8.5617705252691,7.294843333000331,9.417947577796012,7.427392714383884,5.9932393676883695,4.598892553050769
0.093,8.594744277686168,7.327290391362094,9.454218705454785,7.429608226031605,6.016320994380317,4.567715180811363
0.094,8.627122664664231,7.038704592180451,9.489834931130655,7.717368794076348,6.038985865264961,4.653582308925965
0.095,8.65890513144703,6.830701054205187,9.524795644591734,7.826786764872789,6.061233592012921,4.5038716239175365
0.096,8.690091176531613,6.672003818907184,9.559100294184775,8.145620884998115,6.083063823572129,4.628123443624823
0.097,8.720680351650541,6.597834225907752,9.592748386815597,8.124204269173285,6.104476246155379,4.5239681189303385
0.098,8.750672261748878,6.813997052145159,9.625739487923767,8.857346016330254,6.125470583224215,4.6456970739312915
0.099,8.780066564955995,6.750947983180832,9.658073221451595,8.726814987587378,6.146046595469196,5.076765868388251
0.1,8.80886297255217,6.80306587268792,9.689749269807388,8.538530609138704,6.166204080786518,4.97169969665333
0.101,8.837061248930006,7.18879252027356,9.720767373823007,8.345697760030706,6.185942874251004,5.368543378754703
0.102,8.864661211550661,7.208133974391451,9.751127332705728,8.355141874578976,6.205262848085463,5.387573425102144
0.103,8.891662730894913,7.447526592651908,9.780829003984405,8.035302939337408,6.224163911626438,5.233403257528913
0.104,8.918065730409031,7.331926110958671,9.809872303449936,8.194039755977109,6.242646011286322,5.090538228809836
0.105,8.943870186445512,7.376637861809814,9.838257205090065,7.856360011947729,6.260709130511858,5.406686729546649
0.106,8.969076128198637,7.271020990072888,9.865983741018502,8.010548072014336,6.278353289739045,5.431379306002936
0.107,8.9936836376349,7.301166293869014,9.893052001398392,7.819777300893586,6.29557854634443,5.307521959826455
0.108,9.017692849418289,7.567111196964108,9.919462134360119,7.864714916670174,6.312384994592802,5.2489912110943395
0.109,9.04110395083043,7.295824937972567,9.945214345913472,8.12522015268995,6.3287727655813,5.287235323271174
0.11,9.063917181685632,7.486848275914335,9.970308899854196,8.73667964120659,6.344742027179942,5.262218904100385
0.111,9.086132834240804,7.622206915912406,9.994746117664885,8.545997544349431,6.360292983968562,5.291408928603186
0.112,9.107751253100284,7.58037088495642,10.018526378410314,8.581464067992757,6.375425877170199,5.519582220952023
0.113,9.128772835115576,7.374998221791542,10.041650118627135,8.490154348572164,6.390140984580903,5.320703947477507
0.114,9.149198029280011,7.496404665869285,10.064117832208014,8.378695843937106,6.404438620496007,5.391829340453249
0.115,9.169027336618353,7.487893404109677,10.085930070280188,8.315262648254187,6.418319135632847,5.357304466624607
0.116,9.18826131007134,7.635157442356429,10.107087441078475,8.599500958094351,6.431782917049937,5.268452030145714
0.117,9.206900554375213,7.727963660624935,10.127590609812735,8.569325258893638,6.444830388062649,5.410300624800005
0.118,9.224945725936184,8.129851014987317,10.147440298529803,9.147002263000623,6.4574620081553284,5.185069839231816
0.119,9.242397532699936,8.125642160176582,10.16663728596993,9.266129582398266,6.469678272889955,4.85743487601289
0.12,9.259256734016097,7.967288283633292,10.185182407417708,9.062115100498758,6.481479713811267,4.927036880518528
0.121,9.275524140497758,8.067529941416826,10.203076554547534,9.022455345448122,6.492866898348431,4.94060141604857
0.122,9.291200613876011,8.168040244273252,10.220320675263613,8.893393829318645,6.5038404297132075,4.784422888580762
0.123,9.306287066849553,8.488429405582638,10.236915773534509,9.131960787792543,6.514400946794686,4.595414636577731
0.124,9.32078446292935,8.67399923934806,10.252862909222285,8.81236276222378,6.524549124050544,4.936668697636589
0.125,9.334693816278396,8.74734209030901,10.268163197906237,8.592422601677965,6.534285671394876,5.039890528850585
0.126,9.34801619154658,9.036558288456131,10.28281781070124,8.561459007212875,6.543611334082606,5.072242574429973
0.127,9.360752703700658,8.768304220915347,10.296827974070725,8.81603121036836,6.5525268925904605,5.4074316838050995
0.128,9.372904517849397,8.638485739411712,10.310194969634338,9.168159821644167,6.561033162494578,5.546309039662873
0.129,9.384472849063851,8.466035490325435,10.322920133970237,9.519447985899374,6.569130994344695,5.777325676845109
0.13,9.395458962192835,8.419878215040292,10.33500485841212,9.650308579514302,6.576821273534985,5.573729705221738
0.131,9.405864171673603,8.182599644010633,10.346450588840964,9.635093151548304,6.584104920171521,5.386597620841304
0.132,9.415689841337734,8.372998192942056,10.357258825471508,9.81619267146912,6.590982888936414,5.47631431173629
0.133,9.42493738421227,8.374407679449547,10.367431122633498,9.554252498230827,6.5974561689485895,5.529973152631607
0.134,9.433608262316135,8.127428780100718,10.37696908854775,9.166088099810498,6.6035257836212935,5.696427780281022
0.135,9.441703986451794,7.997606345249825,10.385874385096974,9.32017944226123,6.609192790516255,5.444177136778405
0.136,9.449226115992277,8.147941814588833,10.394148727591505,9.143044914073704,6.614458281194593,5.545133431274271
0.137,9.4561762586635,8.389467397385177,10.401793884529852,9.191936837333914,6.61932338106445,5.677120367401495
0.138,9.462556070321966,8.839806547356378,10.408811677354164,9.277994779601041,6.623789249225376,5.789571936136961
0.139,9.468367254727813,9.42972761013184,10.415203980200594,9.385023751400759,6.627857078309469,5.703838475949201
0.14,9.473611563313298,9.461899837886026,10.42097271964463,9.634324927059582,6.631528094319308,5.757247758263469
0.141,9.478290794946707,9.21114369224408,10.426119874441378,9.836624584146138,6.634803556462694,5.625108729311358
0.142,9.482406795691702,8.75798449341498,10.430647475260873,9.879663009704144,6.637684756984191,5.5747186027182165
0.143,9.485961458562159,8.831060458646514,10.434557604418375,9.77931868134515,6.640173020993511,5.425289087429433
0.144,9.488956723272521,8.681610874085836,10.437852395599775,9.810963621122067,6.642269706290764,5.3314854758879155
0.145,9.49139457598367,8.627480572172487,10.440534033582036,9.685513428625669,6.6439762031885685,5.320390659118153
0.146,9.493277049044373,8.54021808960703,10.44260475394881,9.661443150831872,6.645293934331061,5.276223815013276
0.147,9.494606220728304,8.55669102003073,10.444066842801135,10.259815197270822,6.646224354509813,5.199753924395695
0.148,9.495384214966695,8.813564298451395,10.444922636463366,10.263196379430951,6.646768950476686,5.0559632482977355
0.149,9.495613201076615,8.86360292407643,10.445174521184278,10.325914521415333,6.6469292407536305,5.383758803069846
0.15,9.495295393484954,8.846085763372324,10.44482493283345,10.128744435509521,6.646706775439467,5.3348179738494155
0.151,9.494433051448059,8.65544720598097,10.443876356592865,10.331496990035285,6.646103136013641,5.4076859186454085
0.152,9.493028478767169,8.356543418009926,10.442331326643886,10.457342497742426,6.645119935137018,5.181421897803539
0.153,9.491084023499546,8.325628022574287,10.440192425849501,10.572626390990326,6.643758816449682,5.414682781175549
0.154,9.488602077665455,8.384678676886136,10.437462285432002,10.555246789583288,6.642021454365818,5.458486290264097
0.155,9.485585076950926,8.8024828109898,10.43414358464602,10.720198552677582,6.639909553865648,5.412867263129152
0.156,9.482035500406411,8.851238305685229,10.430239050447053,10.921193199319278,6.6374248502844875,5.37350129788883
0.157,9.477955870141287,9.065821092030326,10.425751457155416,10.884830227824105,6.6345691090989005,5.521143357543401
0.158,9.473348751014328,8.962695606919766,10.42068362611576,10.76477980424196,6.631344125710029,5.119270691742429
0.159,9.46821675032008,8.732857451180381,10.415038425352089,10.878869615702607,6.627751725224056,5.055997827750187
0.16,9.462562517471255,8.570020515434438,10.408818769218382,10.585894464689629,6.623793762229878,5.098099947562654
0.161,9.456388743677138,8.471445213648545,10.402027618044853,10.363172915416465,6.619472120573996,5.134676638626552
0.162,9.449698161618043,8.953414411949561,10.394667977779848,10.308891298936862,6.61478871313263,5.536889822591626
0.163,9.442493545115852,8.79711144493609,10.386742899627437,9.888551005015781,6.609745481581096,5.501106312581408
0.164,9.434777708800691,8.988258435296096,10.378255479680762,10.075243188215138,6.604344396160483,5.654993966896529
0.165,9.426553507773752,8.811800606673005,10.369208858551128,9.849126609727461,6.598587455441626,5.908657711629699
0.166,9.417823837266303,9.019630657142793,10.359606220992934,9.753450983442791,6.592476686086411,5.97734047590012
0.167,9.408591632294945,9.097044486303696,10.34945079552444,9.723809745868374,6.586014142606461,5.851033091553017
0.168,9.398859867313115,9.058039725494416,10.338745854044427,9.752301866115035,6.57920190711918,5.651927829991561
0.169,9.388631555858904,9.045700695021196,10.327494711444794,9.693247150724103,6.572042089101233,5.756952766869287
0.17,9.377909750199194,8.911330573645923,10.315700725219115,9.700374041195014,6.564536825139435,5.977419777057943
0.171,9.3666975409702,9.010059593397521,10.303367295067222,9.707930958451374,6.55668827867914,6.021938701190866
0.172,9.354998056814399,8.918145087854434,10.290497862495839,9.628888016779571,6.548498639770079,6.158188527323562
0.173,9.342814464013909,8.680688710374557,10.2770959104153,9.485323646886005,6.539970124809736,6.470905813899039
0.174,9.330149966120391,8.455853625526368,10.26316496273243,9.763418976714146,6.531104976284274,6.5065816355467
0.175,9.31700780358143,8.542900312924468,10.248708583939573,9.312033737591001,6.521905462507,6.267207320880389
0.176,9.303391253363527,8.90178758246778,10.23373037869988,9.322667983358853,6.512373877354468,6.2128141354199595
0.177,9.289303628571663,8.940162470710288,10.21823399142883,9.273454157360499,6.502512540000163,6.348316769049724
0.178,9.274748278065541,8.918122124577186,10.202223105872095,9.42351679148017,6.492323794645879,6.24335316472305
0.179,9.259728586072473,8.978279197618885,10.18570144467972,9.14550516043477,6.481810010250731,6.39422579456832
0.18,9.244247971797048,9.235508708844504,10.168672768976753,9.104244660228458,6.470973580257933,6.3095218850854975
0.181,9.22830988902751,9.24869726792051,10.151140877930262,9.153450275384321,6.459816922319257,6.289117755687998
0.182,9.211917825738986,9.133463985668872,10.133109608312886,9.454525521905266,6.44834247801729,6.174460312381707
0.183,9.195075303693534,9.33210959046534,10.114582834062888,9.561961349896249,6.436552712585473,6.142295341553378
0.184,9.177785878037115,9.374250259986786,10.095564465840827,9.323958183478698,6.42445011462598,6.120311718350783
0.185,9.160053136893463,9.632396864496094,10.07605845058281,9.261579962331952,6.412037195825424,5.845114818379927
0.186,9.141880700954951,9.592998906908544,10.056068771050448,9.506267589243555,6.399316490668466,5.760307030997306
0.187,9.123272223070467,9.274729088545241,10.035599445377514,9.26598662635494,6.386290556149326,5.572620481911928
0.188,9.104231387830358,8.958232197048023,10.014654526613395,9.295154867604605,6.37296197148125,5.518793138433155
0.189,9.084761911148467,9.275841657577315,9.993238102263314,9.335204684454993,6.3593333378039265,5.4154277012308745
0.19,9.064867539841323,9.574832544551324,9.971354293825456,9.286838042259514,6.345407277888926,5.574754046479898
0.191,9.044552051204521,9.461838072523475,9.949007256324974,9.919651517841508,6.331186435843164,5.719116764572047
0.192,9.023819252586343,9.317916371192752,9.926201177844977,9.8036749721426,6.31667347681044,5.783527201831077
0.193,9.002672980958634,9.55577666640844,9.902940279054498,9.887355191264431,6.301871086671043,5.584874329089488
0.194,8.98111710248504,9.254573333015864,9.879228812733546,9.693395242312409,6.2867819717395275,5.569079771691412
0.195,8.959155512086577,9.024331689948818,9.855071063295235,9.801737479749315,6.271408858460603,5.379229008392548
0.196,8.936792133004632,9.123060166617043,9.830471346305096,9.972882918479637,6.255754493103242,5.375553147003963
0.197,8.914030916361419,9.002622515999953,9.805434007997562,9.804110868225717,6.239821641452993,5.482680664176539
0.198,8.890875840717941,8.970376642705297,9.779963424789736,9.767610208869359,6.2236130885025585,5.62649880381307
0.199,8.8673309116295,8.90790111755341,9.75406400279245,9.547863429312331,6.207131638140649,5.682358703772211
0.2,8.843400161198787,8.950045559706927,9.727740177318665,9.293269856294101,6.190380112839151,5.8417126543831275
0.201,8.819087647626652,9.200085258605183,9.700996412389319,9.541940536681564,6.173361353338656,5.8443759612619
0.202,8.794397454760514,9.159829506230357,9.673837200236566,9.413665646234882,6.156078218332359,5.776746273330565
0.203,8.769333691640556,9.232318047709272,9.646267060804613,8.886956476130857,6.138533584148389,5.8699011325616315
0.204,8.74390049204365,8.756743893011148,9.618290541248015,9.330100460253275,6.120730344430555,5.957318569062092
0.205,8.718102014025147,8.726986992383763,9.589912215427663,9.161856729119902,6.102671409817603,5.834660875023776
0.206,8.691942439458552,8.539233638099596,9.561136683404408,9.130419525497409,6.084359707620986,5.849641448370509
0.207,8.665425973573068,8.293030794292353,9.531968570930376,9.515008449452603,6.0657981815011475,5.7677673755804
0.208,8.63855684448918,8.137433984394098,9.502412528938098,9.466594760994466,6.046989791142426,5.452960184345892
0.209,8.611339302752206,8.104018506589922,9.472473233027427,9.415869102063544,6.027937511926544,5.511305062458429
0.21,8.583777620863946,8.321728273939849,9.442155382950341,9.133508342547561,6.008644334604762,5.319795124604747
0.211,8.555876092812435,8.066949530633067,9.411463702093679,8.787433984773369,5.9891132649687036,5.3734231028222394
0.212,8.52763903359985,8.10675842410215,9.380402936959836,8.796500910899741,5.969347323519895,5.159571406448726
0.213,8.499070778768669,8.037294953115655,9.348977856645536,8.918519854005725,5.949349545138068,5.080046961143064
0.214,8.470175683926028,8.003709986643695,9.317193252318631,9.01313052089472,5.929122978748219,5.047252533407397
0.215,8.440958124266466,8.23716716214979,9.285053936693114,8.922544301122517,5.908670686986525,5.245386518870884
0.216,8.411422494092951,8.35191257019176,9.252564743502248,8.948669527408372,5.887995745865066,5.179453088682637
0.217,8.381573206336393,8.612567762484128,9.219730526970032,8.560819886300676,5.867101244435474,5.042964858978054
0.218,8.351414692073535,8.546270231521023,9.186556161280889,8.714421061472432,5.8459902844514735,5.120261739529204
0.219,8.32095140004344,8.375774784163095,9.153046540047784,8.784140349115743,5.8246659800304075,5.107052958074536
0.22,8.29018779616245,8.314171924673738,9.119206575778694,9.242752731457754,5.8031314573137145,5.234805312803141
0.221,8.25912836303783,8.349393729742323,9.085041199341614,9.220076583736255,5.7813898541264805,5.09600331607983
0.222,8.227777599480001,8.36526930522189,9.050555359428003,8.987731972329858,5.759444319636001,5.140804131722794
0.223,8.196140020013551,8.12469346473059,9.015754022014907,8.97191126052265,5.737298014009486,5.495862115238256
0.224,8.164220154386934,8.140447408725487,8.980642169825629,8.893742046023519,5.714954108070853,5.43467114673402
0.225,8.13202254708104,8.179438913296885,8.945224801789143,8.988133209908435,5.6924157829567275,5.43771389671283
0.226,8.099551756816574,8.66961468532769,8.909506932498232,8.980323483936214,5.669686229771601,5.18021609465805
0.227,8.066812356060401,8.979850719911694,8.873493591666442,8.687114300257493,5.64676864924228,5.06002678147913
0.228,8.033808930530784,8.710219151455487,8.837189823583863,8.33744173784046,5.6236662513715485,5.134043378865991
0.229,8.000546078701703,8.577866619182197,8.800600686571874,8.437298029335981,5.6003822550911915,5.088499775418888
0.23,7.967028411306167,8.220652205045816,8.763731252436784,8.77044013840178,5.5769198879143165,5.17808418643755
0.231,7.933260550838723,8.070791958646462,8.726586605922595,8.780233673640698,5.553282385587106,5.230527883462181
0.232,7.899247131057032,8.114237430898635,8.689171844162736,8.947279758277698,5.529472991739922,5.032038425844813
0.233,7.86499279648276,8.328417359183193,8.651492076131037,9.138246038291173,5.505494957537931,5.178371751053823
0.234,7.830502201901646,8.13119350108117,8.61355242209181,9.142693750438402,5.4813515413311515,4.992240152029955
0.235,7.795780011862973,7.965654055417336,8.575358013049271,8.90548635976868,5.457046008304081,4.889876321838086
0.236,7.760830900178323,7.514987864392095,8.536913990196156,8.910798225012481,5.432581630124826,4.935214478473236
0.237,7.725659549419841,7.503234456604792,8.498225504361825,9.134780856820317,5.4079616845938885,5.161503928925573
0.238,7.690270650417884,7.309602382637776,8.459297715459673,9.183970371522179,5.383189455292518,5.0034496918229
0.239,7.654668901758282,7.238798789289754,8.420135791934111,9.272836293220132,5.358268231230797,5.020612215223345
0.24,7.61885900927909,7.102436583716808,8.380744910207,9.08297130261442,5.333201306495362,5.035400274341748
0.241,7.582845685567045,7.1330510028189495,8.34113025412375,8.965837992365739,5.307991979896931,5.117053993377037
0.242,7.54663364945363,6.824707472268295,8.301297014398994,8.875292157533908,5.2826435546175405,5.262415611607122
0.243,7.510227625510939,6.602107924701338,8.261250388062033,8.805076854834299,5.257159337857657,5.169028370320018
0.244,7.47363234354725,7.1177765869386445,8.220995577901975,9.006553034405547,5.231542640483075,5.281314394972636
0.245,7.436852538102515,6.8952714534641215,8.180537791912768,8.410952256352159,5.20579677667176,5.425046340507079
0.246,7.3998929479436475,6.72984891242431,8.139882242738013,8.39438334972223,5.179925063560553,5.615986249227579
0.247,7.3627583155598275,7.164391239374602,8.09903414711581,8.351614775878444,5.153930820891879,5.606402866443636
0.248,7.3254533866577285,7.765771413875143,8.057998725323502,8.025209498221798,5.127817370660409,5.547589532071206
0.249,7.287982909656843,7.4883271692460625,8.016781200622528,8.177268180824713,5.1015880367597894,5.404198698083036
0.25,7.2503516351848445,7.395910694405415,7.97538679870333,8.003223957300081,5.075246144629391,5.13533942267166
0.251,7.212564315573152,7.45129648033229,7.933820747130468,7.923686698409623,5.048795020901206,5.056704420107596
0.252,7.174625704352627,7.775152167427054,7.89208827478789,8.333620435146111,5.022237993046838,5.038552574851866
0.253,7.136540555749578,7.520072200779999,7.850194611324537,8.51423992688952,4.995578389024704,4.989124046836135
0.254,7.098313624182009,7.435358185012142,7.808144986600211,8.577186711660916,4.968819536927406,5.041597887122511
0.255,7.059949663756272,7.560162461368828,7.7659446301319,8.587398803726698,4.94196476462939,4.799495654097061
0.256,7.0214534277640634,7.600477965077246,7.7235987705404705,8.472745706863229,4.915017399434844,4.75763388553566
0.257,6.982829668179929,7.471066044905853,7.681112634997922,8.841787934198914,4.88798076772595,5.022611375029814
0.258,6.944083135159224,7.399533545599938,7.638491448675147,8.906658587592542,4.860858194611457,5.119103013753442
0.259,6.905218576536675,7.083394838724349,7.595740434190343,8.619764938055173,4.833653003575672,5.150711214570753
0.26,6.866240737325496,7.022653482631297,7.552864811058046,8.21452210727352,4.806368516127847,5.145457855492292
0.261,6.827154359217225,6.958766988524866,7.509869795138948,8.278596244358146,4.779008051452057,5.032731878030292
0.262,6.7879641800821995,6.9973889563258505,7.46676059809042,8.195316568950116,4.75157492605754,4.734715135128557
0.263,6.748674933470865,6.871042955976627,7.423542426817953,7.8143226882788275,4.7240724534296055,4.77390217188564
0.264,6.709291348115822,6.959084120865329,7.380220482927404,7.876100907482563,4.696503943681075,4.400215342931367
0.265,6.6698181474348015,7.142922264773848,7.336799962178282,7.774228573139967,4.668872703204361,4.358910965026576
0.266,6.630260049034488,7.133271605153297,7.293286053937938,7.85446327089747,4.6411820343241414,4.364603286095169
0.267,6.59062176421538,7.160190861840471,7.249683940636919,7.903084440090451,4.613435234950766,4.3054221126995
0.268,6.550907997477579,7.121024992977351,7.205998797225337,7.71180227392765,4.5856355982343056,4.616539126236113
0.269,6.5111234460277165,7.071476563103502,7.162235790630489,7.8086388045943735,4.557786412219401,4.845728531486213
0.27,6.471272799286959,6.878858017053272,7.118400079215656,7.642960594620817,4.529890959500871,4.938944615298972
0.271,6.431360738400166,6.9094042461856295,7.074496812240183,7.5040770194122475,4.501952516880116,4.7464501852487215
0.272,6.391391935746305,6.8504215292168364,7.030531129320936,7.353126138080035,4.473974355022413,4.9694903774811845
0.273,6.351371054450077,7.231699753129983,6.986508159895085,7.579083284942994,4.445959738115054,4.985616455806821
0.274,6.311302747894917,7.467149451175744,6.942433022684409,7.467792593226817,4.417911923526441,4.779320835225451
0.275,6.271191659237288,7.437805228131678,6.898310825161017,7.7271723863467,4.389834161466101,4.727827690113084
0.276,6.23104242092246,7.177858584833894,6.854146663014706,8.04691167275291,4.361729694645722,4.808811301266571
0.277,6.1908596542016845,6.870271304282111,6.809945619621853,7.775651254930761,4.333601757941179,4.661352583917554
0.278,6.150647968650945,7.050381277874777,6.7657127655160405,7.047266524947773,4.305453578055661,4.629849386895078
0.279,6.110411961691203,7.023021688398231,6.721453157860324,7.25997353458233,4.277288373183842,4.623813484796445
0.28,6.070156218110315,7.038090060139614,6.677171839921346,7.142218409598037,4.24910935267722,4.417632802005725
0.281,6.029885309586552,6.602912317227165,6.632873840545208,6.916738864295183,4.220919716710586,4.346048040237803
0.282,5.989603794213879,6.741857723350003,6.588564173635268,6.770670830199321,4.192722655949716,4.1735348919753275
0.283,5.94931621602894,6.768499767341638,6.5442478376318345,6.673282830031002,4.164521351220258,4.281110158928217
0.284,5.9090271045398755,6.475696980488227,6.499929814993863,6.9580836864205375,4.136318973177913,4.126839635959337
0.285,5.868740974256994,6.336140440643852,6.455615071682694,6.960005722092219,4.108118681979896,4.153623944905304
0.286,5.82846232422531,6.353768407904515,6.411308556647842,7.204745276005904,4.079923626957717,3.939897755876862
0.287,5.788195637559081,6.323560047815022,6.36701520131499,7.247141807779264,4.051736946291356,3.781122148728178
0.288,5.7479453809782655,6.223618018247734,6.322739919076093,7.104329901344649,4.023561766684786,3.629074535626723
0.289,5.707716004347111,6.167576847170258,6.278487604781822,6.953738439300686,3.9954012030429773,3.614782778038961
0.29,5.667511940214732,6.083609462542062,6.234263134236206,7.023422873838757,3.9672583581503122,3.6653382786049606
0.291,5.627337603357918,6.085112142763293,6.19007136369371,7.138860461368516,3.9391363223505422,3.734270844926747
0.292,5.5871973903260335,6.3464140887727325,6.145917129358637,7.2773350483417065,3.9110381732282233,3.4947482424860405
0.293,5.547095678988222,5.770118127424659,6.101805246887045,7.120907920291879,3.882966975291755,3.501294777551568
0.294,5.507036828082819,5.71357492969991,6.057740510891101,7.0719849513832935,3.8549257796579726,3.423326553087724
0.295,5.467025176769138,5.741519715729938,6.013727694446052,7.113675120479218,3.826917623738396,3.5306279914193954
0.296,5.427065044181566,5.786727489254499,5.969771548599723,6.934012344601336,3.798945530927096,3.5125505238344403
0.297,5.387160728986127,5.6899943788719085,5.9258768018847405,6.602879112992422,3.771012510290289,3.520036695257125
0.298,5.347316508939439,5.322135630251244,5.882048159833384,6.372945117357181,3.743121556257607,3.4313989945457113
0.299,5.307536640450233,5.404170010558071,5.838290304495257,6.286136539508948,3.715275648315163,3.6949682339700978
0.3,5.267825358143346,5.754037434610242,5.794607893957681,6.402504276689175,3.6874777507003422,3.508627047965378
0.301,5.228186874426374,5.412843486353507,5.751005561869012,6.634309181852389,3.6597308120984615,3.4622555693394967
0.302,5.188625379058888,5.581477090487457,5.707487916964777,6.263415462778163,3.6320377653412215,3.489144212443445
0.303,5.149145038724393,5.490949960611797,5.664059542596833,6.0923161996131805,3.604401527107075,3.4606856500807517
0.304,5.109749996604938,5.459092411121863,5.620724996265432,5.986807377608663,3.5768249976234565,3.36090802419023
0.305,5.070444371958542,5.228286310168432,5.5774888091543975,6.141215513484759,3.549311060370979,3.1220191725265365
0.306,5.03123225969939,5.160434062780991,5.534355485669329,5.984964024261448,3.521862581789573,3.0614396022650734
0.307,4.9921177299809045,5.422456631318981,5.491329502978996,5.861789269610786,3.494482410986633,2.967011871837383
0.308,4.953104827781667,5.510993583025985,5.448415310559834,5.530648698762155,3.467173379447167,3.2490295631287656
0.309,4.914197572494326,5.816808104452094,5.40561732974376,5.645430152911447,3.4399383007460282,3.5824098867708893
0.31,4.875399957517412,5.977267111140115,5.362939953269153,5.602702524480521,3.412779970262188,3.5558836793129136
0.311,4.836715949850232,5.970227349124288,5.320387544835255,5.451698938980454,3.3857011648951625,3.340056393916218
0.312,4.798149489690758,6.221080002725085,5.277964438659834,5.39843346730398,3.3587046427835303,3.4434071884397075
0.313,4.759704490036671,6.182085084019351,5.235674939040338,5.651375025799488,3.3317931430256693,3.2933514217202036
0.314,4.721384836289494,6.221022122315751,5.193523319918444,5.405865105861989,3.3049693854026456,3.21637579643254
0.315,4.683194385861908,6.027394983413004,5.1515138244481,5.216681666872345,3.2782360701033353,3.1335532074550394
0.316,4.645136967788326,5.922003550097822,5.109650664567159,5.502951830667253,3.251595877451828,3.074594408224557
0.317,4.6072163823386525,5.670615646874831,5.067938020572518,5.497654047856206,3.2250514676370567,3.0395580080171962
0.318,4.569436400635408,5.77803546624006,5.02638004069895,5.619455601194323,3.1986054804447854,2.8714158052512717
0.319,4.5318007642741245,5.437412625856562,4.984980840701537,5.666021035225972,3.172260534991887,2.803319866205279
0.32,4.494313184947167,5.519269533927907,4.943744503441884,5.607686242589521,3.1460192294630165,2.9807352531496325
0.321,4.456977344070912,5.394637362185011,4.902675078478004,5.4822593045839065,3.1198841408496385,2.9905507536048153
0.322,4.419796892416423,5.551155528054095,4.861776581658066,5.624881870805489,3.0938578246914963,3.019262876728944
0.323,4.382775449743562,5.604264722968777,4.821052994717919,5.821963773614618,3.0679428148204932,2.712686068961246
0.324,4.345916604438667,5.862348249596465,4.780508264882534,5.978107676731424,3.042141623107067,2.87961729225981
0.325,4.309223913155743,5.872990670424307,4.740146304471318,5.615287687971525,3.01645673920902,2.798843985361829
0.326,4.2727009004612935,5.418359491979073,4.699970990507423,5.832622876800755,2.9908906303229053,2.9771329147380428
0.327,4.236351058482729,5.306574938682834,4.659986164331002,5.658401066726638,2.96544574093791,2.999498027740944
0.328,4.200177846560496,4.9813369499820865,4.620195631216546,5.41025749984926,2.9401244925923473,2.9170087989676317
0.329,4.164184690903849,4.815760326968197,4.580603159994235,5.3118140010786,2.9149292836326945,2.68423971337077
0.33,4.128374984250415,5.069048660046853,4.541212482675458,5.439361403757607,2.8898624889752904,3.011797198099731
0.331,4.092752085529465,5.118688771396866,4.502027294082412,5.486269420560695,2.8649264598706257,3.112262441379025
0.332,4.057319319529055,4.89250580980472,4.463051251481962,5.349476669286305,2.8401235236703384,3.2087511555496193
0.333,4.022079976566935,4.622432142665578,4.4242879742236285,5.46292791891318,2.8154559835968542,3.4270977678108117
0.334,3.987037312165387,4.5851290665618425,4.385741043381926,5.4076265463352655,2.7909261185157708,3.398054670634462
0.335,3.9521945467299187,4.298166472515683,4.347414001402911,5.197158746017951,2.7665361827109427,3.5275959309097957
0.336,3.917554865231928,4.145478366458741,4.309310351755121,4.9741673655066245,2.7422884056623493,3.3855705471409747
0.337,3.883121416895297,4.2011992440882135,4.271433558584827,5.015655796690326,2.718184991826708,3.4257412885955967
0.338,3.848897314887025,4.416535074007115,4.233787046375728,4.940768996958883,2.694228120420917,3.268160735509479
0.339,3.8148856360118426,4.497570370794616,4.196374199613027,4.585111124229652,2.6704199452082897,3.1417603401449155
0.34,3.781089420410936,3.987052068382795,4.15919836245203,4.750221840307964,2.646762594287655,3.1098777951458327
0.341,3.7475116712647107,4.043294259733249,4.122262838391182,4.603020607600746,2.6232581698852973,2.887934000607054
0.342,3.7141553544997175,4.044040628281347,4.08557088994969,4.922720857260604,2.599908748149802,2.9095153920388026
0.343,3.6810233984996916,4.109696660305883,4.0491257383496615,4.547801216356452,2.576716378949784,2.8369300330889504
0.344,3.6481186938207983,4.405882172349363,4.012930563202879,4.475569769433214,2.5536830856745585,2.5348133767469574
0.345,3.615444092911062,3.9332093038829967,3.9769885022021687,4.292637006455733,2.5308108650377434,2.474898506667061
0.346,3.5830024098340374,3.7988993224243996,3.9413026508174416,4.063735148691862,2.508101686883826,2.4345544269054407
0.347,3.5507964199967583,3.911110091677102,3.9058760619964343,3.961579056765951,2.4855574939977307,2.5637740277430914
0.348,3.5188288598819355,3.574306917945791,3.8707117458701292,4.362635411937398,2.4631802019173548,2.5984372049466247
0.349,3.48710242678452,3.8794198037788816,3.835812669462972,4.362002452979814,2.4409716987491636,2.790198035467224
0.35,3.4556197785525606,3.92925003637935,3.801181756407817,4.152137418628445,2.418933844986792,2.83080837653713
0.351,3.4243835333324704,4.066510204460025,3.7668218866657175,3.731580638496294,2.397068473332729,2.7148552022354275
0.352,3.3933962693186492,3.903326960518688,3.7327358962505146,3.373144974140101,2.3753773885230545,2.6777602267851583
0.353,3.3626605245075565,4.030212580602312,3.6989265769583124,3.307720720976444,2.353862367155289,2.6017084040312133
0.354,3.3321787964562013,4.192181497658227,3.6653966761018215,3.2239627426784683,2.3325251575193406,2.648206381859792
0.355,3.30195354204512,4.1676865958404665,3.632148896249632,3.235237721351725,2.311367479431584,2.6280269729617323
0.356,3.271987177245819,4.142819307116212,3.599185894970401,2.7913568246727234,2.2903910240720733,2.5114175742557316
0.357,3.242282076892762,4.124522803909491,3.5665102845820384,2.868159648908625,2.2695974538249333,2.493609246589097
0.358,3.2128405744598574,3.8782361433435546,3.5341246319058435,3.180162374600304,2.2489884021219,2.538893080339533
0.359,3.18366496184154,3.7966819278299626,3.5020314580256944,3.5885238599161147,2.228565473289078,2.372146893586219
0.36,3.154757489138409,3.7192476539523125,3.4702332380522503,3.1789055893181324,2.2083302423968862,2.40533099176018
0.361,3.126120364447458,3.753726461499732,3.438732400892204,3.047405903432852,2.1882842551132207,2.167788177798032
0.362,3.0977557536569647,3.9050531755812994,3.407531329022661,2.914141825609599,2.168429027559875,2.3277967364734637
0.363,3.069665780245983,3.626608447518139,3.3766323582705815,3.010930943583998,2.148766046172188,2.388844522683048
0.364,3.041852525088518,3.559770726246399,3.34603777759737,2.794395328791167,2.1292967675619625,2.596110061857346
0.365,3.014318026262373,3.8179908854745697,3.3157498288886105,3.2347504451850377,2.110022618383661,2.3962677745561374
0.366,2.987064278862709,3.6024857720379746,3.28577070674898,3.267363127398109,2.090944995203896,2.5294721169147123
0.367,2.9600932348203015,3.3899288493465,3.2561025583023318,3.256890454779897,2.072065264374211,2.619751619701589
0.368,2.933406802724554,3.400693665255128,3.22674748299701,3.6218245394588613,2.053384761907188,2.542565239803332
0.369,2.9070068476512523,3.5359775961590767,3.197707532416378,3.593235493480276,2.0349047933558766,2.443977975985324
0.37,2.880895190995096,3.4883463171837605,3.168984710094606,3.656028090043266,2.0166266336965673,2.254171578944304
0.371,2.8550736103070076,3.7062155136422157,3.1405809713377084,3.4562525420130648,1.9985515272149053,2.044980046479716
0.372,2.829543839136263,3.80512055284276,3.112498223049889,3.1371014069564005,1.980680687395384,1.9380901260580858
0.373,2.804307566877406,3.8884222413792706,3.084738323565147,3.014106410816882,1.963015296814184,1.7694102425460463
0.374,2.779366438622046,3.9031610417704634,3.0573030824842506,3.5158639509937863,1.945556507035432,2.0149799899741327
0.375,2.7547220550154448,4.268467534133336,3.0301942605169896,3.6226433386353096,1.9283054385108112,1.8004914737397606
0.376,2.7303759721180167,4.088041126898652,3.0034135693298185,3.6369746212832537,1.9112631804826117,1.8367869422399852
0.377,2.7063297012716676,3.563372595310294,2.9769626713988346,3.371799056780476,1.8944307908901672,1.907824223857626
0.378,2.6825847089710386,3.8101404399488286,2.950843179868143,3.5455739823716237,1.8778092962797268,1.9590426142632886
0.379,2.659142416739649,3.6172819553573623,2.9250566584136144,3.1999890539396874,1.8613996917177542,2.015679132365905
0.38,2.63600420101094,3.554293709845583,2.8996046211120343,2.84011797688648,1.845202940707658,2.1350730188388085
0.381,2.613171393014259,3.7354341306849643,2.874488532315685,2.7352766325008875,1.8292199751099811,2.0458838115407616
0.382,2.59064527866576,3.3136218082264928,2.8497098065323363,3.1911382685863083,1.813451695066032,2.0385973519553686
0.383,2.568427098464264,3.001664245603699,2.825269808310691,3.586268639977244,1.7978989689249847,1.9769977901417444
0.384,2.5465180473920634,2.6485552388283593,2.8011698521312702,3.4224139574940806,1.7825626331744442,2.143340779165824
0.385,2.524919274820694,2.489792447873447,2.7774112023027637,3.2232607677674254,1.7674434923744855,2.403024085221362
0.386,2.503631884421682,2.5912956978061854,2.7539950728638507,2.8288657329358844,1.7525423190951772,2.173970764499067
0.387,2.4826569340822626,2.697222400632347,2.730922627490489,2.849386493705363,1.7378598538575838,1.848999852148082
0.388,2.4619954358261067,2.7406657257832197,2.7081949794087175,2.883792452055449,1.7233968050782746,1.9189559604158264
0.389,2.4416483557390185,2.4396773684241753,2.6858131913129206,3.050310113970751,1.7091538490173128,2.050504670680331
0.39,2.4216166138996558,1.9870697745397412,2.6637782752896215,3.2243536688181753,1.695131629729759,2.291454706032178
0.391,2.401901084315253,2.0503926923767652,2.6420911927467787,3.1347605760843527,1.681330759020677,2.3360863943876886
0.392,2.382502594862352,1.999964781899482,2.6207528543485874,3.217473872959893,1.6677518164036462,2.4668257905414914
0.393,2.3634219272325687,2.1386485755579896,2.5997641199558257,3.0130693639933117,1.654395349062798,2.6199740699839587
0.394,2.3446598168833717,2.309843398585672,2.579125798571709,3.0990476358064813,1.64126187181836,2.728969124282453
0.395,2.326216952993895,2.3490715408743834,2.5588386482932846,2.944372430334327,1.6283518670957264,2.743877134058551
0.396,2.308093978425778,2.5066799549622054,2.538903376268356,3.0155539070237194,1.6156657848980447,2.452959164899881
0.397,2.2902914896890554,2.540297563779867,2.519320638657961,3.059556470324083,1.6032040427823386,2.3680261506580975
0.398,2.2728100369130715,2.6287081831316854,2.500091040604379,3.028807799015052,1.59096702583915,2.3333349193538995
0.399,2.2556501238224396,2.4593440780379527,2.4812151362046837,3.1586112594813587,1.5789550866757076,2.2447244935285444
0.4,2.2388122077180492,2.409972605476183,2.4626934284898545,2.7529960776430213,1.5671685454026343,2.1722221690628443
0.401,2.222296699463114,2.4388896461013614,2.444526369409426,2.497029891895658,1.5556076896241797,2.3303435720890726
0.402,2.2061039634742547,2.587769420069545,2.4267143598216805,2.4394431223687447,1.5442727744319782,2.1459294685485886
0.403,2.1902343177176444,2.4770414283974573,2.409257749489409,2.127457768101498,1.533164022402351,2.196443882418051
0.404,2.174688033710181,2.55853231981506,2.3921568370811994,2.0726595395113314,1.5222816235971266,2.1730231074094934
0.405,2.159465336525713,2.472667640951937,2.3754118701782847,2.0284468632947417,1.511625735567999,1.9862882894431289
0.406,2.1445664048063042,2.4232738819496493,2.3590230452869347,2.3572521924463263,1.501196483364413,1.786276072898122
0.407,2.129991370778531,2.5664873306387057,2.3429905078563844,2.3944851190329426,1.4909939595449715,1.5175425906817812
0.408,2.1157403202748313,2.1291496644108743,2.3273143523023148,2.6212265690152585,1.4810182241923817,1.580603444908621
0.409,2.1018132927598687,1.8731800639829777,2.3119946220358556,2.663336165042828,1.471269304931908,1.5592979893994543
0.41,2.088210281361948,1.604012129266375,2.297031309498143,2.515201615154776,1.4617471969533635,1.432162143626588
0.411,2.074931232909436,1.1898528385690033,2.2824243562003796,2.52736081216235,1.4524518630366052,1.1695064864528053
0.412,2.061976047972218,1.1465885254977397,2.26817365276944,2.667609769109532,1.4433832335805523,1.2551820219021268
0.413,2.0493445809081665,1.3916297795951764,2.2542790389989835,2.894191743387776,1.4345412066357164,1.246238990135239
0.414,2.037036639914625,1.4037735714661532,2.2407403039060876,2.8047762966211334,1.4259256479402374,1.1614643264766915
0.415,2.0250519870848827,1.5097388875684605,2.227557185793371,2.3893094478579795,1.4175363909594179,1.0490069948435137
0.416,2.0133903384696703,1.7819250705188963,2.2147293723166377,1.998310236040999,1.409373236928769,1.0482679113695133
0.417,2.0020513641436244,2.073149139519837,2.202256500557987,1.9509357227704047,1.401435954900537,1.1457293323654136
0.418,1.9910346882767485,2.054479642741214,2.1901381571044234,1.4642241247712582,1.3937242817937239,1.1203932021717204
0.419,1.9803398892108435,2.320846403438186,2.178373878131928,1.9339319965191704,1.3862379224475903,0.9763595171291516
0.42,1.969966499540913,2.306940079911404,2.1669631494950043,2.0915923914184313,1.378976549678639,1.0039695053832274
0.421,1.9599140062015126,2.10720574779093,2.155905406821664,1.9608696628869682,1.3719398043410587,1.182335985519134
0.422,1.9501818505580548,1.9747616540323567,2.1452000356138603,1.7375324325226296,1.3651272953906384,1.201149249096662
0.423,1.9407694285030574,1.6770828571941614,2.134846371353363,2.005460528570959,1.3585385999521402,1.2210649168962704
0.424,1.9316760905572998,1.5264314692873862,2.12484369961303,1.7740663368859502,1.3521732633901098,1.1828772668703604
0.425,1.9229011419759177,1.4956785133168515,2.11519125617351,1.5854926966355225,1.3460307993831422,1.0686296178171726
0.426,1.9144438428593826,1.6991618972529379,2.105888227145321,1.4700029746973546,1.3401106900015678,0.9602538735475967
0.427,1.9063034082693822,2.06460542665949,2.0969337490963205,1.5584282366224853,1.3344123857885675,0.7583809562692114
0.428,1.898479008349577,1.7718166455089621,2.088326909184535,1.7482797206225762,1.3289353058447038,0.9738650466828516
0.429,1.8909697684512272,1.8622416081986157,2.08006674529635,2.0437848868591875,1.323678837915859,1.0663305752428212
0.43,1.883774769263657,1.6559135821880737,2.072152246190023,2.2761054988464515,1.3186423384845598,1.0955313549808017
0.431,1.8768930469495766,1.772261031794901,2.0645823516445345,2.2543644941397436,1.3138251328647035,1.150842068009302
0.432,1.8703235932852076,1.754842088572642,2.0573559526137286,2.4580698180564164,1.3092265152996452,1.205990165407684
0.433,1.864065355805229,1.3982568867544485,2.050471891385752,2.2682311106054103,1.3048457490636602,1.104488123802622
0.434,1.858117237952511,1.628256978211043,2.0439289617477625,1.8434004963634134,1.3006820665667576,1.069690637427601
0.435,1.85247809923262,1.527714197767073,2.037725909155882,1.7130229768835288,1.2967346694628339,1.0167943248284015
0.436,1.8471467553730863,1.4505928735812965,2.031861430910395,1.5650165236465987,1.2930027287611603,1.3864694367866897
0.437,1.842121978487417,1.2731906681502032,2.026334176336159,1.4692460360895918,1.2894853849411918,1.5097184614713917
0.438,1.8374024972438239,1.1958301967825153,2.0211427469682066,1.3101557679107443,1.2861817480706765,1.5006495820263304
0.439,1.8329869970386614,1.3418783921092623,2.0162856967425276,1.2757545236047498,1.283090897927063,1.6595728738905815
0.44,1.8288741201745573,1.3491627966647621,2.011761532192013,1.48183608149394,1.2802118841221901,1.7842926113949455
0.441,1.8250624660431978,1.458598038764484,2.007568712647518,1.9074900693709838,1.2775437262302383,1.5291000225715
0.442,1.821550591312775,1.563069671618722,2.0037056504440525,1.5329066106363094,1.2750854139189425,1.460909195136596
0.443,1.8183370101200547,1.8481998881949298,2.00017071113206,1.2913496695502058,1.2728359070840383,1.4278791728928013
0.444,1.8154201942670474,1.771515053123607,1.9969622136937524,1.182458147988139,1.270794135986933,1.485498242843783
0.445,1.8127985734222793,1.4751015425911902,1.9940784307645074,1.4263960601893753,1.2689590013955954,1.419848313421682
0.446,1.8104705353266182,1.7165921411054454,1.9915175888592802,1.4317799131212423,1.2673293747286327,1.3778128109041161
0.447,1.8084344260036413,1.6536677003874396,1.9892778686040056,1.3218335413195097,1.265904098202549,1.2886901405371083
0.448,1.806688549974532,1.8857572782677796,1.9873574049719853,1.539323093786721,1.2646819849821722,1.4194421655456062
0.449,1.8052311704774624,1.947929477756775,1.9857542875252088,1.7872763981504896,1.2636618193342235,1.187741930811703
0.45,1.8040605096914613,1.900545246291055,1.9844665606606076,1.795421411847931,1.2628423567840228,1.121010045689287
0.451,1.803174748964727,1.9534747858833224,1.9834922238611998,1.626862814759943,1.2622223242753088,0.8622454589967208
0.452,1.8025720290473677,2.3211801824784053,1.9828292319521046,1.713773437549706,1.2618004203331572,0.7429202198102989
0.453,1.8022504503285388,2.6769587908419807,1.9824754953613928,1.680827660815903,1.2615753152299771,0.8236982730508327
0.454,1.8022080730779644,2.5953183582713932,1.982428880385761,1.6491191225372714,1.261545651154575,0.8986902432862491
0.455,1.8024429176918,2.5397109574263315,1.9826872094609802,1.560554110141669,1.26171004238426,0.8749280455751867
0.456,1.802952964942829,2.6726095575466076,1.983248261437112,1.7967788443449566,1.2620670754599803,1.0544187221592032
0.457,1.80373615623495,2.4076015079446944,1.9841097718584453,1.8605982336791949,1.262615309364465,1.247858671120075
0.458,1.8047903938619356,2.4046319380804055,1.9852694332481293,2.090686761374176,1.2633532757033548,1.2224053352627358
0.459,1.8061135412704337,2.3299918612623007,1.9867248953974772,2.363705092480724,1.2642794788893035,1.2439765093144122
0.46,1.8077034233271956,2.330616807819108,1.9884737656599154,2.416237091813992,1.2653923963290368,1.1647186225982293
0.461,1.8095578265904706,2.10159811692275,1.990513609249518,2.2509768435408364,1.2666904786133293,1.2442699530038333
0.462,1.8116744995855782,1.7441431045326798,1.9928419495441363,2.4424310580355044,1.2681721497099048,1.0607142903698898
0.463,1.814051153084601,1.3256790633869562,1.9954562683930614,2.488235838889575,1.2698358071592206,1.3138982984299965
0.464,1.816685460390171,1.140136882739076,1.9983540064291883,2.999705969015909,1.2716798222731196,1.4497615192737952
0.465,1.8195750576233425,1.1048730285400268,2.001532563385677,2.9554913877521467,1.2737025403363396,1.2444250360051148
0.466,1.8227175440154886,1.1062412071191319,2.0049892984170374,3.0009767961991765,1.275902280810842,1.1168611480031385
0.467,1.826110482204212,1.5535924004260768,2.0087215304246335,2.9523543623506363,1.2782773375429484,1.1713604089184528
0.468,1.8297513985332339,1.7900223801144322,2.0127265383865574,2.8229668362290403,1.2808259789732637,1.1139665119482907
0.469,1.833637783356227,1.589279912880716,2.01700156169185,2.6714818051475295,1.2835464483493588,1.1858151468197122
0.47,1.837767091344562,1.6706848374208132,2.0215438004790185,2.656937618329436,1.2864369639411934,1.1238407402816786
0.471,1.842136741798937,1.5931307412563274,2.026350415978831,2.6939255602279673,1.2894957192592558,1.331791246378297
0.472,1.846744118964848,1.5480391136527496,2.031418530861333,2.8667019776700258,1.2927208832753934,1.3065913524249158
0.473,1.851586572351887,1.6015838832693075,2.036745229587076,2.8363908089384835,1.2961106006463208,1.621598373662384
0.474,1.8566614170568054,1.7367575483896418,2.0423275587624863,2.63956372250849,1.2996629919397638,1.6505904570312275
0.475,1.8619659340903398,1.6669669284744255,2.048162527499374,2.49260998587647,1.3033761538632378,1.4033977621458942
0.476,1.867497370707739,1.885040875366752,2.054247107778513,2.1415032263623104,1.307248159495417,1.6619725639460943
0.477,1.8732529407429737,1.6404372507462757,2.060578234817271,2.4823368682711355,1.3112770585200815,1.756433913571204
0.478,1.8792298249465933,1.650261264809785,2.0671528074412526,2.3049049058016866,1.3154608774626153,1.740909512312159
0.479,1.8854251713271757,2.177705439036303,2.073967688459893,2.4774804273790205,1.319797619929023,1.764316486081456
0.48,1.8918360954963678,2.177845601154095,2.0810197050460046,2.48119780652448,1.3242852668474574,1.528474470147281
0.481,1.8984596810174428,2.4203812351138456,2.0883056491191874,2.4909440506860197,1.32892177671221,1.2301733754827329
0.482,1.9052929797573674,2.3707300647720535,2.095822277733104,2.407502322345949,1.3337050858301571,1.2085886714145433
0.483,1.9123330122423248,2.424323862213811,2.1035663134665574,2.18539885795179,1.3386331085696273,1.3881694505761315
0.484,1.9195767680166638,2.3454972815053194,2.1115344448183304,1.9462398728789476,1.3437037376116645,1.4123132329043628
0.485,1.9270212060052332,2.2523018796558247,2.1197233266057567,2.3248576979154048,1.3489148442036631,1.6180924437246529
0.486,1.9346632548790637,2.047106534740363,2.12812958036697,2.3109678201027837,1.3542642784153445,1.7491608714686568
0.487,1.9424998134243556,2.1049047769105385,2.1367497947667915,2.5215234284917596,1.359749869397049,1.685232062604472
0.488,1.9505277509147518,1.9010943449600293,2.1455805260062273,2.768736843860007,1.3653694256403262,1.790747094230948
0.489,1.9587439074868187,2.021649592794221,2.154618298235501,2.596779233426439,1.371120735240773,1.9333729816805034
0.49,1.967145094518746,2.2146708430817013,2.163859603970621,2.6262142681334133,1.377001566163122,1.8375870382856774
0.491,1.9757280950121707,2.2452407718758063,2.173300904513388,2.5700990167484807,1.3830096665085194,1.7329306359106194
0.492,1.9844896639771443,2.142820076146298,2.182938630374859,2.255790519396049,1.389142764784001,1.6885998763225663
0.493,1.9934265288201418,2.19932690374184,2.192769181702156,2.1874011640407836,1.3953985701740992,1.2916545342960282
0.494,2.0025353897351255,2.098317825569263,2.2027889287086384,2.2966365431313136,1.4017747728145877,1.3116277853056302
0.495,2.0118129200975825,2.256935823305145,2.212994212107341,2.15666084343555,1.4082690440683077,1.391514889486043
0.496,2.0212557668615254,1.8470028513489936,2.223381343547678,2.069775266049312,1.4148790368030677,1.3831075124854586
0.497,2.0308605509593827,1.7779434412500827,2.233946606055321,2.0256956147852283,1.4216023856715678,1.4039012355914318
0.498,2.0406238677047766,1.3854883240516838,2.2446862544752544,2.489514294741478,1.4284367073933435,1.3686253066748506
0.499,2.0505422871980974,1.1321866882820684,2.255596515917907,2.039757398053447,1.4353796010386681,1.063744596848756
0.5,2.0606123547348876,1.4767757250530968,2.2666735902083763,2.149681969634198,1.4424286483144213,1.302075282989955
0.501,2.0708305912169314,1.6939641637832052,2.2779136503386246,2.0833910920004906,1.449581413851852,1.2327034121185931
0.502,2.0811934935660705,1.5673120243375762,2.2893128429226777,1.9394122588785205,1.4568354454962493,1.1356794141181068
0.503,2.0916975351406473,1.2975490091805197,2.3008672886547124,1.890554143749659,1.464188274598453,1.3253781594474248
0.504,2.1023391661545654,0.7632027101683407,2.312573082770022,2.0554673094396696,1.4716374163081958,1.44343473681764
0.505,2.1131148140989167,0.7673598214517894,2.3244262955088084,2.2174099014557167,1.4791803698692416,1.451336153703375
0.506,2.1240208841661135,1.3647617482270842,2.336422972582725,2.2456530753638835,1.4868146189162794,1.5283812442538565
0.507,2.1350537596765173,1.5062117471288818,2.348559135644169,2.4715351088229074,1.4945376317735621,1.3287747185592647
0.508,2.146209802507475,1.4355355176749072,2.3608307827582227,2.7145701995784357,1.5023468617552325,1.299976582546066
0.509,2.1574853535247573,1.5777828406220398,2.373233888877233,2.8347792029457457,1.5102397474673301,1.4671392043351479
0.51,2.1688767330163254,1.3015381712337004,2.3857644063179584,2.6442367571988115,1.5182137131114277,1.3420130753607178
0.511,2.180380241128406,1.306600113827896,2.398418265241247,2.7027386977885652,1.5262661687898842,1.184940886742196
0.512,2.191992158303792,1.3914855408785043,2.4111913741341713,2.757503911233469,1.5343945108126542,1.1948660700951172
0.513,2.203708745722372,1.4317503441695465,2.4240796202946093,2.5186114412252936,1.5425961220056603,1.2076117076257713
0.514,2.215526245743802,1.6443672635648363,2.437078870318182,2.138867542832479,1.5508683720206613,1.2959948496962195
0.515,2.227440882352285,1.7475009147252227,2.4501849705875136,1.6984756173434543,1.5592086176465996,1.092488412302775
0.516,2.239448861603425,1.906080984057174,2.4633937477637677,1.7636277163349439,1.5676142031223974,0.745921396965785
0.517,2.2515463720730913,1.7784996923203413,2.4767010092804007,1.8736050713987114,1.5760824604511638,0.9204663002358511
