time,roll_setpoint,gyro_roll,pitch_setpoint,gyro_pitch,yaw_setpoint,gyro_yaw
0.0,3.221088436188455,3.000585762212836,3.543197279807301,0.24180945515626293,2.2547619053319186,-1.232717330146809
0.001,3.299582398918418,2.612931014132906,3.62954063881026,0.20409676657677278,2.3097076792428926,-1.2242691234239935
0.002,3.3777459409858164,2.187123466874056,3.7155205350843983,0.05948017750309775,2.364422158690071,-1.1567066283472525
0.003,3.455574210797501,1.6376517165862077,3.8011316318772517,-0.003405787517010775,2.4189019475582505,-1.0912787608200534
0.004,3.533062390490227,1.393003039478631,3.88636862953925,0.05603135078120299,2.473143673343159,-0.8227913625166944
0.005,3.6102056963405573,1.387011501979295,3.9712262659746136,-0.09763112845354915,2.52714398743839,-0.9038732924050417
0.006,3.686999379171322,1.2887796274241792,4.055699317088455,0.11104238960430643,2.580899565419925,-0.8507197407751368
0.007,3.763438724754603,1.355355365932826,4.139782597230063,-0.10737309734873493,2.634407107328222,-0.8184340151184895
0.008,3.839519054211185,1.1983277165513069,4.223470959632304,-0.20595795917763016,2.6876633379478294,-0.5061368445828776
0.009,3.9152357244064526,1.1770397826397996,4.3067592968470985,-0.23254098659177858,2.740665007084517,-0.34041591519061004
0.01,3.9905841283426917,1.1611201976253458,4.389642541176961,-0.24796863182229267,2.793408889839884,-0.22128721585689165
0.011,4.0655596955477415,0.7460092285756367,4.472115665102516,-0.37550837252985264,2.845891786883419,-0.22901100172666833
0.012,4.140157892459986,0.7646433228869357,4.5541736817059855,0.021367880898436165,2.8981105247219903,0.07083046713040009
0.013,4.214374222809629,0.8282545200512837,4.635811645090592,-0.1787110677123095,2.95006195596674,0.1427195314083089
0.014,4.28820422799622,0.7773391898341929,4.7170246507958415,0.03483880193119693,3.0017429595973537,0.21901743846201938
0.015,4.3616434874624,0.6882092170857834,4.797807836208641,-0.14646077999122156,3.05315044122368,0.061117619581622845
0.016,4.4346876190638245,0.38332160093773426,4.878156380970207,-0.17390186947671762,3.104281333344677,0.12032034137028803
0.017,4.507332279435237,0.346279565054176,4.958065507378761,-0.06311321355555884,3.1551325956046656,-0.04933101659290563
0.018,4.5795731643526425,-0.01695639309604846,5.0375304807879075,-0.30370602303828625,3.2057012150468496,-0.21859186079795484
0.019,4.651406009091567,-0.29349123045548114,5.116546610000724,-0.49030022931936423,3.2559842063640967,-0.23998762921293304
0.02,4.722826588781357,-0.2854439441083089,5.195109247659493,-0.36577844066202686,3.30597861214695,-0.20931091270775715
0.021,4.793830718755473,-0.4052840595091616,5.27321379063102,-0.36700749524020326,3.3556815031288307,-0.20127987130615427
0.022,4.864414254897774,-0.349810775575344,5.350855680387552,0.09591473895683494,3.4050899784284416,-0.13785772822142456
0.023,4.934573093984735,-0.1810315666799532,5.428030403383209,0.11515914169453052,3.454201165789314,-0.07068683660219094
0.024,5.004303174023567,-0.18199630281871007,5.504733491425925,0.13530729813423398,3.5030122218164967,0.07062645483911259
0.025,5.073600474586228,-0.3024831847665128,5.580960522044851,-0.26419374554503017,3.5515203322103592,0.14893760820981083
0.026,5.142461017139256,-0.1655648082918314,5.656707118853182,-0.16263796913527345,3.599722711997479,-0.01750790397366761
0.027,5.210880865369442,-0.09637469246542876,5.731968951906387,0.23272973993508078,3.6476166057586092,0.12170815606211718
0.028,5.278856125505255,-0.24692778376934624,5.8067417380557815,0.24932436039987899,3.6951992878536783,-0.022897666056303945
0.029,5.346382946634043,-0.4619549420063296,5.881021241297448,0.485490961212968,3.7424680626438303,-0.1480175686628917
0.03,5.413457521014937,-0.5296705452691659,5.954803273116432,0.5640593770208457,3.7894202647104556,-0.04641344625651313
0.031,5.480076084387463,-0.36818622066492523,6.028083692826209,0.8013184646910294,3.8360532590712237,-0.09140913888209623
0.032,5.546234916275796,-0.22143770542297497,6.100858407903376,0.744047217854856,3.8823644413930567,-0.07448709048361124
0.033,5.611930340288663,-0.11782287576125663,6.17312337431753,0.6111055883881824,3.928351238202064,0.008703481559994078
0.034,5.6771587244148485,-0.09547286546472192,6.2448745968563335,0.6408329131758702,3.974011107090394,0.054548314150282516
0.035,5.741916481314269,-0.07873561326904557,6.316108129445697,0.5549747754118943,4.019341536919988,0.06409685270992477
0.036,5.806200068604601,-0.29506638178855404,6.386820075465061,0.6285914301737442,4.064340048023221,-0.07829188102067333
0.037,5.8700059891434355,-0.19643376097588103,6.457006588057779,0.7069233248094328,4.109004192400405,0.29389943167557286
0.038,5.933330791305923,0.12986670309771942,6.526663870436516,1.0127661419550906,4.153331553914145,0.5518596985979224
0.039,5.996171069257885,-0.07249019916904165,6.5957881761836745,1.1646070529590027,4.19731974848052,0.47074731287476823
0.04,6.058523463224383,0.08508709998971964,6.664375809546822,1.3783113748194307,4.240966424257068,0.6403108296794934
0.041,6.120384659753688,0.3346017252267887,6.732423125729057,1.2788248037992807,4.284269261827581,0.42259040289551913
0.042,6.181751391976656,0.5095747096187367,6.7999265311743216,1.1969557884142712,4.3272259743836585,0.6338067808684459
0.043,6.242620439861469,0.505837013321732,6.866882483847616,1.2842706724780342,4.3698343079030275,0.5674677676219368
0.044,6.302988630463721,0.3638020791301081,6.933287493510094,1.2586169896740267,4.4120920413246045,0.6070400285241802
0.045,6.3628528381718334,0.7924246947080544,6.999138121989017,0.9962387914985733,4.453996986720283,0.6830649536439753
0.046,6.422209984947755,0.9498494731651225,7.064430983442531,1.0932365930804675,4.495546989463429,0.8989285219318618
0.047,6.481057040562951,1.0658241744833628,7.129162744619247,1.2811937849197141,4.5367399283940655,0.8674277881665764
0.048,6.5393910228296495,1.1326715497867261,7.193330125112615,1.5606785485531907,4.577573715980754,0.9197150167277557
0.049,6.597208997827305,1.4986709300864862,7.2569298976100365,1.2352100273287654,4.618046298479113,0.9494504418803109
0.05,6.654508080124296,2.1078110246916077,7.319958888136727,1.5387708726172742,4.658155656087007,1.1539047420325577
0.051,6.711285432994797,2.3904801450268813,7.382413976294277,1.9407858102901212,4.697899803096357,1.2091130874549003
0.052,6.76753826863083,2.1587920732778993,7.444292095493913,2.121829002472235,4.73727678804158,1.4761821720656378
0.053,6.82326384834947,2.2623089711010858,7.505590233184417,2.3070101639643017,4.776284693844628,1.4408337094476111
0.054,6.878459482795181,2.3237990343709427,7.566305431074699,2.481608272514793,4.814921637956626,1.6483778470150001
0.055,6.933122532137267,2.1778521887703293,7.626434785350994,2.593759673813001,4.8531857724960865,1.5546852526912804
0.056,6.987250406262419,2.3172897238198247,7.685975446888661,2.8444822219016412,4.891075284383692,1.434537891429199
0.057,7.0408405649623464,2.7393877005366765,7.744924621458582,3.2667837458953017,4.928588395473642,1.4192624247490504
0.058,7.093890518116458,2.917173248347308,7.803279569928105,3.2722968563784143,4.96572336268152,1.3660272995512082
0.059,7.1463978258696095,3.043945501249108,7.861037608456571,3.405824909383775,5.002478478108726,1.159841375725246
0.06,7.198360098804855,3.016735658343494,7.918196108685342,3.1316162454046435,5.038852069163398,1.3415680474360547
0.061,7.249774998111233,2.936241832302818,7.974752497922357,3.2173110966984497,5.074842498677863,1.5660971457283939
0.062,7.30064023574654,2.9816401872174905,8.030704259321194,3.0816206232291954,5.110448165022578,1.654531557270814
0.063,7.350953574595092,3.2026650204268337,8.086048932054602,3.2543706710435427,5.145667502216564,1.73174036910753
0.064,7.400712828620459,3.232632586155307,8.140784111482505,3.443353705532996,5.180498980034321,1.9207420346482653
0.065,7.449915863013141,3.283496169485183,8.194907449314455,3.9041576583220263,5.214941104109198,2.0694732446715096
0.066,7.498560594333212,3.3439163208955964,8.248416653766535,3.741393456651785,5.248992416033248,2.3268494249698017
0.067,7.546644990647877,3.548046438673225,8.301309489712665,3.926181629408469,5.282651493453514,2.490222661612483
0.068,7.594167071663945,3.4237761002238947,8.35358377883034,4.059353223025996,5.315916950164761,2.480590473021456
0.069,7.641124908855225,3.44824117723455,8.405237399740749,4.072994237982723,5.348787436198657,2.2733302821085357
0.07,7.687516625584808,3.4848926802613667,8.45626828814329,4.005544194073984,5.381261637909366,2.4926004765829686
0.071,7.733340397222232,3.464578909551942,8.506674436944456,3.9757321749104424,5.413338278055562,2.3800315792807267
0.072,7.77859445125553,3.4804341178590485,8.556453896381084,3.9442685545187413,5.445016115878871,2.453008345025923
0.073,7.8232770673981396,3.4759126656911894,8.605604774137953,3.955149793177642,5.476293947178697,2.2190861686907066
0.074,7.867386577690672,3.6745856244537123,8.65412523545974,4.120943008918178,5.50717060438347,2.1430857535389305
0.075,7.910921366597526,3.59962724211593,8.702013503257279,4.16788312206938,5.5376449566182675,2.2195324540968167
0.076,7.953879871098349,3.6344334498865054,8.749267858208185,3.9752461385356495,5.567715909768844,2.4734472099260936
0.077,7.996260580774324,3.3879212717586635,8.795886638851757,4.008454092353864,5.597382406542026,2.5731541353368237
0.078,8.038062037889294,3.3481811154989565,8.841868241678224,4.331503304967667,5.626643426522505,2.373398211764135
0.079,8.07928283746568,3.7520205914567657,8.887211121212248,4.505668755278892,5.655497986225976,2.4522377666334685
0.08,8.119921627355257,3.764995342954137,8.931913790090784,4.6395783370804216,5.68394513914868,2.6416653578048908
0.081,8.159977108304703,4.482737804545521,8.975974819135175,4.531260475294081,5.711983975813292,2.689081545728675
0.082,8.199448034015951,4.371936075299515,9.019392837417547,4.803383508749652,5.739613623811166,2.7037942842533385
0.083,8.238333211201375,4.678603134047059,9.062166532321514,4.964736020932444,5.766833247840962,2.7901269461163083
0.084,8.27663149963373,4.73314727398024,9.104294649597104,4.668656133016317,5.79364204974361,2.891167547131092
0.085,8.314341812190914,4.690314766640265,9.145775993410007,4.489351518260169,5.820039268533639,3.0517530513121223
0.086,8.351463114895509,4.765860377735161,9.186609426385061,4.537604274125761,5.846024180426856,2.9269548904159817
0.087,8.387994426949106,5.024472933256586,9.226793869644018,4.752538484522941,5.871596098864374,2.9253682362750286
0.088,8.423934820761426,5.15401794922075,9.26632830283757,4.7126961576777955,5.896754374532998,3.1145991155551327
0.089,8.459283421974213,5.231103588059355,9.305211764171634,4.732100305430964,5.921498395381949,3.2150740883973503
0.09,8.494039409479925,4.958615238056561,9.343443350427918,5.150361405664158,5.9458275866359465,3.2858136815527215
0.091,8.528202015435198,4.695590763826577,9.38102221697872,4.889116568526399,5.969741410804638,3.4512023201242736
0.092,8.5617705252691,4.908445749586223,9.417947577796012,4.802995575113401,5.9932393676883695,3.3538297226612763
0.093,8.594744277686168,4.587629281440952,9.454218705454785,5.2106535065326645,6.016320994380317,3.4054788576896566
0.094,8.627122664664231,4.685702944385041,9.489834931130655,5.259965927571295,6.038985865264961,3.3198982020285484
0.095,8.65890513144703,4.674611200443085,9.524795644591734,5.282431179338943,6.061233592012921,3.4819053428170164
0.096,8.690091176531613,4.78838053707784,9.559100294184775,5.7010210466430875,6.083063823572129,3.5511287875456357
0.097,8.720680351650541,4.976852480059787,9.592748386815597,5.524472620981102,6.104476246155379,3.5395035850576546
0.098,8.750672261748878,4.916290401250936,9.625739487923767,5.4722873990213765,6.125470583224215,3.4609861307520586
0.099,8.780066564955995,4.84831119419522,9.658073221451595,5.445834450785084,6.146046595469196,3.6445481538057254
0.1,8.80886297255217,4.96179569654186,9.689749269807388,5.568244380301975,6.166204080786518,3.5334575629413187
0.101,8.837061248930006,5.100457118508022,9.720767373823007,5.594431485328229,6.185942874251004,3.618676922469204
0.102,8.864661211550661,5.290016578583478,9.751127332705728,5.55061176029722,6.205262848085463,3.423197487639978
0.103,8.891662730894913,5.3340380920830235,9.780829003984405,5.543437310699226,6.224163911626438,3.3352138885048577
0.104,8.918065730409031,5.268759737902052,9.809872303449936,5.785793953697722,6.242646011286322,3.2827482950454003
0.105,8.943870186445512,5.40043238956819,9.838257205090065,6.0760078298576055,6.260709130511858,3.3271110320740274
0.106,8.969076128198637,5.447976997725117,9.865983741018502,5.95864187473685,6.278353289739045,3.517046168968757
0.107,8.9936836376349,5.433856299109448,9.893052001398392,5.986817284420769,6.29557854634443,3.6574633240391776
0.108,9.017692849418289,5.2038698934067815,9.919462134360119,6.2057253165645,6.312384994592802,3.6119714807445806
0.109,9.04110395083043,5.404079648624896,9.945214345913472,6.076709772154188,6.3287727655813,3.7629265921856963
0.11,9.063917181685632,5.304281073827418,9.970308899854196,6.027793522008091,6.344742027179942,3.784672228747586
0.111,9.086132834240804,5.608443972836171,9.994746117664885,6.094072638113822,6.360292983968562,3.844290711226946
0.112,9.107751253100284,5.849465206956183,10.018526378410314,6.12571337330137,6.375425877170199,3.987148355184657
0.113,9.128772835115576,6.063656505293568,10.041650118627135,6.085143105330547,6.390140984580903,4.147358553689028
0.114,9.149198029280011,6.257015678742539,10.064117832208014,6.368333706400716,6.404438620496007,4.1976947134128455
0.115,9.169027336618353,6.0308064568861735,10.085930070280188,6.294501884757942,6.418319135632847,4.270541167560157
0.116,9.18826131007134,6.093420596570802,10.107087441078475,6.583040894270678,6.431782917049937,4.207326211144886
0.117,9.206900554375213,5.995780162778967,10.127590609812735,6.672488321295268,6.444830388062649,4.41330313189623
0.118,9.224945725936184,6.039071282861198,10.147440298529803,6.461948459861931,6.4574620081553284,4.525708565215101
0.119,9.242397532699936,6.107861657963184,10.16663728596993,6.820200231704553,6.469678272889955,4.2834503074083266
0.12,9.259256734016097,6.291313835375248,10.185182407417708,6.584323649327322,6.481479713811267,4.177496734884103
0.121,9.275524140497758,6.2848839240726155,10.203076554547534,6.89326156419967,6.492866898348431,4.035570809551575
0.122,9.291200613876011,6.590394989659664,10.220320675263613,6.918040517631628,6.5038404297132075,4.151302608165819
0.123,9.306287066849553,6.243161907040653,10.236915773534509,7.128267324212665,6.514400946794686,4.281154731690954
0.124,9.32078446292935,5.925233694317783,10.252862909222285,7.1810576735553875,6.524549124050544,4.287889316549667
0.125,9.334693816278396,5.918285784796195,10.268163197906237,7.597858407669537,6.534285671394876,4.3481122977926425
0.126,9.34801619154658,5.841024704735994,10.28281781070124,7.481505259032913,6.543611334082606,4.256474025578692
0.127,9.360752703700658,6.193458876802389,10.296827974070725,7.439206449851851,6.5525268925904605,4.41746596775031
0.128,9.372904517849397,6.209090714093192,10.310194969634338,7.46796343396578,6.561033162494578,4.539092734330002
0.129,9.384472849063851,6.373145463046231,10.322920133970237,7.3775364660380465,6.569130994344695,4.608905534470996
0.13,9.395458962192835,6.342490027444015,10.33500485841212,7.201959086646174,6.576821273534985,4.793183761619915
0.131,9.405864171673603,6.3088968365443385,10.346450588840964,6.96055295281194,6.584104920171521,5.086458308036834
0.132,9.415689841337734,6.28195409921527,10.357258825471508,7.323543348712345,6.590982888936414,5.203631398223626
0.133,9.42493738421227,6.199326364872518,10.367431122633498,7.166024264270691,6.5974561689485895,5.1209171733766
0.134,9.433608262316135,6.29725972775346,10.37696908854775,7.303706750158069,6.6035257836212935,5.167687808334439
0.135,9.441703986451794,6.270882298196899,10.385874385096974,7.312432069646319,6.609192790516255,5.088560121063147
0.136,9.449226115992277,6.080437673911913,10.394148727591505,7.183433327117865,6.614458281194593,5.120893803830189
0.137,9.4561762586635,5.942637547179282,10.401793884529852,7.072728485886871,6.61932338106445,5.120264900417324
0.138,9.462556070321966,5.922986042496058,10.408811677354164,6.939256488519512,6.623789249225376,4.930807386062151
0.139,9.468367254727813,6.23381698539763,10.415203980200594,7.322790347082697,6.627857078309469,4.8371143184745895
0.14,9.473611563313298,6.290624787379933,10.42097271964463,7.2439823315551575,6.631528094319308,4.78730369948415
0.141,9.478290794946707,6.525438720219601,10.426119874441378,7.46489672521995,6.634803556462694,4.822409076574991
0.142,9.482406795691702,6.536879132356773,10.430647475260873,7.479072651571896,6.637684756984191,4.760967730737526
0.143,9.485961458562159,6.555773598642947,10.434557604418375,7.651764886548733,6.640173020993511,4.63478286594139
0.144,9.488956723272521,6.767009942154049,10.437852395599775,7.703357985552759,6.642269706290764,4.712483961805134
0.145,9.49139457598367,6.53625292377027,10.440534033582036,7.850919826761894,6.6439762031885685,4.849756532405342
0.146,9.493277049044373,6.475567781002073,10.44260475394881,7.887662509530354,6.645293934331061,5.011602585353612
0.147,9.494606220728304,6.1010547404292,10.444066842801135,7.523678165952504,6.646224354509813,4.9659094915281
0.148,9.495384214966695,6.067056734265602,10.444922636463366,7.820427823432623,6.646768950476686,4.966532972202179
0.149,9.495613201076615,6.27689394475981,10.445174521184278,7.7876925512189725,6.6469292407536305,5.062403230913734
0.15,9.495295393484954,6.434432788996734,10.44482493283345,7.675524441847616,6.646706775439467,5.020358278808618
0.151,9.494433051448059,6.802665932715673,10.443876356592865,7.699823923134591,6.646103136013641,4.994428108617595
0.152,9.493028478767169,6.802109388033119,10.442331326643886,7.983270605415589,6.645119935137018,5.144225613164703
0.153,9.491084023499546,7.0967368718652075,10.440192425849501,7.994073968301598,6.643758816449682,5.305388244771712
0.154,9.488602077665455,7.165923669089391,10.437462285432002,7.948861914170607,6.642021454365818,5.082996039287717
0.155,9.485585076950926,7.045677874296426,10.43414358464602,8.224461635452602,6.639909553865648,5.240884999380942
0.156,9.482035500406411,6.8808939055927905,10.430239050447053,7.997061025202025,6.6374248502844875,5.192538876627055
0.157,9.477955870141287,7.221504284674653,10.425751457155416,7.78389608194545,6.6345691090989005,5.090570270916217
0.158,9.473348751014328,7.241617225942598,10.42068362611576,7.667541142798495,6.631344125710029,4.94621292527341
0.159,9.46821675032008,7.132253352021052,10.415038425352089,7.725385999752639,6.627751725224056,4.984390477045228
0.16,9.462562517471255,7.035819836291656,10.408818769218382,7.745733959376516,6.623793762229878,4.9868412143348415
0.161,9.456388743677138,7.3456280452593345,10.402027618044853,8.038395794013738,6.619472120573996,5.0964084984171585
0.162,9.449698161618043,7.379536202869015,10.394667977779848,8.026194022941484,6.61478871313263,4.7397254778727325
0.163,9.442493545115852,7.2047506879508205,10.386742899627437,8.20589861065057,6.609745481581096,4.839250325894296
0.164,9.434777708800691,7.084205762029246,10.378255479680762,8.043177557603858,6.604344396160483,4.669966634863922
0.165,9.426553507773752,6.967210426370134,10.369208858551128,7.982505529339574,6.598587455441626,4.8419078798005355
0.166,9.417823837266303,7.026325331113742,10.359606220992934,7.96637404210173,6.592476686086411,4.766323981749436
0.167,9.408591632294945,7.360148917961804,10.34945079552444,8.01227213364287,6.586014142606461,4.961581784404745
0.168,9.398859867313115,7.101000765848748,10.338745854044427,8.053125255219234,6.57920190711918,4.944688445360636
0.169,9.388631555858904,7.114467274559818,10.327494711444794,8.129365374914544,6.572042089101233,5.231994387000385
0.17,9.377909750199194,7.380406557402914,10.315700725219115,8.152517962327384,6.564536825139435,5.158989957250167
0.171,9.3666975409702,7.359782349485426,10.303367295067222,7.644325361021162,6.55668827867914,5.228934153440397
0.172,9.354998056814399,7.45238817100273,10.290497862495839,7.567719144193763,6.548498639770079,5.214641861571256
0.173,9.342814464013909,7.4950289853084815,10.2770959104153,7.530289565786021,6.539970124809736,5.1563749514251445
0.174,9.330149966120391,7.146735099891222,10.26316496273243,7.5596116256594765,6.531104976284274,5.211901649630359
0.175,9.31700780358143,7.152933459477213,10.248708583939573,7.63850251362044,6.521905462507,5.269368995801524
0.176,9.303391253363527,7.026156032647886,10.23373037869988,7.85886203991189,6.512373877354468,5.268033658340485
0.177,9.289303628571663,7.270940286272278,10.21823399142883,7.761474623904954,6.502512540000163,5.257512098421461
0.178,9.274748278065541,7.542442179274443,10.202223105872095,7.36156624513219,6.492323794645879,5.218379186761052
0.179,9.259728586072473,7.619877133422406,10.18570144467972,7.425462628194769,6.481810010250731,5.303864210294724
0.18,9.244247971797048,7.7464876790151065,10.168672768976753,7.558813027540967,6.470973580257933,5.3297559143378175
0.181,9.22830988902751,7.625991927337232,10.151140877930262,7.882634107669214,6.459816922319257,5.492349246890381
0.182,9.211917825738986,7.8648980569458935,10.133109608312886,7.858047056094239,6.44834247801729,5.616433651486678
0.183,9.195075303693534,7.93754925451605,10.114582834062888,7.814210891184644,6.436552712585473,5.773354299911427
0.184,9.177785878037115,7.749363602599145,10.095564465840827,7.718275405609591,6.42445011462598,5.6810026460808185
0.185,9.160053136893463,7.398890823425425,10.07605845058281,8.178549282372662,6.412037195825424,5.534359719260259
0.186,9.141880700954951,7.647935975862932,10.056068771050448,8.593611511578159,6.399316490668466,5.31594424027061
0.187,9.123272223070467,7.432180207156795,10.035599445377514,8.302904349510445,6.386290556149326,5.280168878076422
0.188,9.104231387830358,7.551950234176938,10.014654526613395,8.270849962858424,6.37296197148125,5.375446674688858
0.189,9.084761911148467,7.712482974938128,9.993238102263314,8.253780463413117,6.3593333378039265,5.268066891402603
0.19,9.064867539841323,7.5357450310205945,9.971354293825456,8.397772532314944,6.345407277888926,5.211095894344362
0.191,9.044552051204521,7.902542235575074,9.949007256324974,8.266199882851758,6.331186435843164,5.2731157547538245
0.192,9.023819252586343,7.743929386349523,9.926201177844977,8.417575905916154,6.31667347681044,5.52310395751367
0.193,9.002672980958634,7.5979795245870125,9.902940279054498,8.399360659916727,6.301871086671043,5.340406256564308
0.194,8.98111710248504,7.592821379348006,9.879228812733546,8.202169829607492,6.2867819717395275,5.233780895755632
0.195,8.959155512086577,7.5622720912365375,9.855071063295235,8.35141333576036,6.271408858460603,5.270181313032291
0.196,8.936792133004632,7.449224002857392,9.830471346305096,8.616200433284586,6.255754493103242,5.499433331695099
0.197,8.914030916361419,7.431732438923239,9.805434007997562,8.376570888619899,6.239821641452993,5.294775640925994
0.198,8.890875840717941,7.587359798097642,9.779963424789736,8.639585123940597,6.2236130885025585,5.280642688440259
0.199,8.8673309116295,7.492939057089069,9.75406400279245,8.852838353287508,6.207131638140649,5.061781423676367
0.2,8.843400161198787,7.423473009683942,9.727740177318665,8.942348051297985,6.190380112839151,5.0804986050038385
0.201,8.819087647626652,7.100698259252663,9.700996412389319,9.040697932745868,6.173361353338656,4.8331637388093815
0.202,8.794397454760514,6.9569696415485245,9.673837200236566,9.11513165090622,6.156078218332359,4.981142747415619
0.203,8.769333691640556,6.745161703861518,9.646267060804613,8.796267009761133,6.138533584148389,4.85830295239623
0.204,8.74390049204365,7.01709631723878,9.618290541248015,8.871108136698737,6.120730344430555,4.902416397950505
0.205,8.718102014025147,7.1485794842876285,9.589912215427663,8.70618671255052,6.102671409817603,5.130610259856745
0.206,8.691942439458552,7.235391129984157,9.561136683404408,8.574968359847192,6.084359707620986,5.102736745998594
0.207,8.665425973573068,7.242525456380365,9.531968570930376,8.941061162932552,6.0657981815011475,5.13474955116751
0.208,8.63855684448918,7.329859553900633,9.502412528938098,8.811066412474297,6.046989791142426,5.075539764068731
0.209,8.611339302752206,7.541380915751713,9.472473233027427,8.818537764346507,6.027937511926544,5.066149342923068
0.21,8.583777620863946,7.681158223274041,9.442155382950341,9.049785681528368,6.008644334604762,5.060186529716395
0.211,8.555876092812435,7.513431749202896,9.411463702093679,8.892632899521825,5.9891132649687036,5.281330356262602
0.212,8.52763903359985,7.186627706383561,9.380402936959836,8.951269855991395,5.969347323519895,5.310586747709298
0.213,8.499070778768669,7.051802872152398,9.348977856645536,8.870099725122587,5.949349545138068,5.2976195567369535
0.214,8.470175683926028,6.929604646311412,9.317193252318631,8.993472967603285,5.929122978748219,5.23294326859794
0.215,8.440958124266466,7.148063021572436,9.285053936693114,8.7346827325849,5.908670686986525,5.464859978926704
0.216,8.411422494092951,7.34324540767452,9.252564743502248,8.59632956143547,5.887995745865066,5.56235735537509
0.217,8.381573206336393,7.787716178974868,9.219730526970032,8.29670376538931,5.867101244435474,5.569375187393104
0.218,8.351414692073535,7.54264651383432,9.186556161280889,8.15367320488374,5.8459902844514735,5.467678797310476
0.219,8.32095140004344,7.5625317063752036,9.153046540047784,8.277189526687588,5.8246659800304075,5.698646240117586
0.22,8.29018779616245,7.707792012855789,9.119206575778694,8.308004901841386,5.8031314573137145,5.86736430067521
0.221,8.25912836303783,7.825093631250217,9.085041199341614,8.220876966845385,5.7813898541264805,5.7589238587215625
0.222,8.227777599480001,7.528091499978556,9.050555359428003,8.033890562080483,5.759444319636001,5.881670587279536
0.223,8.196140020013551,7.667600319292825,9.015754022014907,8.173016252220922,5.737298014009486,5.747674339360438
0.224,8.164220154386934,7.68347343988699,8.980642169825629,7.854060153934373,5.714954108070853,5.686040782612826
0.225,8.13202254708104,7.693001411403974,8.945224801789143,7.977457072181665,5.6924157829567275,5.453005724239446
0.226,8.099551756816574,7.8694512514679476,8.909506932498232,8.105612663615501,5.669686229771601,5.375989986392127
0.227,8.066812356060401,7.637574119042211,8.873493591666442,8.031265561814992,5.64676864924228,5.247126888711791
0.228,8.033808930530784,7.603500822151944,8.837189823583863,7.864724477351597,5.6236662513715485,5.173577242943648
0.229,8.000546078701703,7.306901310829459,8.800600686571874,7.576173294975146,5.6003822550911915,4.991641118957612
0.23,7.967028411306167,7.462755450534768,8.763731252436784,7.599898021609331,5.5769198879143165,5.059517752475834
0.231,7.933260550838723,7.334667690769191,8.726586605922595,7.631343732509735,5.553282385587106,4.958826018368057
0.232,7.899247131057032,7.158304642128686,8.689171844162736,7.746545917234492,5.529472991739922,4.901509189988851
0.233,7.86499279648276,6.908828656363894,8.651492076131037,7.4421309565415275,5.505494957537931,4.82589008282377
0.234,7.830502201901646,7.120287628874589,8.61355242209181,7.743666823297642,5.4813515413311515,4.812589989213788
0.235,7.795780011862973,7.190601282882179,8.575358013049271,7.96102804851083,5.457046008304081,4.718351154513303
0.236,7.760830900178323,7.4721614250514605,8.536913990196156,8.260765893979853,5.432581630124826,4.768926270267166
0.237,7.725659549419841,7.721055182567583,8.498225504361825,8.441726239963135,5.4079616845938885,4.740716462229685
0.238,7.690270650417884,7.808098164177037,8.459297715459673,8.664462281156453,5.383189455292518,4.745980906353216
0.239,7.654668901758282,7.549651754909497,8.420135791934111,8.516346456766813,5.358268231230797,4.750131139748234
0.24,7.61885900927909,7.424590382715977,8.380744910207,8.480092390684566,5.333201306495362,4.765322957027561
0.241,7.582845685567045,7.4029281924550085,8.34113025412375,8.388649407496368,5.307991979896931,4.818697091048847
0.242,7.54663364945363,7.589610814380748,8.301297014398994,8.32991426594394,5.2826435546175405,5.019728194481499
0.243,7.510227625510939,7.966814289238611,8.261250388062033,7.82724879925252,5.257159337857657,5.035583552750036
0.244,7.47363234354725,7.933401599312039,8.220995577901975,7.741218661572433,5.231542640483075,4.978276835324925
0.245,7.436852538102515,7.63725268523756,8.180537791912768,7.621485224555425,5.20579677667176,5.065711510011099
0.246,7.3998929479436475,7.709385161683731,8.139882242738013,7.257759068488046,5.179925063560553,5.130824251259569
0.247,7.3627583155598275,7.7673876533393535,8.09903414711581,7.4809153293295765,5.153930820891879,5.021706882913701
0.248,7.3254533866577285,7.599007169834811,8.057998725323502,7.441329262871974,5.127817370660409,4.761206789301506
0.249,7.287982909656843,7.647178103303694,8.016781200622528,7.237811881099831,5.1015880367597894,4.838255699402521
0.25,7.2503516351848445,7.400781844027536,7.97538679870333,7.458520916745411,5.075246144629391,4.673747104344027
0.251,7.212564315573152,7.157709474273617,7.933820747130468,7.533953276106047,5.048795020901206,4.665683121809688
0.252,7.174625704352627,7.41028455575849,7.89208827478789,7.708413248749602,5.022237993046838,4.706557428392918
0.253,7.136540555749578,7.366238204168136,7.850194611324537,7.789447684806444,4.995578389024704,4.534503463637792
0.254,7.098313624182009,7.591652209939846,7.808144986600211,7.320448371215139,4.968819536927406,4.451397301812957
0.255,7.059949663756272,7.4625101851407925,7.7659446301319,7.475280967300699,4.94196476462939,4.39315503934713
0.256,7.0214534277640634,7.392319674912953,7.7235987705404705,7.657890883940564,4.915017399434844,4.599735213308823
0.257,6.982829668179929,7.52262274402082,7.681112634997922,7.471553375545627,4.88798076772595,4.556324580511419
0.258,6.944083135159224,7.165968598520356,7.638491448675147,7.460462891913648,4.860858194611457,4.638685268165199
0.259,6.905218576536675,7.199625226348775,7.595740434190343,7.760781297046534,4.833653003575672,4.761698844556981
0.26,6.866240737325496,7.103836298499616,7.552864811058046,7.922925702933604,4.806368516127847,4.755733423971211
0.261,6.827154359217225,6.900037125700421,7.509869795138948,8.099175077812781,4.779008051452057,4.526283202215757
0.262,6.7879641800821995,6.771833660068579,7.46676059809042,7.957193813239522,4.75157492605754,4.574196331362554
0.263,6.748674933470865,6.825333103948699,7.423542426817953,7.763059588141633,4.7240724534296055,4.56484113145574
0.264,6.709291348115822,6.996055565893137,7.380220482927404,7.860972625721792,4.696503943681075,4.454223764785224
0.265,6.6698181474348015,7.246021961721692,7.336799962178282,7.687866962440669,4.668872703204361,4.599298338826674
0.266,6.630260049034488,7.159120415456769,7.293286053937938,7.59642358276656,4.6411820343241414,4.483055689369225
0.267,6.59062176421538,7.2570169931995085,7.249683940636919,7.88236963324234,4.613435234950766,4.423789983792615
0.268,6.550907997477579,7.557441072301732,7.205998797225337,7.483272796955902,4.5856355982343056,4.39875250103722
0.269,6.5111234460277165,7.517320441929964,7.162235790630489,7.378085521486031,4.557786412219401,4.383171704577797
0.27,6.471272799286959,7.608855747715656,7.118400079215656,7.033960755149334,4.529890959500871,4.617396797582608
0.271,6.431360738400166,7.491535386602228,7.074496812240183,7.280917644965044,4.501952516880116,4.480708875143477
0.272,6.391391935746305,7.78909336682906,7.030531129320936,7.354844264696497,4.473974355022413,4.317506083845946
0.273,6.351371054450077,7.698702962954746,6.986508159895085,7.180472934955583,4.445959738115054,4.281804613051699
0.274,6.311302747894917,7.321254572977705,6.942433022684409,6.917076603963725,4.417911923526441,4.377714117319327
0.275,6.271191659237288,7.463562652293082,6.898310825161017,6.614218003412797,4.389834161466101,4.574893321254024
0.276,6.23104242092246,7.562231673098147,6.854146663014706,6.835701556724785,4.361729694645722,4.493195422606695
0.277,6.1908596542016845,7.703664457379381,6.809945619621853,6.98318084129399,4.333601757941179,4.594729001498012
0.278,6.150647968650945,7.366174061797931,6.7657127655160405,7.381694425437053,4.305453578055661,4.582902879014995
0.279,6.110411961691203,7.251148723170337,6.721453157860324,7.244174647745281,4.277288373183842,4.757879864457584
0.28,6.070156218110315,6.889649918073369,6.677171839921346,7.109136585023169,4.24910935267722,4.597618566102439
0.281,6.029885309586552,6.444749888645949,6.632873840545208,7.271895392880731,4.220919716710586,4.486366923243153
0.282,5.989603794213879,6.374920244816155,6.588564173635268,7.3501276225820344,4.192722655949716,4.689698604732571
0.283,5.94931621602894,6.383174302089172,6.5442478376318345,7.293134400841243,4.164521351220258,4.813795003242874
0.284,5.9090271045398755,6.298518593837235,6.499929814993863,7.240857091934316,4.136318973177913,4.764015149216099
0.285,5.868740974256994,6.325166583499618,6.455615071682694,7.237738737516339,4.108118681979896,4.825395637013845
0.286,5.82846232422531,6.433552598466197,6.411308556647842,7.147410769576784,4.079923626957717,4.8593198303170935
0.287,5.788195637559081,6.844996307505795,6.36701520131499,6.8361492727825075,4.051736946291356,4.934304654553078
0.288,5.7479453809782655,6.742588950862158,6.322739919076093,6.862121782759038,4.023561766684786,4.944344493508027
0.289,5.707716004347111,6.295041786593591,6.278487604781822,6.877947765851738,3.9954012030429773,4.831187245935876
0.29,5.667511940214732,5.983845981485429,6.234263134236206,6.773326041785238,3.9672583581503122,4.742992010353776
0.291,5.627337603357918,5.964551715406558,6.19007136369371,6.494424192003629,3.9391363223505422,4.670894750228464
0.292,5.5871973903260335,5.94168747356239,6.145917129358637,6.647069653746137,3.9110381732282233,4.688906886034595
0.293,5.547095678988222,5.891841126640386,6.101805246887045,6.93447229820404,3.882966975291755,4.516848591348121
0.294,5.507036828082819,6.285283277198329,6.057740510891101,6.86181079116642,3.8549257796579726,4.500637818120558
0.295,5.467025176769138,6.139349266921544,6.013727694446052,6.9484051503187505,3.826917623738396,4.35486696093341
0.296,5.427065044181566,6.062856019466653,5.969771548599723,6.769088535244328,3.798945530927096,4.534008358229658
0.297,5.387160728986127,6.149566404522178,5.9258768018847405,6.582504679339404,3.771012510290289,4.519515645340807
0.298,5.347316508939439,5.945182857325887,5.882048159833384,6.596730913383341,3.743121556257607,4.484454868532682
0.299,5.307536640450233,5.7851631271568476,5.838290304495257,6.6427084518664,3.715275648315163,4.456821975319519
0.3,5.267825358143346,5.973049405314051,5.794607893957681,6.470454887347726,3.6874777507003422,4.426516675010385
0.301,5.228186874426374,5.994450904290623,5.751005561869012,6.376276638605486,3.6597308120984615,4.129051209023065
0.302,5.188625379058888,5.998482800324487,5.707487916964777,6.177858462952439,3.6320377653412215,4.015468324552181
0.303,5.149145038724393,5.722650418114145,5.664059542596833,6.267745555932813,3.604401527107075,3.9600282872885773
0.304,5.109749996604938,6.0369828729579815,5.620724996265432,6.372132777097899,3.5768249976234565,3.9959647227511255
0.305,5.070444371958542,6.4077498003314854,5.5774888091543975,6.335079710420137,3.549311060370979,3.8850784934336664
0.306,5.03123225969939,5.876633635178494,5.534355485669329,6.33839533172002,3.521862581789573,3.799302849171419
0.307,4.9921177299809045,5.732861700902414,5.491329502978996,6.610754516359425,3.494482410986633,3.702267332070097
0.308,4.953104827781667,5.5734174606690745,5.448415310559834,6.718288819009647,3.467173379447167,3.733539089413688
0.309,4.914197572494326,5.487023976933268,5.40561732974376,6.421694352327862,3.4399383007460282,3.710697932364341
0.31,4.875399957517412,5.394242337810846,5.362939953269153,6.669912709428006,3.412779970262188,3.6763557865815986
0.311,4.836715949850232,5.177272929890571,5.320387544835255,6.297395030997566,3.3857011648951625,3.4858342675771903
0.312,4.798149489690758,5.148008005951856,5.277964438659834,6.09122183599084,3.3587046427835303,3.4829074916395797
0.313,4.759704490036671,4.939853164325483,5.235674939040338,6.332679364508701,3.3317931430256693,3.7707481549747923
0.314,4.721384836289494,4.837764947462203,5.193523319918444,6.381279230527252,3.3049693854026456,3.6700368926607747
0.315,4.683194385861908,4.988364222720007,5.1515138244481,5.813447447529052,3.2782360701033353,3.5756029306093433
0.316,4.645136967788326,4.811519528428615,5.109650664567159,5.7629686252684635,3.251595877451828,3.4099570989781736
0.317,4.6072163823386525,4.870108410823899,5.067938020572518,5.4585213394549825,3.2250514676370567,3.3513035652039878
0.318,4.569436400635408,5.128385347910677,5.02638004069895,5.50211756943802,3.1986054804447854,3.26506915194733
0.319,4.5318007642741245,5.120233002998288,4.984980840701537,5.557911766837673,3.172260534991887,3.1968856387031197
0.32,4.494313184947167,5.152279042188147,4.943744503441884,5.296828052649777,3.1460192294630165,3.089928250405304
0.321,4.456977344070912,5.277631376876072,4.902675078478004,5.108660127910052,3.1198841408496385,3.257663216890066
0.322,4.419796892416423,5.256466324300529,4.861776581658066,5.249791190370162,3.0938578246914963,3.370170982370537
0.323,4.382775449743562,5.122629413485878,4.821052994717919,5.410303944931703,3.0679428148204932,3.2201648354373593
0.324,4.345916604438667,5.189013643441548,4.780508264882534,5.500933761744529,3.042141623107067,3.0979786434904057
0.325,4.309223913155743,5.052254667668221,4.740146304471318,5.496990732357027,3.01645673920902,3.228311729166596
0.326,4.2727009004612935,4.8049835599360495,4.699970990507423,5.866247980988283,2.9908906303229053,3.3206138557934333
0.327,4.236351058482729,4.9048256049799015,4.659986164331002,5.871076159857048,2.96544574093791,3.525809151097188
0.328,4.200177846560496,4.887708768523297,4.620195631216546,5.950345837477148,2.9401244925923473,3.6009716853989717
0.329,4.164184690903849,4.763202989669619,4.580603159994235,5.916106262318018,2.9149292836326945,3.493629271806566
0.33,4.128374984250415,5.024278661925585,4.541212482675458,5.83833602855318,2.8898624889752904,3.4928099478994925
0.331,4.092752085529465,5.043507103393706,4.502027294082412,5.685261753371676,2.8649264598706257,3.738383950700922
0.332,4.057319319529055,5.155019976251308,4.463051251481962,5.854344939239211,2.8401235236703384,3.6628286527098015
0.333,4.022079976566935,5.1230588925400635,4.4242879742236285,5.410312885165212,2.8154559835968542,3.6910040532979402
0.334,3.987037312165387,5.238961264501012,4.385741043381926,5.453819534577736,2.7909261185157708,3.747668027801025
0.335,3.9521945467299187,5.062160923289487,4.347414001402911,5.892815372774758,2.7665361827109427,3.5482157718993492
0.336,3.917554865231928,4.742889348560612,4.309310351755121,5.941960019366171,2.7422884056623493,3.4056646758371563
0.337,3.883121416895297,4.6049660524304254,4.271433558584827,5.988239280307912,2.718184991826708,3.570523588355871
0.338,3.848897314887025,4.740707589110667,4.233787046375728,6.070648392109801,2.694228120420917,3.622712705228128
0.339,3.8148856360118426,4.456546690651167,4.196374199613027,5.977377404688947,2.6704199452082897,3.491312968794447
0.34,3.781089420410936,4.482222386765526,4.15919836245203,6.085981514368768,2.646762594287655,3.299206164613949
0.341,3.7475116712647107,4.545282200726228,4.122262838391182,5.8409640942133745,2.6232581698852973,3.247116614650878
0.342,3.7141553544997175,4.759186225599347,4.08557088994969,5.265671308338789,2.599908748149802,3.2239880369319267
0.343,3.6810233984996916,4.901417716386895,4.0491257383496615,5.165563149130292,2.576716378949784,3.136005936587836
0.344,3.6481186938207983,4.674672724465263,4.012930563202879,5.014220839054508,2.5536830856745585,2.9817112379397193
0.345,3.615444092911062,4.4645146437172665,3.9769885022021687,4.843865967527839,2.5308108650377434,3.1898735083359733
0.346,3.5830024098340374,4.898254298321522,3.9413026508174416,4.87832959081631,2.508101686883826,3.1565674608856633
0.347,3.5507964199967583,5.200627515718789,3.9058760619964343,4.8839264349946285,2.4855574939977307,3.3249817298376785
0.348,3.5188288598819355,4.873389671741082,3.8707117458701292,4.85390368099615,2.4631802019173548,3.3164388916053453
0.349,3.48710242678452,4.653376600798222,3.835812669462972,4.9300132980000395,2.4409716987491636,3.17532392376331
0.35,3.4556197785525606,4.730676378369881,3.801181756407817,4.80062560872909,2.418933844986792,3.180547753255708
0.351,3.4243835333324704,4.37858988950335,3.7668218866657175,4.564830499199988,2.397068473332729,3.1659167259412984
0.352,3.3933962693186492,4.285633141925938,3.7327358962505146,4.865923122273603,2.3753773885230545,3.115905269581228
0.353,3.3626605245075565,4.2245527918081756,3.6989265769583124,4.518432894030536,2.353862367155289,2.9666920592165527
0.354,3.3321787964562013,4.2641594848835425,3.6653966761018215,4.207543772984059,2.3325251575193406,3.0140432096968475
0.355,3.30195354204512,4.425364209797228,3.632148896249632,4.381995061190619,2.311367479431584,2.690134665667493
0.356,3.271987177245819,4.6478544344623085,3.599185894970401,4.131636729331873,2.2903910240720733,2.769099375458506
0.357,3.242282076892762,4.462640540148401,3.5665102845820384,3.970523135455415,2.2695974538249333,2.88660731268604
0.358,3.2128405744598574,4.29458832893435,3.5341246319058435,3.768890294975217,2.2489884021219,2.885307639080882
0.359,3.18366496184154,4.3855338087899565,3.5020314580256944,3.8857606615173097,2.228565473289078,2.797228588606623
0.36,3.154757489138409,4.563019749291673,3.4702332380522503,3.8463401548055636,2.2083302423968862,2.7072140271817657
0.361,3.126120364447458,4.508799498342366,3.438732400892204,3.763636991421953,2.1882842551132207,2.8415339696264645
0.362,3.0977557536569647,4.64478545556258,3.407531329022661,3.897631324707194,2.168429027559875,2.8792651279952697
0.363,3.069665780245983,4.597063551307066,3.3766323582705815,3.6604428420812356,2.148766046172188,2.6242035833961492
0.364,3.041852525088518,4.539996866560229,3.34603777759737,3.6676808537090366,2.1292967675619625,2.4798049574215857
0.365,3.014318026262373,4.377445683509703,3.3157498288886105,3.5942198217424037,2.110022618383661,2.482735640486648
0.366,2.987064278862709,4.09251708539654,3.28577070674898,3.7111955254216245,2.090944995203896,2.3583915791003873
0.367,2.9600932348203015,3.8499867957748517,3.2561025583023318,4.07908291398093,2.072065264374211,2.551556992972808
0.368,2.933406802724554,3.7120734604327716,3.22674748299701,3.921330369726684,2.053384761907188,2.501993521226709
0.369,2.9070068476512523,3.794600374696384,3.197707532416378,3.577949422282328,2.0349047933558766,2.441565718598841
0.37,2.880895190995096,3.8767018916743443,3.168984710094606,3.675592080181538,2.0166266336965673,2.432394279035566
0.371,2.8550736103070076,3.847776474793697,3.1405809713377084,3.5975305096678296,1.9985515272149053,2.5763257033374183
0.372,2.829543839136263,3.6617563304433083,3.112498223049889,3.526923136240048,1.980680687395384,2.6489435045371
0.373,2.804307566877406,3.6724280161255347,3.084738323565147,3.6309762374899384,1.963015296814184,2.35457397608915
0.374,2.779366438622046,3.4742138470228423,3.0573030824842506,3.4940622857311636,1.945556507035432,2.2964100585580853
0.375,2.7547220550154448,3.367516731194356,3.0301942605169896,3.259995617386525,1.9283054385108112,2.0613896719826514
0.376,2.7303759721180167,3.3414735730193486,3.0034135693298185,3.2964538070439033,1.9112631804826117,1.978961038307656
0.377,2.7063297012716676,3.3032735468600944,2.9769626713988346,3.2599342411795638,1.8944307908901672,2.098391918055737
0.378,2.6825847089710386,3.064251194409338,2.950843179868143,3.46518095753909,1.8778092962797268,2.238752216783131
0.379,2.659142416739649,3.0939206373806174,2.9250566584136144,3.501545132541012,1.8613996917177542,2.233227217756966
0.38,2.63600420101094,3.0776834352961173,2.8996046211120343,3.683193451085706,1.845202940707658,2.2653713649204974
0.381,2.613171393014259,3.2848801794347886,2.874488532315685,3.389170591636901,1.8292199751099811,2.4644349217501555
0.382,2.59064527866576,3.1527738949292314,2.8497098065323363,3.2900343516569097,1.813451695066032,2.4448693485034365
0.383,2.568427098464264,3.321382383601092,2.825269808310691,3.140672922226428,1.7978989689249847,2.4038225147287293
0.384,2.5465180473920634,3.5659734971502948,2.8011698521312702,3.2005465045543593,1.7825626331744442,2.365361555312893
0.385,2.524919274820694,3.436952236241358,2.7774112023027637,3.0100908249656912,1.7674434923744855,2.387911674660136
0.386,2.503631884421682,3.497720422120547,2.7539950728638507,3.3467161354871635,1.7525423190951772,2.422553341146306
0.387,2.4826569340822626,3.746603799003889,2.730922627490489,3.4124960567061464,1.7378598538575838,2.6059876600728575
0.388,2.4619954358261067,3.311012749613097,2.7081949794087175,3.928013579075204,1.7233968050782746,2.585465083280452
0.389,2.4416483557390185,3.172846270706852,2.6858131913129206,3.6939679340863103,1.7091538490173128,2.5598904408715972
0.39,2.4216166138996558,3.5360345172286385,2.6637782752896215,3.6517046075611,1.695131629729759,2.5637896401551363
0.391,2.401901084315253,3.548294398385193,2.6420911927467787,3.495783486768743,1.681330759020677,2.320637898720026
0.392,2.382502594862352,3.587326124033452,2.6207528543485874,3.5569525723950233,1.6677518164036462,2.330916947419679
0.393,2.3634219272325687,3.250994745959177,2.5997641199558257,3.558660311089652,1.654395349062798,2.0329636876132593
0.394,2.3446598168833717,3.24227252625157,2.579125798571709,3.731566093785916,1.64126187181836,2.1825857493931324
0.395,2.326216952993895,3.242627956407488,2.5588386482932846,3.704040255962475,1.6283518670957264,2.3570787934288604
0.396,2.308093978425778,3.0894441422920407,2.538903376268356,3.5382350911977785,1.6156657848980447,2.132106241536522
0.397,2.2902914896890554,3.089575445732743,2.519320638657961,3.61220681914853,1.6032040427823386,2.115390425646388
0.398,2.2728100369130715,2.6952010084880156,2.500091040604379,3.6701657952306084,1.59096702583915,2.0272141951088973
0.399,2.2556501238224396,2.9374456642287714,2.4812151362046837,3.6320590058796873,1.5789550866757076,1.7147974169338023
0.4,2.2388122077180492,3.2002393010044843,2.4626934284898545,3.4159430420758583,1.5671685454026343,1.8544143546426166
0.401,2.222296699463114,2.9041445454539616,2.444526369409426,3.409449678540075,1.5556076896241797,1.8046005374275291
0.402,2.2061039634742547,2.9137271675450878,2.4267143598216805,3.0667866055987276,1.5442727744319782,1.836550084596868
0.403,2.1902343177176444,2.723339514413402,2.409257749489409,2.9728989290362215,1.533164022402351,1.8081942252351297
0.404,2.174688033710181,2.788908085948697,2.3921568370811994,2.5331900752147414,1.5222816235971266,1.9274138667662668
0.405,2.159465336525713,2.750888767108955,2.3754118701782847,2.9240072131314983,1.511625735567999,2.0515910293121284
0.406,2.1445664048063042,2.6806551417226583,2.3590230452869347,2.8024614346170655,1.501196483364413,2.0311316897278417
0.407,2.129991370778531,2.8176459675810817,2.3429905078563844,2.625396494371861,1.4909939595449715,1.9172264184476058
0.408,2.1157403202748313,2.970214666911273,2.3273143523023148,2.262673924284144,1.4810182241923817,1.886481089264459
0.409,2.1018132927598687,2.644816790857867,2.3119946220358556,2.10603630524248,1.471269304931908,1.8402561208035484
0.41,2.088210281361948,2.8831274448753716,2.297031309498143,1.852550975694781,1.4617471969533635,1.7903644496940838
0.411,2.074931232909436,2.9040535131829115,2.2824243562003796,2.3324398734275666,1.4524518630366052,1.9229714253438905
0.412,2.061976047972218,2.6467102522501236,2.26817365276944,2.395128354005723,1.4433832335805523,1.8918704307509346
0.413,2.0493445809081665,2.6300560705314227,2.2542790389989835,2.43466442311868,1.4345412066357164,1.8830242848465182
0.414,2.037036639914625,2.53200542073113,2.2407403039060876,2.1682014265667764,1.4259256479402374,1.818172393268567
0.415,2.0250519870848827,2.533483587673721,2.227557185793371,1.8930468017751239,1.4175363909594179,1.8471110152730448
0.416,2.0133903384696703,2.492310097545839,2.2147293723166377,2.15549002929055,1.409373236928769,1.765268179639247
0.417,2.0020513641436244,2.3315881644261975,2.202256500557987,2.2616638766127743,1.401435954900537,1.8373032591769547
0.418,1.9910346882767485,2.1590313033544706,2.1901381571044234,2.3833421993424664,1.3937242817937239,1.8777461025851228
0.419,1.9803398892108435,2.05393938315629,2.178373878131928,2.5226918072337123,1.3862379224475903,1.8169774462502766
0.42,1.969966499540913,1.8932373555881363,2.1669631494950043,2.4350843244091784,1.378976549678639,1.6324179158390548
0.421,1.9599140062015126,2.1692686652722557,2.155905406821664,2.577638733082145,1.3719398043410587,1.886495690083983
0.422,1.9501818505580548,2.12719399005838,2.1452000356138603,2.5660810169568937,1.3651272953906384,1.996523182113356
0.423,1.9407694285030574,2.1208846904686904,2.134846371353363,2.823365854412538,1.3585385999521402,2.1104935289206237
0.424,1.9316760905572998,2.247276097034268,2.12484369961303,2.9139081019183486,1.3521732633901098,2.0494969181608806
0.425,1.9229011419759177,2.5222200495235327,2.11519125617351,3.010820441902011,1.3460307993831422,2.2072476199825823
0.426,1.9144438428593826,2.4569337608380404,2.105888227145321,2.8500896357861794,1.3401106900015678,2.245668886899575
0.427,1.9063034082693822,2.547103308178273,2.0969337490963205,3.0005002040358297,1.3344123857885675,2.289548514024252
0.428,1.898479008349577,2.5121957807643978,2.088326909184535,2.6740578563616544,1.3289353058447038,2.170787476864429
0.429,1.8909697684512272,2.5071383898629933,2.08006674529635,2.3230708318707918,1.323678837915859,2.1605202574902203
0.43,1.883774769263657,2.3984826059060973,2.072152246190023,2.60734045704825,1.3186423384845598,2.3742046740702287
0.431,1.8768930469495766,2.322292424237343,2.0645823516445345,2.6480611801003255,1.3138251328647035,2.2779693357891846
0.432,1.8703235932852076,2.4288592355253074,2.0573559526137286,2.5267094734873194,1.3092265152996452,2.0957265093114326
0.433,1.864065355805229,2.3753922829882845,2.050471891385752,2.6207447834866833,1.3048457490636602,1.958271288622492
0.434,1.858117237952511,2.196337814324268,2.0439289617477625,2.6245040667765824,1.3006820665667576,2.0184730716574206
0.435,1.85247809923262,2.1715581743808547,2.037725909155882,2.3439949241498463,1.2967346694628339,1.7582531457582207
0.436,1.8471467553730863,2.0516031542515987,2.031861430910395,2.4358256829130083,1.2930027287611603,1.9196017633710907
0.437,1.842121978487417,2.1453465890143413,2.026334176336159,2.474460301926241,1.2894853849411918,1.8058356705554934
0.438,1.8374024972438239,1.8440157348422344,2.0211427469682066,2.4405490146415043,1.2861817480706765,1.633424186342519
0.439,1.8329869970386614,1.9655678550360598,2.0162856967425276,2.638152981259493,1.283090897927063,1.5718811831911188
0.44,1.8288741201745573,2.0826042715270012,2.011761532192013,2.7169099257877862,1.2802118841221901,1.7199864546570602
0.441,1.8250624660431978,2.165514632555489,2.007568712647518,2.4910368010935913,1.2775437262302383,1.4611981849349278
0.442,1.821550591312775,1.9899321789008613,2.0037056504440525,2.4452166891618,1.2750854139189425,1.432387510638166
0.443,1.8183370101200547,1.9442831182054587,2.00017071113206,2.7177238766929994,1.2728359070840383,1.4503573547055437
0.444,1.8154201942670474,2.0066559645316295,1.9969622136937524,2.554112932248496,1.270794135986933,1.6988427139919087
0.445,1.8127985734222793,1.8262343186519912,1.9940784307645074,2.6733959048793654,1.2689590013955954,1.5856707847621143
0.446,1.8104705353266182,1.6312642946774587,1.9915175888592802,2.6488360522797514,1.2673293747286327,1.654978255760029
0.447,1.8084344260036413,1.6456221880465594,1.9892778686040056,2.3817346326051885,1.265904098202549,1.4952672455450307
0.448,1.806688549974532,1.6743263977395069,1.9873574049719853,2.2035896774295547,1.2646819849821722,1.716492956841599
0.449,1.8052311704774624,1.8094122338634064,1.9857542875252088,2.1444029710401478,1.2636618193342235,1.7876293575711157
0.45,1.8040605096914613,1.8349718258341212,1.9844665606606076,2.0334727432900888,1.2628423567840228,1.7350313172920142
0.451,1.803174748964727,1.4456603258747707,1.9834922238611998,1.9974595957346577,1.2622223242753088,1.618997586610873
0.452,1.8025720290473677,1.4005077017539869,1.9828292319521046,2.1934972997703994,1.2618004203331572,1.6578296109698747
0.453,1.8022504503285388,1.522684140509342,1.9824754953613928,2.234869928554233,1.2615753152299771,1.4630014786116392
0.454,1.8022080730779644,1.4125317390800207,1.982428880385761,1.9606460557319225,1.261545651154575,1.4648573574399413
0.455,1.8024429176918,1.5087880616464602,1.9826872094609802,2.419441379752452,1.26171004238426,1.2506992998531532
0.456,1.802952964942829,1.3605451523998655,1.983248261437112,1.854102320726111,1.2620670754599803,1.1358409038557487
0.457,1.80373615623495,1.3614261895516693,1.9841097718584453,2.2446770057952716,1.262615309364465,1.1306388236810825
0.458,1.8047903938619356,1.4440277224572013,1.9852694332481293,2.026575593975331,1.2633532757033548,1.1319083461501651
0.459,1.8061135412704337,1.7693727502273155,1.9867248953974772,2.069144493760582,1.2642794788893035,1.2011635364060183
0.46,1.8077034233271956,1.7069670630183575,1.9884737656599154,1.9018900366742624,1.2653923963290368,1.2224297310996413
0.461,1.8095578265904706,1.7689304673296344,1.990513609249518,2.125622198073282,1.2666904786133293,1.2134341673784925
0.462,1.8116744995855782,1.6622779784260546,1.9928419495441363,1.916959046221471,1.2681721497099048,1.163609066756244
0.463,1.814051153084601,1.4854351616580257,1.9954562683930614,2.180642499271346,1.2698358071592206,1.1183129162882153
0.464,1.816685460390171,1.430765909149327,1.9983540064291883,2.3786650407574133,1.2716798222731196,0.8656733007083796
0.465,1.8195750576233425,1.3769832454004765,2.001532563385677,2.1921235063189504,1.2737025403363396,0.9412141866205612
0.466,1.8227175440154886,1.3382794930495165,2.0049892984170374,2.0450929405560423,1.275902280810842,1.0969777860058534
0.467,1.826110482204212,1.3969868649260149,2.0087215304246335,1.8329523367958032,1.2782773375429484,1.0695193246062829
0.468,1.8297513985332339,1.3595694845446746,2.0127265383865574,1.8621048164336926,1.2808259789732637,0.9793069343256284
0.469,1.833637783356227,1.1654401207126215,2.01700156169185,1.6091267216088367,1.2835464483493588,1.0619314511269724
0.47,1.837767091344562,1.1744060966395344,2.0215438004790185,1.560459119753189,1.2864369639411934,1.1374866172582632
0.471,1.842136741798937,1.3480932313044238,2.026350415978831,1.358975739805791,1.2894957192592558,1.1024861326867372
0.472,1.846744118964848,1.5760471589417888,2.031418530861333,1.493755024367006,1.2927208832753934,1.2745545848248274
0.473,1.851586572351887,1.7143287026802827,2.036745229587076,1.6468618868588105,1.2961106006463208,1.2880955397695175
0.474,1.8566614170568054,1.7719177357228562,2.0423275587624863,1.5580248366029457,1.2996629919397638,1.3540119334031513
0.475,1.8619659340903398,1.7003471039226221,2.048162527499374,1.5184910410468757,1.3033761538632378,1.3622520669837803
0.476,1.867497370707739,1.3266081053958367,2.054247107778513,1.6533843130663715,1.307248159495417,1.306042908450494
0.477,1.8732529407429737,1.1466086665149002,2.060578234817271,1.8712860489517609,1.3112770585200815,1.2345502451488943
0.478,1.8792298249465933,1.3168123410306136,2.0671528074412526,1.5475103238569352,1.3154608774626153,1.4525312865728208
0.479,1.8854251713271757,1.659506431008622,2.073967688459893,1.165182451398003,1.319797619929023,1.341267765124519
0.48,1.8918360954963678,1.4937489510217685,2.0810197050460046,1.3892125935399489,1.3242852668474574,1.323369198907329
0.481,1.8984596810174428,1.6541468659953469,2.0883056491191874,1.3486105340263779,1.32892177671221,1.2613537811238078
0.482,1.9052929797573674,1.5232265779090959,2.095822277733104,1.510969067151444,1.3337050858301571,1.1657116622676542
0.483,1.9123330122423248,1.388375694903647,2.1035663134665574,1.5017022392681794,1.3386331085696273,0.9923077268645375
0.484,1.9195767680166638,1.4809062085798594,2.1115344448183304,1.5783854321611266,1.3437037376116645,0.7713360673955512
0.485,1.9270212060052332,1.3898898358869924,2.1197233266057567,1.0287633647061618,1.3489148442036631,1.0159564448656933
0.486,1.9346632548790637,1.1523355060404503,2.12812958036697,1.091941525276345,1.3542642784153445,0.8300116098063539
0.487,1.9424998134243556,1.1287134500060285,2.1367497947667915,1.0075389462499036,1.359749869397049,0.6151560646698628
0.488,1.9505277509147518,1.1101551838548824,2.1455805260062273,0.7639514430350075,1.3653694256403262,0.6069003961982693
0.489,1.9587439074868187,0.8908484184101422,2.154618298235501,0.8820117405138044,1.371120735240773,0.6366907361736878
0.49,1.967145094518746,1.2147930433016854,2.163859603970621,1.214160832070868,1.377001566163122,0.40563651274804813
0.491,1.9757280950121707,1.317565231324722,2.173300904513388,1.5857180935752284,1.3830096665085194,0.3568099377162982
0.492,1.9844896639771443,1.2420876407808619,2.182938630374859,1.224397870220573,1.389142764784001,0.4175650250322427
0.493,1.9934265288201418,1.100538610950966,2.192769181702156,1.1105325658617833,1.3953985701740992,0.44549677212535443
0.494,2.0025353897351255,1.1409247856826148,2.2027889287086384,1.472214788148944,1.4017747728145877,0.6574135251300943
0.495,2.0118129200975825,0.9978065599991355,2.212994212107341,1.343070631641161,1.4082690440683077,0.674564964028164
0.496,2.0212557668615254,1.0735373320525055,2.223381343547678,1.479056449706729,1.4148790368030677,0.7093290080405313
0.497,2.0308605509593827,0.73076879892536,2.233946606055321,1.4192109481790525,1.4216023856715678,0.7245139731715993
0.498,2.0406238677047766,0.7518921330029071,2.2446862544752544,1.40813264130006,1.4284367073933435,0.6208853740036133
0.499,2.0505422871980974,1.2577748851764512,2.255596515917907,1.4347631205504057,1.4353796010386681,0.7144042627580858
0.5,2.0606123547348876,1.2883340093323827,2.2666735902083763,1.4907154532197917,1.4424286483144213,0.8603068617795165
0.501,2.0708305912169314,0.9957432848437276,2.2779136503386246,1.7739042547309123,1.449581413851852,1.2503242506155743
0.502,2.0811934935660705,1.3173194443717136,2.2893128429226777,1.6529159166222456,1.4568354454962493,1.0504753779939724
0.503,2.0916975351406473,1.4455185660298266,2.3008672886547124,1.427139343397748,1.464188274598453,0.8531133346720872
0.504,2.1023391661545654,1.3921636022166084,2.312573082770022,1.5360720775625591,1.4716374163081958,0.7026291129937532
0.505,2.1131148140989167,1.5551190370690107,2.3244262955088084,1.4978720173854754,1.4791803698692416,0.7299338457693343
0.506,2.1240208841661135,1.2526737282471507,2.336422972582725,1.4474546387968663,1.4868146189162794,0.7622529831814695
0.507,2.1350537596765173,1.1619156562129036,2.348559135644169,1.5295696598863087,1.4945376317735621,0.7369727968056041
0.508,2.146209802507475,1.2953616557474317,2.3608307827582227,1.665374889457088,1.5023468617552325,0.757744788500158
0.509,2.1574853535247573,1.578074890963986,2.373233888877233,1.9060393347702016,1.5102397474673301,0.8480940264979243
0.51,2.1688767330163254,1.3219252027070765,2.3857644063179584,1.7879462187197128,1.5182137131114277,1.0947529864479604
0.511,2.180380241128406,0.8268848594801375,2.398418265241247,1.8916325718873055,1.5262661687898842,1.265727455282211
0.512,2.191992158303792,0.9807324030071343,2.4111913741341713,1.900961951908019,1.5343945108126542,1.3656373865966698
0.513,2.203708745722372,1.0854509006887851,2.4240796202946093,1.797724104617952,1.5425961220056603,1.1976091715207775
0.514,2.215526245743802,0.9650544119141709,2.437078870318182,1.541768499660086,1.5508683720206613,1.2468190853394294
0.515,2.227440882352285,1.0865034099357889,2.4501849705875136,1.4359754724891522,1.5592086176465996,1.0603700996680494
