time,roll_setpoint,gyro_roll,pitch_setpoint,gyro_pitch,yaw_setpoint,gyro_yaw
0.0,3.221088436188455,-5.321098141752577,3.543197279807301,7.04673013086535,2.2547619053319186,-0.5437340496947196
0.001,3.299582398918418,9.176805272011343,3.62954063881026,5.833147673032179,2.3097076792428926,7.798605451623358
0.002,3.3777459409858164,7.82725372701258,3.7155205350843983,7.523704124532328,2.364422158690071,7.33143497536817
0.003,3.455574210797501,-0.3178754255818599,3.8011316318772517,4.452008408016179,2.4189019475582505,3.084583784246295
0.004,3.533062390490227,3.8886801540757627,3.88636862953925,-0.4813505670279472,2.473143673343159,2.7538309304554085
0.005,3.6102056963405573,-4.157315039202116,3.9712262659746136,-0.44932065514960473,2.52714398743839,4.027955345253514
0.006,3.686999379171322,-4.855926577380041,4.055699317088455,-4.196450838032671,2.580899565419925,-0.18872273961386246
0.007,3.763438724754603,-6.25987987011739,4.139782597230063,-7.39732923705315,2.634407107328222,-1.8629785714086693
0.008,3.839519054211185,-9.591148760561858,4.223470959632304,-6.467683504343347,2.6876633379478294,-3.2824399537498485
0.009,3.9152357244064526,-3.36980462672292,4.3067592968470985,-1.4132930834423707,2.740665007084517,-3.4169777286294525
0.01,3.9905841283426917,3.0619308037852346,4.389642541176961,6.906904817751138,2.793408889839884,0.9749656924925321
0.011,4.0655596955477415,0.3553543680941096,4.472115665102516,7.047359017008716,2.845891786883419,5.52885881775445
0.012,4.140157892459986,3.852642663264975,4.5541736817059855,9.584811946620693,2.8981105247219903,2.168395441652618
0.013,4.214374222809629,-1.6866129571321622,4.635811645090592,-1.3908114056769145,2.95006195596674,2.8934796748765557
0.014,4.28820422799622,-0.44092213897345234,4.7170246507958415,4.162052180833081,3.0017429595973537,-0.4085890477686535
0.015,4.3616434874624,-0.7940735966363008,4.797807836208641,-1.8980697634125434,3.05315044122368,-1.3997212145486717
0.016,4.4346876190638245,-3.3416621028525757,4.878156380970207,4.479047894723385,3.104281333344677,1.8690481027930654
0.017,4.507332279435237,-3.2594512542862923,4.958065507378761,-5.545528928132063,3.1551325956046656,-2.3563231638887974
0.018,4.5795731643526425,-2.0560776268705956,5.0375304807879075,0.21132173193583936,3.2057012150468496,-4.71120122680234
0.019,4.651406009091567,-0.13265913971092957,5.116546610000724,-2.11326798387853,3.2559842063640967,0.35878856017156857
0.02,4.722826588781357,2.7185179972524676,5.195109247659493,4.12378333641619,3.30597861214695,0.5817745653629918
0.021,4.793830718755473,11.94195208750666,5.27321379063102,16.90113830333225,3.3556815031288307,8.011843583396235
0.022,4.864414254897774,10.152712735852798,5.350855680387552,7.075311542505877,3.4050899784284416,1.937263849530892
0.023,4.934573093984735,6.072964770587406,5.428030403383209,5.818160372962166,3.454201165789314,0.2984361744706394
0.024,5.004303174023567,-1.2500493233238528,5.504733491425925,-1.3271908978121583,3.5030122218164967,2.873919675823535
0.025,5.073600474586228,-0.3067641670776403,5.580960522044851,0.9835015374564513,3.5515203322103592,-1.1120299631071582
0.026,5.142461017139256,-4.423787443556458,5.656707118853182,5.71592855868858,3.599722711997479,0.08214400374276942
0.027,5.210880865369442,4.3346127349328,5.731968951906387,0.08986265656474512,3.6476166057586092,-2.1588783889067744
0.028,5.278856125505255,-4.119649395963835,5.8067417380557815,-1.5633033780530017,3.6951992878536783,-0.48895950652837183
0.029,5.346382946634043,5.483676672830037,5.881021241297448,2.637770601866821,3.7424680626438303,-0.2749056482708774
0.03,5.413457521014937,4.949442655074529,5.954803273116432,8.524613251998145,3.7894202647104556,4.163116174910369
0.031,5.480076084387463,9.836690668829755,6.028083692826209,11.393709977278622,3.8360532590712237,3.833393658883338
0.032,5.546234916275796,6.078133538363246,6.100858407903376,9.864509764752446,3.8823644413930567,5.099195568426818
0.033,5.611930340288663,1.2485691819241398,6.17312337431753,5.777195416152495,3.928351238202064,3.2382866457844273
0.034,5.6771587244148485,0.5282049525640862,6.2448745968563335,-0.7971285802972072,3.974011107090394,0.017185802080645463
0.035,5.741916481314269,-2.0106304611741783,6.316108129445697,2.8235756569194024,4.019341536919988,0.16001436843798977
0.036,5.806200068604601,-3.4748538470500834,6.386820075465061,-2.3455925485773808,4.064340048023221,-1.3501449097180414
0.037,5.8700059891434355,0.9207029129828731,6.457006588057779,3.6014738046563464,4.109004192400405,2.9455704239704437
0.038,5.933330791305923,5.298860219712919,6.526663870436516,2.297414085484828,4.153331553914145,3.539622887270952
0.039,5.996171069257885,6.251998586456723,6.5957881761836745,7.460570327588703,4.19731974848052,5.569685497001565
0.04,6.058523463224383,7.659256051526631,6.664375809546822,13.622907483961434,4.240966424257068,4.940577054664511
0.041,6.120384659753688,17.917173209432075,6.732423125729057,17.046585504392738,4.284269261827581,9.375135870860705
0.042,6.181751391976656,7.700818883158997,6.7999265311743216,8.694269118367245,4.3272259743836585,6.100838387305603
0.043,6.242620439861469,0.3663331813757362,6.866882483847616,4.304849135962875,4.3698343079030275,1.0476923832309106
0.044,6.302988630463721,4.511086473059349,6.933287493510094,0.056495004051453135,4.4120920413246045,-0.5012604872944808
0.045,6.3628528381718334,-4.810708705776966,6.999138121989017,-5.377258534878166,4.453996986720283,-1.4020297720150607
0.046,6.422209984947755,-1.2961512011451108,7.064430983442531,1.7268334474697584,4.495546989463429,0.6371590763674453
0.047,6.481057040562951,4.975867863172876,7.129162744619247,8.010046187889731,4.5367399283940655,2.204531903981406
0.048,6.5393910228296495,1.3943528114993962,7.193330125112615,5.962834080885168,4.577573715980754,2.3354952991853652
0.049,6.597208997827305,8.673984185854561,7.2569298976100365,5.560771735175224,4.618046298479113,7.678463744843105
0.05,6.654508080124296,11.912751339194784,7.319958888136727,8.790640447125075,4.658155656087007,5.906283986534557
0.051,6.711285432994797,14.946261396060411,7.382413976294277,8.72662942022682,4.697899803096357,6.467913565184807
0.052,6.76753826863083,9.072892693567587,7.444292095493913,8.176425296367025,4.73727678804158,1.7892751498976764
0.053,6.82326384834947,0.5323831646842363,7.505590233184417,1.3685129853123934,4.776284693844628,0.9099677553841191
0.054,6.878459482795181,-1.7762087748451192,7.566305431074699,-4.822137049149238,4.814921637956626,-1.372730632783298
0.055,6.933122532137267,-0.6076048945054708,7.626434785350994,2.4888116255800505,4.8531857724960865,-0.8351432356062594
0.056,6.987250406262419,2.436013701256794,7.685975446888661,6.038621759343919,4.891075284383692,4.056407784162083
0.057,7.0408405649623464,8.226413160731054,7.744924621458582,6.952316965291974,4.928588395473642,5.196386065686222
0.058,7.093890518116458,3.922748911780019,7.803279569928105,8.91376101605318,4.96572336268152,5.214676002367682
0.059,7.1463978258696095,10.610430140640783,7.861037608456571,8.497098397411817,5.002478478108726,5.595766435189281
0.06,7.198360098804855,6.914362955920215,7.918196108685342,17.417558471321087,5.038852069163398,8.711798162009
0.061,7.249774998111233,11.423208692482993,7.974752497922357,9.00274630050572,5.074842498677863,9.298556437183494
0.062,7.30064023574654,4.903318691382612,8.030704259321194,7.994311842708769,5.110448165022578,5.9894427900166045
0.063,7.350953574595092,2.6468506301695176,8.086048932054602,2.3208995360405282,5.145667502216564,0.4386585894244035
0.064,7.400712828620459,-7.566761957570181,8.140784111482505,-1.0148326734389286,5.180498980034321,0.5263766702660613
0.065,7.449915863013141,3.2976612181271587,8.194907449314455,2.257612368171766,5.214941104109198,1.7227394607575717
0.066,7.498560594333212,4.431242562723866,8.248416653766535,3.284480668242103,5.248992416033248,5.852366937441412
0.067,7.546644990647877,5.532625613365486,8.301309489712665,6.654263858198471,5.282651493453514,7.452409750189797
0.068,7.594167071663945,8.651949536514,8.35358377883034,6.46147866687831,5.315916950164761,4.256462470023175
0.069,7.641124908855225,9.383271248320165,8.405237399740749,9.939007335635129,5.348787436198657,7.2526695193764095
0.07,7.687516625584808,5.746120654112625,8.45626828814329,15.005773815119433,5.381261637909366,4.653875972973873
0.071,7.733340397222232,8.439714333093717,8.506674436944456,11.112533022846058,5.413338278055562,6.106804745160936
0.072,7.77859445125553,5.860356087598587,8.556453896381084,1.1561893026454255,5.445016115878871,3.3598100440326406
0.073,7.8232770673981396,-3.891951770144847,8.605604774137953,-0.361985941083517,5.476293947178697,-0.1705336990474601
0.074,7.867386577690672,0.4509083270836157,8.65412523545974,-0.24628804734147125,5.50717060438347,1.0249165638028193
0.075,7.910921366597526,6.48475637842697,8.702013503257279,2.0975209857567965,5.5376449566182675,2.550753902828072
0.076,7.953879871098349,8.323198637214482,8.749267858208185,7.59250109406454,5.567715909768844,5.426592245212683
0.077,7.996260580774324,8.686670038282958,8.795886638851757,15.320629900087184,5.597382406542026,5.080311303869496
0.078,8.038062037889294,6.8277076794103,8.841868241678224,7.194304326220879,5.626643426522505,6.079582619444114
0.079,8.07928283746568,7.479168882202218,8.887211121212248,12.9305283257519,5.655497986225976,8.616783807415246
0.08,8.119921627355257,9.144724412237782,8.931913790090784,6.485866006766078,5.68394513914868,5.945497663262634
0.081,8.159977108304703,10.430732831953472,8.975974819135175,9.905450352525015,5.711983975813292,6.470975334123044
0.082,8.199448034015951,5.64513016262236,9.019392837417547,1.8889322873340784,5.739613623811166,3.2113555480005385
0.083,8.238333211201375,-0.43464527728012103,9.062166532321514,1.6242699376001746,5.766833247840962,-1.8786332512493251
0.084,8.27663149963373,-1.418328979989571,9.104294649597104,5.324491852691914,5.79364204974361,2.274341153072017
0.085,8.314341812190914,2.960080297867532,9.145775993410007,3.812842988473173,5.820039268533639,3.6757547432763893
0.086,8.351463114895509,11.566049691254326,9.186609426385061,12.322306345143687,5.846024180426856,5.860933503793981
0.087,8.387994426949106,6.57243691050945,9.226793869644018,12.628967138078622,5.871596098864374,7.05678432540723
0.088,8.423934820761426,9.972317300104296,9.26632830283757,11.051169409293534,5.896754374532998,3.6654468221214374
0.089,8.459283421974213,7.427528783380836,9.305211764171634,6.045613710074957,5.921498395381949,3.198520392405901
0.09,8.494039409479925,9.84966798265804,9.343443350427918,11.655398368887845,5.9458275866359465,7.653782800524622
0.091,8.528202015435198,5.968658611043543,9.38102221697872,8.122733835524011,5.969741410804638,3.336049539627659
0.092,8.5617705252691,0.11063036832173267,9.417947577796012,0.591771658855397,5.9932393676883695,1.0231906541671398
0.093,8.594744277686168,4.9304287045508755,9.454218705454785,-1.597609861662193,6.016320994380317,-2.5156471720462408
0.094,8.627122664664231,3.0342548833511707,9.489834931130655,0.8584240508310876,6.038985865264961,2.651774896818952
0.095,8.65890513144703,7.9436083126618335,9.524795644591734,5.980748528904461,6.061233592012921,4.880888796507637
0.096,8.690091176531613,8.531171285973244,9.559100294184775,13.071959721994265,6.083063823572129,8.25711984650729
0.097,8.720680351650541,12.62924483655853,9.592748386815597,16.654228205595096,6.104476246155379,9.158087532103936
0.098,8.750672261748878,10.028056261327194,9.625739487923767,12.645403490283778,6.125470583224215,8.002758883864376
0.099,8.780066564955995,9.416459349056785,9.658073221451595,11.011495121953427,6.146046595469196,5.927290368383513
0.1,8.80886297255217,3.3425618506022836,9.689749269807388,5.197844921487805,6.166204080786518,4.95954863843238
0.101,8.837061248930006,6.6204020461435,9.720767373823007,9.510741612907228,6.185942874251004,3.118247550242873
0.102,8.864661211550661,5.6112752453714965,9.751127332705728,6.2470850354120255,6.205262848085463,-1.1355697246119627
0.103,8.891662730894913,0.17984320038671653,9.780829003984405,7.5220053938269755,6.224163911626438,-2.348199683396664
0.104,8.918065730409031,3.7412739520436062,9.809872303449936,1.0169892808667544,6.242646011286322,3.959187368492353
0.105,8.943870186445512,5.143083703887945,9.838257205090065,5.988233613409762,6.260709130511858,7.121009420053319
0.106,8.969076128198637,16.333406413391366,9.865983741018502,10.540975989892058,6.278353289739045,3.292996814448032
0.107,8.9936836376349,9.71840036681251,9.893052001398392,18.24161106088186,6.29557854634443,8.446956907133835
0.108,9.017692849418289,8.943020611346352,9.919462134360119,7.335353697726486,6.312384994592802,3.735729380556872
0.109,9.04110395083043,4.922403670632606,9.945214345913472,7.029239309015757,6.3287727655813,8.035747513196899
0.11,9.063917181685632,3.8735203668566327,9.970308899854196,2.5696620049355667,6.344742027179942,1.4498007198409537
0.111,9.086132834240804,9.647651982597464,9.994746117664885,6.047566894396389,6.360292983968562,3.5886900296563375
0.112,9.107751253100284,8.022805981398722,10.018526378410314,4.975490472411536,6.375425877170199,1.8274255090719813
0.113,9.128772835115576,2.196198867724716,10.041650118627135,5.49852710765071,6.390140984580903,2.30527673268574
0.114,9.149198029280011,14.256853338734429,10.064117832208014,6.894444729715417,6.404438620496007,5.340917600121317
0.115,9.169027336618353,13.69415658611537,10.085930070280188,9.55720561232125,6.418319135632847,5.425506850956976
0.116,9.18826131007134,17.69013876337321,10.107087441078475,18.340249866499892,6.431782917049937,12.4535317333285
0.117,9.206900554375213,14.431815154524665,10.127590609812735,16.55854553150463,6.444830388062649,8.163922888941874
0.118,9.224945725936184,13.72558773727161,10.147440298529803,12.323826244092558,6.4574620081553284,3.772362012748444
0.119,9.242397532699936,7.5002252039708965,10.16663728596993,5.464911232073684,6.469678272889955,3.559598873745964
0.12,9.259256734016097,3.0382298925023576,10.185182407417708,7.550025155655762,6.481479713811267,2.9407320242027852
0.121,9.275524140497758,4.731141260486863,10.203076554547534,7.648228838541824,6.492866898348431,4.751776946807416
0.122,9.291200613876011,2.375610556315668,10.220320675263613,1.7543317088053136,6.5038404297132075,3.0088260233514483
0.123,9.306287066849553,0.38237142664478885,10.236915773534509,0.37854306766476586,6.514400946794686,2.8508484434160826
0.124,9.32078446292935,8.518723972948909,10.252862909222285,9.319165982234622,6.524549124050544,2.4670747669208066
0.125,9.334693816278396,11.288947307923587,10.268163197906237,7.311426491567174,6.534285671394876,9.078484401269934
0.126,9.34801619154658,13.669547581144492,10.28281781070124,12.662437067485058,6.543611334082606,9.990715172304803
0.127,9.360752703700658,16.867334504812796,10.296827974070725,11.742125924281353,6.5525268925904605,9.13192317975214
0.128,9.372904517849397,8.268267354435597,10.310194969634338,6.583685203331547,6.561033162494578,7.39664678519721
0.129,9.384472849063851,7.708613135646102,10.322920133970237,7.174628441272244,6.569130994344695,2.007974743273594
0.13,9.395458962192835,1.611507471325885,10.33500485841212,7.597403572831284,6.576821273534985,5.610233764909623
0.131,9.405864171673603,3.5128970826134487,10.346450588840964,8.081096690511576,6.584104920171521,4.355457451391569
0.132,9.415689841337734,5.989182166066971,10.357258825471508,3.479923339426075,6.590982888936414,5.281869231228755
0.133,9.42493738421227,7.272740824830656,10.367431122633498,11.321110431035537,6.5974561689485895,4.66660796013644
0.134,9.433608262316135,10.77469041136986,10.37696908854775,7.1144474115163066,6.6035257836212935,5.5793798200285005
0.135,9.441703986451794,16.417364836438608,10.385874385096974,15.891424976421709,6.609192790516255,13.041061632140797
0.136,9.449226115992277,24.831491730839637,10.394148727591505,17.930523252284093,6.614458281194593,10.350301519034474
0.137,9.4561762586635,9.022345199082055,10.401793884529852,18.779430473275575,6.61932338106445,7.5273207358577805
0.138,9.462556070321966,6.087570072716242,10.408811677354164,10.033787210854538,6.623789249225376,3.329983679969873
0.139,9.468367254727813,4.695928100511954,10.415203980200594,9.0117417861244,6.627857078309469,5.365193106550578
0.14,9.473611563313298,7.9925675335514885,10.42097271964463,1.5647801735341011,6.631528094319308,2.751169003438653
0.141,9.478290794946707,3.9692225975627187,10.426119874441378,7.93135048332014,6.634803556462694,0.4325849662794692
0.142,9.482406795691702,5.721462696559513,10.430647475260873,9.727889072025143,6.637684756984191,2.8791262558284916
0.143,9.485961458562159,5.855381017904412,10.434557604418375,9.129636128288132,6.640173020993511,3.738799650347234
0.144,9.488956723272521,10.746245515882501,10.437852395599775,8.158459226288787,6.642269706290764,4.163830985780373
0.145,9.49139457598367,12.582198044979537,10.440534033582036,13.35422012215852,6.6439762031885685,9.193414157053766
0.146,9.493277049044373,15.81008964555421,10.44260475394881,16.995584223056525,6.645293934331061,8.396860327724276
0.147,9.494606220728304,13.738373232787122,10.444066842801135,13.959081168473384,6.646224354509813,6.854217048623669
0.148,9.495384214966695,4.934491657629679,10.444922636463366,3.22513907146183,6.646768950476686,1.2657326790631194
0.149,9.495613201076615,5.561639276104625,10.445174521184278,-0.11498108123150619,6.6469292407536305,0.2331656167880215
0.15,9.495295393484954,2.538642954645551,10.44482493283345,8.15536948561562,6.646706775439467,0.172616773130279
0.151,9.494433051448059,7.993081247480865,10.443876356592865,10.818113900983697,6.646103136013641,8.733044056722466
0.152,9.493028478767169,7.908556054614001,10.442331326643886,13.915232965284105,6.645119935137018,1.120436355639976
0.153,9.491084023499546,6.534849899918722,10.440192425849501,16.82913842552276,6.643758816449682,5.503577839351111
0.154,9.488602077665455,14.570789102351721,10.437462285432002,14.114811745603248,6.642021454365818,8.03502873700892
0.155,9.485585076950926,11.526375265788085,10.43414358464602,11.756263185149624,6.639909553865648,8.634601931617956
0.156,9.482035500406411,12.48172815844519,10.430239050447053,20.079864467698957,6.6374248502844875,9.801588721731777
0.157,9.477955870141287,9.704220807710987,10.425751457155416,11.595374498091891,6.6345691090989005,5.136109760312386
0.158,9.473348751014328,10.354033043902877,10.42068362611576,10.45962670243664,6.631344125710029,3.3068748367077196
0.159,9.46821675032008,6.648261419271226,10.415038425352089,0.26922427125240933,6.627751725224056,2.9226433226130117
0.16,9.462562517471255,-0.31355423573959396,10.408818769218382,6.0705231063767435,6.623793762229878,-1.9790646250151025
0.161,9.456388743677138,4.206200092457823,10.402027618044853,4.602419317144179,6.619472120573996,3.103897496535676
0.162,9.449698161618043,14.417249342672346,10.394667977779848,13.872397752367291,6.61478871313263,5.073971979994087
0.163,9.442493545115852,15.882530127242724,10.386742899627437,6.546859573535205,6.609745481581096,9.134898725019374
0.164,9.434777708800691,12.559760738620097,10.378255479680762,12.207606089402443,6.604344396160483,7.709587363272826
0.165,9.426553507773752,13.161184502489672,10.369208858551128,13.243447048038448,6.598587455441626,6.8936104026297835
0.166,9.417823837266303,12.531734782273407,10.359606220992934,11.440768612843938,6.592476686086411,8.309896505127428
0.167,9.408591632294945,8.379607693013234,10.34945079552444,9.608480787778658,6.586014142606461,2.883955169474667
0.168,9.398859867313115,1.3262096226508522,10.338745854044427,2.5094440370209696,6.57920190711918,4.974303353865583
0.169,9.388631555858904,4.991977214464612,10.327494711444794,2.129862321823348,6.572042089101233,1.8044525513228282
0.17,9.377909750199194,3.348893892114785,10.315700725219115,6.350503976255518,6.564536825139435,2.9940465031576484
0.171,9.3666975409702,12.101866625427578,10.303367295067222,8.896705542136825,6.55668827867914,7.084893156163403
0.172,9.354998056814399,13.790541029650734,10.290497862495839,14.00837127754246,6.548498639770079,7.767644430533163
0.173,9.342814464013909,16.88336188357552,10.2770959104153,16.72093604465212,6.539970124809736,6.986977452023162
0.174,9.330149966120391,12.05946014187914,10.26316496273243,12.093250358164765,6.531104976284274,7.833401580732806
0.175,9.31700780358143,10.244794694834786,10.248708583939573,14.874884089897739,6.521905462507,10.678779652738928
0.176,9.303391253363527,9.42686686195041,10.23373037869988,10.010736610867275,6.512373877354468,7.86338917625993
0.177,9.289303628571663,8.063107393137626,10.21823399142883,13.046137541967358,6.502512540000163,5.519570767804376
0.178,9.274748278065541,3.166208237507963,10.202223105872095,4.676837811683857,6.492323794645879,3.7989361490249602
0.179,9.259728586072473,-0.8507331778853069,10.18570144467972,-1.517345336402411,6.481810010250731,2.557582642671747
0.18,9.244247971797048,4.553490930264257,10.168672768976753,10.721206357954895,6.470973580257933,2.5336207526859607
0.181,9.22830988902751,10.783737300879965,10.151140877930262,11.990720172579028,6.459816922319257,8.23198557931288
0.182,9.211917825738986,14.727172779999531,10.133109608312886,11.332157855070855,6.44834247801729,8.694889939826586
0.183,9.195075303693534,12.21929278200434,10.114582834062888,19.949109748726798,6.436552712585473,6.774871693287265
0.184,9.177785878037115,13.132742097023804,10.095564465840827,11.573335436069637,6.42445011462598,8.9185623419424
0.185,9.160053136893463,11.059453683487163,10.07605845058281,7.378283236205964,6.412037195825424,9.066597874134905
0.186,9.141880700954951,10.008345383994067,10.056068771050448,13.550433928143434,6.399316490668466,3.5400700408713424
0.187,9.123272223070467,7.859118445700664,10.035599445377514,7.412346905151173,6.386290556149326,2.3719241698938673
0.188,9.104231387830358,0.622424442086345,10.014654526613395,6.938086568323656,6.37296197148125,0.4786992068562097
0.189,9.084761911148467,8.737413744790075,9.993238102263314,4.091412112296236,6.3593333378039265,5.868941324033445
0.19,9.064867539841323,8.236229976927564,9.971354293825456,6.4184620228614735,6.345407277888926,3.8433784036837375
0.191,9.044552051204521,12.99128896173603,9.949007256324974,10.570122540880956,6.331186435843164,5.416582276987988
0.192,9.023819252586343,16.172746374922674,9.926201177844977,14.332616746370114,6.31667347681044,7.980769984537717
0.193,9.002672980958634,16.881557788070594,9.902940279054498,12.767387266924349,6.301871086671043,10.391424602046266
0.194,8.98111710248504,12.922630311769412,9.879228812733546,7.874157908890595,6.2867819717395275,6.185963972194589
0.195,8.959155512086577,11.84336434627727,9.855071063295235,8.746273742109631,6.271408858460603,4.725466653541517
0.196,8.936792133004632,8.742281987675,9.830471346305096,8.634032762612387,6.255754493103242,1.7686678962079156
0.197,8.914030916361419,3.0636737896959803,9.805434007997562,5.136117043723295,6.239821641452993,4.320311620520183
0.198,8.890875840717941,-3.52629920253601,9.779963424789736,-5.61403009368038,6.2236130885025585,2.4886909321618265
0.199,8.8673309116295,5.375577955695817,9.75406400279245,1.402311998897781,6.207131638140649,1.6073350405676914
0.2,8.843400161198787,10.123050304879467,9.727740177318665,8.704017335800714,6.190380112839151,2.5966225991261958
0.201,8.819087647626652,9.431444711793517,9.700996412389319,12.454412818640723,6.173361353338656,6.707510219050848
0.202,8.794397454760514,10.605124351713195,9.673837200236566,17.69603126872457,6.156078218332359,7.652453060754355
0.203,8.769333691640556,8.83662634053894,9.646267060804613,12.02204605617879,6.138533584148389,6.7532620884400405
0.204,8.74390049204365,7.110634834673116,9.618290541248015,9.996449994835958,6.120730344430555,3.8950582587543097
0.205,8.718102014025147,4.9693897644031,9.589912215427663,10.094934845137644,6.102671409817603,2.212291241228782
0.206,8.691942439458552,6.7771177058900065,9.561136683404408,10.999434995034138,6.084359707620986,3.6939701751462257
0.207,8.665425973573068,5.799927259669787,9.531968570930376,6.607407665410203,6.0657981815011475,5.3986072900040805
0.208,8.63855684448918,4.649524844843406,9.502412528938098,0.5108233403005746,6.046989791142426,0.25801517076512726
0.209,8.611339302752206,5.079370865633812,9.472473233027427,11.19700192536858,6.027937511926544,3.987395627944263
0.21,8.583777620863946,8.837465163116068,9.442155382950341,15.341715947221058,6.008644334604762,9.003702412549773
0.211,8.555876092812435,11.741406540173653,9.411463702093679,14.589700778206861,5.9891132649687036,10.38252290259598
0.212,8.52763903359985,14.386971069511851,9.380402936959836,18.294318769461057,5.969347323519895,11.006435374226182
0.213,8.499070778768669,13.981406907295167,9.348977856645536,11.337468695344253,5.949349545138068,6.720065494376467
0.214,8.470175683926028,4.474382550743392,9.317193252318631,8.46179762674062,5.929122978748219,6.80718657038841
0.215,8.440958124266466,5.9105591205456465,9.285053936693114,9.529999068449886,5.908670686986525,5.628445036267577
0.216,8.411422494092951,2.5714486615650203,9.252564743502248,7.423994782214969,5.887995745865066,5.785186455018744
0.217,8.381573206336393,1.2448032785336443,9.219730526970032,6.438018102149375,5.867101244435474,3.8152848298722395
0.218,8.351414692073535,6.155163621508369,9.186556161280889,5.754160750632021,5.8459902844514735,1.444462893663839
0.219,8.32095140004344,8.465336001210646,9.153046540047784,10.218236553344424,5.8246659800304075,3.3742154220260585
0.22,8.29018779616245,11.23056616150228,9.119206575778694,13.052163132826315,5.8031314573137145,5.054071477590808
0.221,8.25912836303783,10.799015745298586,9.085041199341614,15.376018866608037,5.7813898541264805,9.583608985110859
0.222,8.227777599480001,15.57560733167751,9.050555359428003,13.668815131188621,5.759444319636001,9.74456112375283
0.223,8.196140020013551,11.50471312882417,9.015754022014907,9.752904462165972,5.737298014009486,7.411704359338982
0.224,8.164220154386934,10.621413270700225,8.980642169825629,5.000269611593914,5.714954108070853,6.261056333467032
0.225,8.13202254708104,3.0398084314500187,8.945224801789143,4.8808179956953754,5.6924157829567275,3.0528398270347608
0.226,8.099551756816574,6.062262141617179,8.909506932498232,1.8889509375752231,5.669686229771601,2.36193192056243
0.227,8.066812356060401,3.531451277378223,8.873493591666442,6.560230910272079,5.64676864924228,3.8540399833338648
0.228,8.033808930530784,1.6014378299940502,8.837189823583863,10.349288074986557,5.6236662513715485,5.058690263604988
0.229,8.000546078701703,3.9133819203920774,8.800600686571874,9.988250392939346,5.6003822550911915,7.488094972564453
0.23,7.967028411306167,12.588063287666593,8.763731252436784,13.726695377427092,5.5769198879143165,8.310549924721084
0.231,7.933260550838723,13.282973217046134,8.726586605922595,12.45550653226889,5.553282385587106,10.179542240612145
0.232,7.899247131057032,14.58891685776205,8.689171844162736,11.943263382895463,5.529472991739922,10.707950186901812
0.233,7.86499279648276,10.058168206662593,8.651492076131037,6.462564470380335,5.505494957537931,4.860805041865024
0.234,7.830502201901646,3.9707523309860626,8.61355242209181,4.3959039570180085,5.4813515413311515,3.876004527895756
0.235,7.795780011862973,-0.9643680436767506,8.575358013049271,2.698221369600472,5.457046008304081,3.573344814789144
0.236,7.760830900178323,1.2839691098308008,8.536913990196156,3.53075240755105,5.432581630124826,2.858199817800129
0.237,7.725659549419841,5.319435409709099,8.498225504361825,6.493673056785028,5.4079616845938885,4.814223743864997
0.238,7.690270650417884,6.572702551129568,8.459297715459673,10.364454430095138,5.383189455292518,2.103039962560956
0.239,7.654668901758282,8.278419120357528,8.420135791934111,10.860443476542818,5.358268231230797,4.817127857007652
0.24,7.61885900927909,12.824313398166053,8.380744910207,17.08719434741148,5.333201306495362,5.98335220664489
0.241,7.582845685567045,11.982225887833529,8.34113025412375,10.26647621375217,5.307991979896931,10.048261116480896
0.242,7.54663364945363,11.487159540328863,8.301297014398994,13.003015525866608,5.2826435546175405,3.3842652513313807
0.243,7.510227625510939,7.464792120289596,8.261250388062033,6.347274739118082,5.257159337857657,5.918033491838047
0.244,7.47363234354725,4.69630588339539,8.220995577901975,4.55176526351775,5.231542640483075,0.6204108077312072
0.245,7.436852538102515,2.35755324598846,8.180537791912768,0.813026491355114,5.20579677667176,0.38489814664406596
0.246,7.3998929479436475,4.851831423452339,8.139882242738013,6.0698809602732275,5.179925063560553,5.599541970829046
0.247,7.3627583155598275,8.187297726767817,8.09903414711581,6.779182998978894,5.153930820891879,4.90648929053222
0.248,7.3254533866577285,8.72599206066048,8.057998725323502,10.760903966036134,5.127817370660409,5.27755002171165
0.249,7.287982909656843,9.688399953860293,8.016781200622528,14.901390421500281,5.1015880367597894,7.641067649816497
0.25,7.2503516351848445,11.17522162839975,7.97538679870333,8.800011919099708,5.075246144629391,8.916984873501855
0.251,7.212564315573152,9.012217599984613,7.933820747130468,14.341961308605272,5.048795020901206,8.756965948910672
0.252,7.174625704352627,11.593281607343206,7.89208827478789,16.80506924310953,5.022237993046838,8.631876880855431
0.253,7.136540555749578,5.955214947451685,7.850194611324537,8.697699639984622,4.995578389024704,-0.9940414111971223
0.254,7.098313624182009,1.268964520238917,7.808144986600211,3.040375640891787,4.968819536927406,-1.5324171849156598
0.255,7.059949663756272,2.1120142689896024,7.7659446301319,-0.37618976017586947,4.94196476462939,-1.0435959376405943
0.256,7.0214534277640634,3.641150671704864,7.7235987705404705,3.10749320565603,4.915017399434844,5.817628758364689
0.257,6.982829668179929,11.141187416660504,7.681112634997922,8.30120488131326,4.88798076772595,7.078999175515394
0.258,6.944083135159224,9.81851581269052,7.638491448675147,8.432688947398258,4.860858194611457,5.726612861823121
0.259,6.905218576536675,13.436531533409665,7.595740434190343,6.475985481125106,4.833653003575672,6.136724914569562
0.26,6.866240737325496,8.481767576051261,7.552864811058046,9.891276207579931,4.806368516127847,6.587193356604935
0.261,6.827154359217225,10.285499748462703,7.509869795138948,17.807629224659756,4.779008051452057,9.28277997931504
0.262,6.7879641800821995,7.292815968114319,7.46676059809042,9.01248823263949,4.75157492605754,3.2966955989195323
0.263,6.748674933470865,6.804223593548589,7.423542426817953,-1.28966646822676,4.7240724534296055,3.5901128897501673
0.264,6.709291348115822,-4.526266937127219,7.380220482927404,4.804768716687368,4.696503943681075,3.050724680748858
0.265,6.6698181474348015,3.8885166016552515,7.336799962178282,0.47638590467767306,4.668872703204361,1.946466879361096
0.266,6.630260049034488,7.600141057833007,7.293286053937938,12.065176101234652,4.6411820343241414,5.116418208073763
0.267,6.59062176421538,13.256798452615364,7.249683940636919,13.580681662017458,4.613435234950766,7.216091137633713
0.268,6.550907997477579,10.491947765226348,7.205998797225337,4.048897106328738,4.5856355982343056,6.880579365780381
0.269,6.5111234460277165,7.61346724210606,7.162235790630489,6.1645144013356745,4.557786412219401,4.809536947933264
0.27,6.471272799286959,16.54569589229243,7.118400079215656,11.650504865082722,4.529890959500871,7.8095953423949105
0.271,6.431360738400166,10.52874600709358,7.074496812240183,11.712395373983496,4.501952516880116,5.973443394946845
0.272,6.391391935746305,9.32457609217722,7.030531129320936,7.984509875008336,4.473974355022413,3.2887070302500123
0.273,6.351371054450077,0.9340559933887715,6.986508159895085,3.7670573550528426,4.445959738115054,0.9596268260443279
0.274,6.311302747894917,2.2905891449142777,6.942433022684409,-1.766266186252925,4.417911923526441,0.8874936533862379
0.275,6.271191659237288,3.833711080767144,6.898310825161017,-2.9667138241790827,4.389834161466101,1.8430836793364573
0.276,6.23104242092246,9.605497208517086,6.854146663014706,5.0211969489259545,4.361729694645722,4.847518547542887
0.277,6.1908596542016845,8.954558830398025,6.809945619621853,4.128191946716245,4.333601757941179,7.6091295967449355
0.278,6.150647968650945,13.449628112066515,6.7657127655160405,8.646228266547551,4.305453578055661,7.373981206264971
0.279,6.110411961691203,10.568881035388308,6.721453157860324,12.083817956020898,4.277288373183842,7.47010223150317
0.28,6.070156218110315,4.086453956738722,6.677171839921346,12.127960714017721,4.24910935267722,7.374834988200815
0.281,6.029885309586552,11.064745631427485,6.632873840545208,5.640117065103124,4.220919716710586,6.648550429279787
0.282,5.989603794213879,6.3402026140452765,6.588564173635268,5.055902406715678,4.192722655949716,1.9359360340112794
0.283,5.94931621602894,1.146364795931992,6.5442478376318345,-3.195362494839997,4.164521351220258,2.2996032594751523
0.284,5.9090271045398755,0.683857842816195,6.499929814993863,2.505462547680635,4.136318973177913,-0.4435526515267937
0.285,5.868740974256994,2.369202755326348,6.455615071682694,1.459706137464682,4.108118681979896,1.0205405885418333
0.286,5.82846232422531,10.457474185032746,6.411308556647842,8.186774128726647,4.079923626957717,5.218701445003619
0.287,5.788195637559081,14.269457566030336,6.36701520131499,14.660200533326655,4.051736946291356,6.923981984718015
0.288,5.7479453809782655,12.49729668034185,6.322739919076093,11.1868553792001,4.023561766684786,9.72415769195069
0.289,5.707716004347111,10.409769205881616,6.278487604781822,10.967328710561704,3.9954012030429773,7.04172605075677
0.29,5.667511940214732,6.278947663753676,6.234263134236206,6.897983761244952,3.9672583581503122,7.042618531944367
0.291,5.627337603357918,3.914060759614738,6.19007136369371,7.447008883552522,3.9391363223505422,5.853182888330448
0.292,5.5871973903260335,3.230851222910544,6.145917129358637,3.768908454544801,3.9110381732282233,1.8970180795720648
0.293,5.547095678988222,1.1880921217940674,6.101805246887045,3.393416792803341,3.882966975291755,1.134302496808942
0.294,5.507036828082819,-1.1543181327573189,6.057740510891101,-1.833444175552723,3.8549257796579726,-2.7257880485702
0.295,5.467025176769138,4.752347925644781,6.013727694446052,6.473489763043446,3.826917623738396,0.8464151131538393
0.296,5.427065044181566,10.886416168110326,5.969771548599723,9.623729343398336,3.798945530927096,3.2858850975114624
0.297,5.387160728986127,13.713191930813002,5.9258768018847405,13.598453551194297,3.771012510290289,5.594964725992529
0.298,5.347316508939439,8.190809655524728,5.882048159833384,8.55697166645368,3.743121556257607,4.759070255235132
0.299,5.307536640450233,2.3355026804895287,5.838290304495257,11.499860011096064,3.715275648315163,3.253647015360053
0.3,5.267825358143346,5.500054468628539,5.794607893957681,6.702804526424418,3.6874777507003422,2.1479412508297178
0.301,5.228186874426374,2.9961638300456883,5.751005561869012,0.8094211283544936,3.6597308120984615,1.3965171559425138
0.302,5.188625379058888,2.18158621260944,5.707487916964777,5.838816276758024,3.6320377653412215,-0.025481109398827417
0.303,5.149145038724393,-0.25617433030711223,5.664059542596833,7.209182511286524,3.604401527107075,2.559286234535007
0.304,5.109749996604938,6.302077311660221,5.620724996265432,0.21975075081817508,3.5768249976234565,1.168308460223226
0.305,5.070444371958542,5.4069517472474855,5.5774888091543975,5.084950571353764,3.549311060370979,5.3579225280483485
0.306,5.03123225969939,16.07908545429999,5.534355485669329,17.212056988268568,3.521862581789573,6.507964441656955
0.307,4.9921177299809045,15.04068022886386,5.491329502978996,13.30195141368137,3.494482410986633,7.093884003107243
0.308,4.953104827781667,13.017812573008936,5.448415310559834,14.783149992711653,3.467173379447167,8.629186291475254
0.309,4.914197572494326,5.4875630367815,5.40561732974376,8.522605818397508,3.4399383007460282,5.823573565394952
0.31,4.875399957517412,0.8708587192507915,5.362939953269153,3.6314958666778763,3.412779970262188,2.355783920665156
0.311,4.836715949850232,3.7409988429428815,5.320387544835255,3.9385057575399998,3.3857011648951625,1.132961582430013
0.312,4.798149489690758,2.0378688640042313,5.277964438659834,6.086293489190801,3.3587046427835303,3.623511448489067
0.313,4.759704490036671,-1.040223705403894,5.235674939040338,3.0971784830537707,3.3317931430256693,2.053413076330188
0.314,4.721384836289494,3.146611070386787,5.193523319918444,0.055619080832184586,3.3049693854026456,0.20643569254380012
0.315,4.683194385861908,7.021346005083588,5.1515138244481,5.854740439346719,3.2782360701033353,1.8575992895472186
0.316,4.645136967788326,5.415289897379675,5.109650664567159,14.042136300441049,3.251595877451828,9.031525796453876
0.317,4.6072163823386525,11.838396323846014,5.067938020572518,17.404808279111904,3.2250514676370567,2.759255661667778
0.318,4.569436400635408,9.490296394939445,5.02638004069895,10.61605220347311,3.1986054804447854,4.669892638057581
0.319,4.5318007642741245,-0.7560119459114216,4.984980840701537,10.16710902600903,3.172260534991887,1.2038357375630826
0.32,4.494313184947167,6.0412240831919695,4.943744503441884,0.9712651467091542,3.1460192294630165,-0.5053599459765861
0.321,4.456977344070912,5.026254745093018,4.902675078478004,4.504378837042717,3.1198841408496385,-0.3964069379293895
0.322,4.419796892416423,-1.9822356548407116,4.861776581658066,3.8867881786118783,3.0938578246914963,1.355087083018816
0.323,4.382775449743562,1.8634799107373283,4.821052994717919,9.264590312460665,3.0679428148204932,3.6516846812773176
0.324,4.345916604438667,2.3965253720336017,4.780508264882534,5.86490244140337,3.042141623107067,1.6300190809957635
0.325,4.309223913155743,5.0437222684629415,4.740146304471318,12.590072796356782,3.01645673920902,8.278027409446466
0.326,4.2727009004612935,12.263930897601691,4.699970990507423,12.628584194601144,2.9908906303229053,7.429577951313657
0.327,4.236351058482729,11.463565283017374,4.659986164331002,10.548943709066378,2.96544574093791,5.688060991191263
0.328,4.200177846560496,4.5426601808255,4.620195631216546,12.277136953734082,2.9401244925923473,3.2385456866340983
0.329,4.164184690903849,-0.5316695030462317,4.580603159994235,1.4881019094354966,2.9149292836326945,0.19318815040120307
0.33,4.128374984250415,-0.8979963835392359,4.541212482675458,-0.15466250402309223,2.8898624889752904,-1.3287006533870436
0.331,4.092752085529465,0.9677747347414096,4.502027294082412,-2.595960034930742,2.8649264598706257,-1.9391789037317972
0.332,4.057319319529055,-0.5311902519215423,4.463051251481962,4.130562838773824,2.8401235236703384,1.9151791320407208
0.333,4.022079976566935,2.4444256383932235,4.4242879742236285,-1.2440213401651898,2.8154559835968542,2.450495586797838
0.334,3.987037312165387,5.118830577616536,4.385741043381926,0.7979895839721562,2.7909261185157708,2.487704476240437
0.335,3.9521945467299187,8.940612378617095,4.347414001402911,10.954476085605517,2.7665361827109427,3.033180245110886
0.336,3.917554865231928,9.97735788707667,4.309310351755121,10.605350372633158,2.7422884056623493,5.737608568079849
0.337,3.883121416895297,8.511172213225976,4.271433558584827,8.255664782222103,2.718184991826708,6.123205035188458
0.338,3.848897314887025,2.786679258088725,4.233787046375728,0.7298104425203906,2.694228120420917,0.45958450058750744
0.339,3.8148856360118426,-1.887263355105182,4.196374199613027,0.7262216689360106,2.6704199452082897,-2.7127897283949394
0.34,3.781089420410936,-1.4407225148386609,4.15919836245203,0.7576907338402323,2.646762594287655,-1.4222186541780553
0.341,3.7475116712647107,0.9248505308980186,4.122262838391182,2.2849576932676454,2.6232581698852973,-2.010353492905776
0.342,3.7141553544997175,4.527622560963357,4.08557088994969,-0.8820187834001239,2.599908748149802,3.845892326437538
0.343,3.6810233984996916,3.3952759785514632,4.0491257383496615,8.870442491584264,2.576716378949784,4.0157272816032
0.344,3.6481186938207983,8.11173893142907,4.012930563202879,7.958917274293258,2.5536830856745585,7.098156452739939
0.345,3.615444092911062,5.089237919280518,3.9769885022021687,7.950169836041418,2.5308108650377434,4.090106447044518
0.346,3.5830024098340374,11.943792794728685,3.9413026508174416,11.407440473499769,2.508101686883826,6.066548416105382
0.347,3.5507964199967583,7.334488137525391,3.9058760619964343,5.752286361777252,2.4855574939977307,7.04827296536054
0.348,3.5188288598819355,-0.3164272160840289,3.8707117458701292,4.65465808718028,2.4631802019173548,3.4579160945859484
0.349,3.48710242678452,-5.06918174109248,3.835812669462972,-3.0872532747669625,2.4409716987491636,-3.677204821369226
0.35,3.4556197785525606,-1.4581755517488493,3.801181756407817,-1.1002186099764786,2.418933844986792,1.248055773467215
0.351,3.4243835333324704,0.1137013075452799,3.7668218866657175,0.7023544320723558,2.397068473332729,-0.932919794211369
0.352,3.3933962693186492,3.167952848084711,3.7327358962505146,3.653493834965654,2.3753773885230545,4.97031600808157
0.353,3.3626605245075565,3.5491684057574204,3.6989265769583124,5.901113473293859,2.353862367155289,3.1483783384155934
0.354,3.3321787964562013,3.9640164197197603,3.6653966761018215,7.4226420919977825,2.3325251575193406,5.4018072955801655
0.355,3.30195354204512,6.620434626396927,3.632148896249632,3.3624333959914146,2.311367479431584,1.2230698076918425
0.356,3.271987177245819,6.900651946558549,3.599185894970401,10.620391879663009,2.2903910240720733,12.356187865259873
0.357,3.242282076892762,3.1313570335757523,3.5665102845820384,0.7752692703431272,2.2695974538249333,3.9158961820694738
0.358,3.2128405744598574,-3.861165032618207,3.5341246319058435,0.06773629584074609,2.2489884021219,3.0195435352674114
0.359,3.18366496184154,-4.401756704855762,3.5020314580256944,0.3182407681845558,2.228565473289078,-1.526071968446558
0.36,3.154757489138409,-1.0635691554758184,3.4702332380522503,-2.129181050280323,2.2083302423968862,-0.5505157350012386
0.361,3.126120364447458,4.729032579280282,3.438732400892204,1.3537806203616638,2.1882842551132207,3.381074053334414
0.362,3.0977557536569647,1.5941170895167422,3.407531329022661,5.360172398478664,2.168429027559875,7.272131790399292
0.363,3.069665780245983,6.696070779215261,3.3766323582705815,5.395539152378291,2.148766046172188,5.010911801646996
0.364,3.041852525088518,8.241041012900531,3.34603777759737,13.68992926896467,2.1292967675619625,7.947542195843461
0.365,3.014318026262373,8.185359437698407,3.3157498288886105,4.625657661331742,2.110022618383661,5.179972689547981
0.366,2.987064278862709,7.180179643071113,3.28577070674898,4.771593248890122,2.090944995203896,5.910243970658014
0.367,2.9600932348203015,2.8152485317171108,3.2561025583023318,0.18214539871135216,2.072065264374211,3.321233811276596
0.368,2.933406802724554,-2.4415682462012693,3.22674748299701,3.6138186243424046,2.053384761907188,-0.016305509367239124
0.369,2.9070068476512523,-2.2567825733970404,3.197707532416378,-4.964695411967928,2.0349047933558766,-2.884248343479128
0.37,2.880895190995096,-1.3585599990860056,3.168984710094606,-1.1551026987487063,2.0166266336965673,-2.03621003494774
0.371,2.8550736103070076,2.133232664737895,3.1405809713377084,3.3658657997506634,1.9985515272149053,1.3261607155834714
0.372,2.829543839136263,10.905529022609674,3.112498223049889,7.689892359058758,1.980680687395384,5.836968173154648
0.373,2.804307566877406,9.635416242065649,3.084738323565147,7.275221264815444,1.963015296814184,6.952382304235288
0.374,2.779366438622046,7.091813035202861,3.0573030824842506,6.243532633448605,1.945556507035432,0.43749038930274775
0.375,2.7547220550154448,7.4777599435523365,3.0301942605169896,8.107485042033048,1.9283054385108112,2.7527023418245387
0.376,2.7303759721180167,6.681156783228155,3.0034135693298185,4.071292577345421,1.9112631804826117,-0.006897690433432135
0.377,2.7063297012716676,2.260017798780567,2.9769626713988346,0.3251261359237292,1.8944307908901672,1.9296774953731706
0.378,2.6825847089710386,-2.986625400542165,2.950843179868143,1.9122243929261948,1.8778092962797268,-3.217148988543338
0.379,2.659142416739649,0.47235640351236485,2.9250566584136144,-1.6986533688423293,1.8613996917177542,-4.140453776313047
0.38,2.63600420101094,0.3674309606739402,2.8996046211120343,-6.379136190195152,1.845202940707658,-0.7665569576675937
0.381,2.613171393014259,8.364551622361386,2.874488532315685,4.364623890610499,1.8292199751099811,0.7635478309661292
0.382,2.59064527866576,11.644712705451731,2.8497098065323363,9.13425243123504,1.813451695066032,7.337474439149339
0.383,2.568427098464264,5.9075892734819835,2.825269808310691,13.569074039061597,1.7978989689249847,6.882486777071559
0.384,2.5465180473920634,8.925405527079715,2.8011698521312702,7.373534328800806,1.7825626331744442,3.7118023703550227
0.385,2.524919274820694,9.485540220757073,2.7774112023027637,3.3266236939083687,1.7674434923744855,4.400308277508551
0.386,2.503631884421682,3.2558012850462252,2.7539950728638507,0.5459303770778754,1.7525423190951772,1.660659321558118
0.387,2.4826569340822626,2.125538739385644,2.730922627490489,1.047868720066255,1.7378598538575838,0.7661476045990663
0.388,2.4619954358261067,0.49973704433508503,2.7081949794087175,-0.21567927740900528,1.7233968050782746,3.06218055469132
0.389,2.4416483557390185,-7.272532104163179,2.6858131913129206,0.3659977615901058,1.7091538490173128,-2.9882717939597074
0.39,2.4216166138996558,-5.833728131102939,2.6637782752896215,-4.51336278246539,1.695131629729759,-0.27352808322672273
0.391,2.401901084315253,3.816046082374406,2.6420911927467787,5.282295017006521,1.681330759020677,4.598220343861629
0.392,2.382502594862352,3.483636839228527,2.6207528543485874,7.081133712713196,1.6677518164036462,10.752362182500327
0.393,2.3634219272325687,9.889844180968112,2.5997641199558257,7.2672666054614385,1.654395349062798,4.163231994589416
0.394,2.3446598168833717,5.579300415353021,2.579125798571709,2.015677235700049,1.64126187181836,2.311233844344428
0.395,2.326216952993895,4.472922344595909,2.5588386482932846,-2.2300617717933355,1.6283518670957264,2.2586157365716852
0.396,2.308093978425778,0.03424822755821938,2.538903376268356,2.008249543157696,1.6156657848980447,0.045490504444517854
0.397,2.2902914896890554,1.9354827738603615,2.519320638657961,-1.2634424814856187,1.6032040427823386,0.5934796756871643
0.398,2.2728100369130715,-1.9214294147217463,2.500091040604379,0.672318330695727,1.59096702583915,2.6230925310710633
0.399,2.2556501238224396,-0.7540929259260716,2.4812151362046837,-1.3265638775060835,1.5789550866757076,-0.9360505703778315
0.4,2.2388122077180492,7.151304743252019,2.4626934284898545,6.7804484878079245,1.5671685454026343,1.4794104927323415
0.401,2.222296699463114,3.7243450574147516,2.444526369409426,11.794943497700139,1.5556076896241797,8.860392317818203
0.402,2.2061039634742547,14.126039550405967,2.4267143598216805,16.962408003714064,1.5442727744319782,6.848590212618818
0.403,2.1902343177176444,3.3199824201896355,2.409257749489409,6.741227697479685,1.533164022402351,6.600320295755547
0.404,2.174688033710181,3.8663337422280204,2.3921568370811994,7.918010547140183,1.5222816235971266,-0.31049490711783356
0.405,2.159465336525713,2.414893840534451,2.3754118701782847,1.3212857051673585,1.511625735567999,1.7741646071761548
0.406,2.1445664048063042,-1.2063669468942524,2.3590230452869347,0.8465989813058039,1.501196483364413,0.31525286914520245
0.407,2.129991370778531,0.11142677674380397,2.3429905078563844,-1.5020014669687511,1.4909939595449715,-3.0290026838974504
0.408,2.1157403202748313,-1.115828951545708,2.3273143523023148,-2.0958959055566138,1.4810182241923817,-1.3609231892677518
0.409,2.1018132927598687,-0.17484472088030767,2.3119946220358556,-3.2491044460393548,1.471269304931908,0.4253724459042765
0.41,2.088210281361948,0.8887358813660008,2.297031309498143,5.072632541964179,1.4617471969533635,0.024968580014121278
0.411,2.074931232909436,4.5320759569797735,2.2824243562003796,4.410442841426957,1.4524518630366052,3.105603677165168
0.412,2.061976047972218,8.465744755682575,2.26817365276944,8.390166471241601,1.4433832335805523,7.021399961315256
0.413,2.0493445809081665,4.506642392446924,2.2542790389989835,7.494089830467445,1.4345412066357164,3.2224589211634522
0.414,2.037036639914625,1.0331784144652187,2.2407403039060876,-0.48201143252713663,1.4259256479402374,1.5385984500818566
0.415,2.0250519870848827,-2.3128874520673044,2.227557185793371,0.22883105670423243,1.4175363909594179,0.625670864889543
0.416,2.0133903384696703,-0.8705972167414596,2.2147293723166377,-3.388362537584853,1.409373236928769,-2.8767528670783378
0.417,2.0020513641436244,-1.976411549690622,2.202256500557987,-1.5202936034209111,1.401435954900537,-2.02719526844857
0.418,1.9910346882767485,-0.8938470222485053,2.1901381571044234,3.2465702712806848,1.3937242817937239,0.6167283639493897
0.419,1.9803398892108435,-1.21647924719216,2.178373878131928,0.3596845879432333,1.3862379224475903,-0.43250654419714496
0.42,1.969966499540913,5.0614625479126705,2.1669631494950043,8.180573545465323,1.378976549678639,3.2167291093276607
0.421,1.9599140062015126,6.207861373804382,2.155905406821664,11.371121401307416,1.3719398043410587,6.654470773986564
0.422,1.9501818505580548,9.883903349370113,2.1452000356138603,15.949827270845802,1.3651272953906384,7.720242682952832
0.423,1.9407694285030574,8.09691322713665,2.134846371353363,4.804427201219498,1.3585385999521402,3.305205100662806
0.424,1.9316760905572998,4.329045369523556,2.12484369961303,-0.13033515951735108,1.3521732633901098,3.4711328510093002
0.425,1.9229011419759177,-3.045502062630708,2.11519125617351,-1.7304571029303841,1.3460307993831422,2.8333906810050276
0.426,1.9144438428593826,3.9780268548516187,2.105888227145321,-2.872533452731101,1.3401106900015678,-2.918946502335854
0.427,1.9063034082693822,0.4024385598097624,2.0969337490963205,0.5511549096780366,1.3344123857885675,3.9282271190034743
0.428,1.898479008349577,0.06631447916899891,2.088326909184535,0.8359778002624548,1.3289353058447038,-0.9924525473237558
0.429,1.8909697684512272,5.373479393781343,2.08006674529635,-1.7654691157300975,1.323678837915859,-2.1560982854014217
0.43,1.883774769263657,0.8015332790130492,2.072152246190023,2.9422458784384844,1.3186423384845598,2.795582308315466
0.431,1.8768930469495766,6.081474700085864,2.0645823516445345,12.932861421263159,1.3138251328647035,5.867879183841767
0.432,1.8703235932852076,5.38673923880717,2.0573559526137286,7.072387706158688,1.3092265152996452,4.012044398806806
0.433,1.864065355805229,-0.6592257058767261,2.050471891385752,5.227930349898694,1.3048457490636602,1.749777404611057
0.434,1.858117237952511,0.1473141337598718,2.0439289617477625,-2.511650249469006,1.3006820665667576,0.03680084709770881
0.435,1.85247809923262,-3.418706776807354,2.037725909155882,-4.79454950478404,1.2967346694628339,-5.400780197069638
0.436,1.8471467553730863,-0.7245288767008331,2.031861430910395,1.9480751357344195,1.2930027287611603,-1.5581995347612951
0.437,1.842121978487417,2.2076726401104807,2.026334176336159,3.086551354887243,1.2894853849411918,-1.4516039139889707
0.438,1.8374024972438239,-1.7236147111887585,2.0211427469682066,1.4070797045661347,1.2861817480706765,1.1698848498002934
0.439,1.8329869970386614,7.1118684057220936,2.0162856967425276,5.7814903291433986,1.283090897927063,5.978901383790744
0.44,1.8288741201745573,4.38165826909217,2.011761532192013,8.366522070778112,1.2802118841221901,4.976299833236636
0.441,1.8250624660431978,10.540564671027491,2.007568712647518,13.836644496618327,1.2775437262302383,9.93010770935346
0.442,1.821550591312775,3.998626420384743,2.0037056504440525,2.4786114092590408,1.2750854139189425,4.093235568822488
0.443,1.8183370101200547,3.5607887265550553,2.00017071113206,6.085185627483314,1.2728359070840383,3.9932565538281946
0.444,1.8154201942670474,-4.423941532472114,1.9969622136937524,-3.4611043685129417,1.270794135986933,-0.10403249586739771
0.445,1.8127985734222793,-4.186454034173752,1.9940784307645074,0.8472613076497222,1.2689590013955954,-6.0449115843384975
0.446,1.8104705353266182,-2.8705523805390962,1.9915175888592802,2.057246483544923,1.2673293747286327,-2.164952105097342
0.447,1.8084344260036413,1.5237458128454728,1.9892778686040056,6.254370967715264,1.265904098202549,3.817823354212711
0.448,1.806688549974532,1.908093597108735,1.9873574049719853,2.1082155687051647,1.2646819849821722,3.1235437227788796
0.449,1.8052311704774624,1.6096149664829151,1.9857542875252088,0.10704256922805655,1.2636618193342235,1.3005139507587222
0.45,1.8040605096914613,7.081090712495239,1.9844665606606076,4.824330142385701,1.2628423567840228,0.6443625723354458
0.451,1.803174748964727,8.270811259712037,1.9834922238611998,3.344920272438623,1.2622223242753088,0.8501076471008999
0.452,1.8025720290473677,8.917614331217791,1.9828292319521046,3.719620553497208,1.2618004203331572,4.735053110422556
0.453,1.8022504503285388,0.12466942306454498,1.9824754953613928,-4.198827344904597,1.2615753152299771,-1.5446779698806414
0.454,1.8022080730779644,-4.2116333212995345,1.982428880385761,-6.196829936808085,1.261545651154575,0.6667392930910694
0.455,1.8024429176918,-4.112125001504551,1.9826872094609802,-1.4720604682899285,1.26171004238426,-0.726858447597895
0.456,1.802952964942829,-2.2312549950485354,1.983248261437112,-0.4870158840465241,1.2620670754599803,-4.556832933841638
0.457,1.80373615623495,0.6613470944136455,1.9841097718584453,0.3477272516769325,1.262615309364465,3.575163747566446
0.458,1.8047903938619356,4.582947616535677,1.9852694332481293,6.9821973813601055,1.2633532757033548,3.0030968647562197
0.459,1.8061135412704337,4.27678076944757,1.9867248953974772,3.8745781674560815,1.2642794788893035,3.741527604555927
0.46,1.8077034233271956,7.750414093550374,1.9884737656599154,9.038310148424191,1.2653923963290368,3.9617575768539877
0.461,1.8095578265904706,8.140851691340856,1.990513609249518,8.622359681537402,1.2666904786133293,3.115179296287959
0.462,1.8116744995855782,-0.8052087115232318,1.9928419495441363,5.458318827351127,1.2681721497099048,2.7796495644122805
0.463,1.814051153084601,-2.7104287670058396,1.9954562683930614,3.6523484676351416,1.2698358071592206,-3.0491761832139903
0.464,1.816685460390171,-3.582144242546528,1.9983540064291883,-5.929621900830701,1.2716798222731196,-2.0210923215563263
0.465,1.8195750576233425,-3.948272514821279,2.001532563385677,0.37839773874261784,1.2737025403363396,-6.438666019453647
0.466,1.8227175440154886,-0.8147060658683709,2.0049892984170374,0.460997338308907,1.275902280810842,-1.1790720869789932
0.467,1.826110482204212,3.3751208324274518,2.0087215304246335,5.885633316947305,1.2782773375429484,1.845795024860781
0.468,1.8297513985332339,6.291788281454536,2.0127265383865574,-0.5544205905403174,1.2808259789732637,5.943307015919061
0.469,1.833637783356227,5.968731889073405,2.01700156169185,4.1598835701433385,1.2835464483493588,0.763466692121832
0.47,1.837767091344562,0.4607291411757237,2.0215438004790185,2.6477105292228162,1.2864369639411934,2.9541473956958493
0.471,1.842136741798937,-0.995669024491276,2.026350415978831,-0.6049977873664778,1.2894957192592558,3.195181588629185
0.472,1.846744118964848,1.6355330681791482,2.031418530861333,-2.0256216238103435,1.2927208832753934,2.1439039579549486
0.473,1.851586572351887,0.2617893790539194,2.036745229587076,0.21766328874258,1.2961106006463208,-1.9654807600980728
0.474,1.8566614170568054,-4.9037587094642685,2.0423275587624863,-3.694836521297017,1.2996629919397638,-2.1846529354290816
0.475,1.8619659340903398,3.2997070212090724,2.048162527499374,-2.169475663176782,1.3033761538632378,0.512681341574049
0.476,1.867497370707739,4.7243891204956485,2.054247107778513,7.854362012111386,1.307248159495417,0.24653556238293106
0.477,1.8732529407429737,6.271171760419238,2.060578234817271,8.409633777902542,1.3112770585200815,4.174227771521395
0.478,1.8792298249465933,4.129439013731462,2.0671528074412526,11.661832121969693,1.3154608774626153,5.590675382562804
0.479,1.8854251713271757,8.164831927493195,2.073967688459893,6.344455125057952,1.319797619929023,2.529264418307267
0.48,1.8918360954963678,2.3487695600687335,2.0810197050460046,1.5149159641030785,1.3242852668474574,5.044951214572183
0.481,1.8984596810174428,1.6244977905418285,2.0883056491191874,1.530187801980842,1.32892177671221,0.9475732556483757
0.482,1.9052929797573674,-0.8589664820573084,2.095822277733104,1.2231133450786218,1.3337050858301571,-0.4875576667793352
0.483,1.9123330122423248,-5.071846662435105,2.1035663134665574,-8.364161298635317,1.3386331085696273,-3.9525185009119763
0.484,1.9195767680166638,-5.225759098932595,2.1115344448183304,-5.346042929964266,1.3437037376116645,-2.6792381013052826
0.485,1.9270212060052332,-3.3041777859842485,2.1197233266057567,-2.6005242759745575,1.3489148442036631,-0.8770802129764617
0.486,1.9346632548790637,0.9466399766266607,2.12812958036697,-0.3249403556547761,1.3542642784153445,-0.5501375292466275
0.487,1.9424998134243556,5.3615796792225145,2.1367497947667915,2.903604873557828,1.359749869397049,5.352453842713238
0.488,1.9505277509147518,11.536391731022697,2.1455805260062273,8.261964055718817,1.3653694256403262,5.80922888902457
0.489,1.9587439074868187,6.001561166527296,2.154618298235501,3.902922232618273,1.371120735240773,2.972727207129635
0.49,1.967145094518746,1.5151461821591308,2.163859603970621,4.32315715392581,1.377001566163122,-0.8516971163650975
0.491,1.9757280950121707,-3.8311134858285225,2.173300904513388,0.4419399766371459,1.3830096665085194,-0.5804818481459972
0.492,1.9844896639771443,0.9924555293371193,2.182938630374859,-6.919874547553683,1.389142764784001,-3.523823167665097
0.493,1.9934265288201418,3.0069860094470284,2.192769181702156,-2.4179843778361216,1.3953985701740992,-4.369798191154219
0.494,2.0025353897351255,2.059612227258713,2.2027889287086384,-0.9015594159511018,1.4017747728145877,-0.780340688494392
0.495,2.0118129200975825,0.23912133494194654,2.212994212107341,-3.2025802112298103,1.4082690440683077,2.141965827722222
0.496,2.0212557668615254,6.845011030501491,2.223381343547678,1.9218736201074096,1.4148790368030677,2.7994729214047247
0.497,2.0308605509593827,6.689494894823111,2.233946606055321,12.177883894046634,1.4216023856715678,6.76990653174897
0.498,2.0406238677047766,9.284714622989602,2.2446862544752544,12.361301586200238,1.4284367073933435,4.218174332423111
0.499,2.0505422871980974,6.2851072817766624,2.255596515917907,3.849446377420239,1.4353796010386681,2.5648159505131227
0.5,2.0606123547348876,2.0351186284057112,2.2666735902083763,1.8125237415720163,1.4424286483144213,1.1255793785822936
0.501,2.0708305912169314,2.110872049958294,2.2779136503386246,-3.4639144221340747,1.449581413851852,0.26546000128736613
0.502,2.0811934935660705,0.010803420627843341,2.2893128429226777,-2.951863999453526,1.4568354454962493,-1.9106494224457644
0.503,2.0916975351406473,-7.029969992142006,2.3008672886547124,-1.6014356354544865,1.464188274598453,-0.3125470038530489
0.504,2.1023391661545654,-3.659156993900644,2.312573082770022,-2.466485069451725,1.4716374163081958,-3.6862661893237147
0.505,2.1131148140989167,2.618372110269587,2.3244262955088084,1.040784918909068,1.4791803698692416,2.738318419335432
0.506,2.1240208841661135,0.610839847900154,2.336422972582725,6.002517105408419,1.4868146189162794,1.6420944802526223
0.507,2.1350537596765173,7.588085394769324,2.348559135644169,13.943298951039932,1.4945376317735621,5.974573643973778
0.508,2.146209802507475,4.7339295715037855,2.3608307827582227,-1.9826641660946738,1.5023468617552325,1.1825243171319926
0.509,2.1574853535247573,-1.7450114070050593,2.373233888877233,3.59667283030945,1.5102397474673301,-1.2869095998331006
0.51,2.1688767330163254,0.3978782338553011,2.3857644063179584,-2.991612069561021,1.5182137131114277,-4.165558587026282
0.511,2.180380241128406,-4.489529592892523,2.398418265241247,-4.640589967383217,1.5262661687898842,-3.805250459249984
0.512,2.191992158303792,3.9010981373521494,2.4111913741341713,-0.11965525796541199,1.5343945108126542,1.1579351294899414
0.513,2.203708745722372,-1.6451698046839887,2.4240796202946093,-0.03612211586990277,1.5425961220056603,-0.8331011587434739
