time,roll_setpoint,gyro_roll,pitch_setpoint,gyro_pitch,yaw_setpoint,gyro_yaw
0.0,3.221088436188455,4.333667382967244,3.543197279807301,-0.9377654885532318,2.2547619053319186,2.859368075264401
0.001,3.299582398918418,7.832033430076569,3.62954063881026,3.693957378724126,2.3097076792428926,5.460832477526216
0.002,3.3777459409858164,10.578969335565464,3.7155205350843983,6.94300195727107,2.364422158690071,7.232194050314154
0.003,3.455574210797501,11.34119083329806,3.8011316318772517,8.333811676034001,2.4189019475582505,8.161144671650753
0.004,3.533062390490227,10.603454351603485,3.88636862953925,8.051980232027113,2.473143673343159,7.80363899507764
0.005,3.6102056963405573,8.83432505968497,3.9712262659746136,6.9659842351094365,2.52714398743839,6.744787185739396
0.006,3.686999379171322,7.160750372000999,4.055699317088455,5.122358676951944,2.580899565419925,5.313654162763296
0.007,3.763438724754603,5.177650666272143,4.139782597230063,3.543549766559082,2.634407107328222,4.334366600156926
0.008,3.839519054211185,3.6258763992598575,4.223470959632304,1.9559568943368588,2.6876633379478294,3.4115957880766166
0.009,3.9152357244064526,2.656797242522951,4.3067592968470985,0.7589153863370888,2.740665007084517,2.408207270100042
0.01,3.9905841283426917,1.6361152961723266,4.389642541176961,0.02415518283278817,2.793408889839884,1.4242144829315313
0.011,4.0655596955477415,0.11272719335208842,4.472115665102516,-1.439157832646719,2.845891786883419,0.468223928110539
0.012,4.140157892459986,-1.2740195731109527,4.5541736817059855,-3.485819261340935,2.8981105247219903,-0.7589009612830404
0.013,4.214374222809629,-3.5716884652874317,4.635811645090592,-5.946455663695472,2.95006195596674,-2.304137420953391
0.014,4.28820422799622,-6.069799811487982,4.7170246507958415,-8.425560061978231,3.0017429595973537,-4.2790331682792235
0.015,4.3616434874624,-8.004425756173267,4.797807836208641,-9.801461310166804,3.05315044122368,-5.955276088335617
0.016,4.4346876190638245,-9.237060209267385,4.878156380970207,-10.778768857980326,3.104281333344677,-6.769634630844518
0.017,4.507332279435237,-8.896352473717641,4.958065507378761,-10.584666955218246,3.1551325956046656,-6.754135684383136
0.018,4.5795731643526425,-7.3706386873030745,5.0375304807879075,-8.691776537063225,3.2057012150468496,-5.831736368703904
0.019,4.651406009091567,-4.153886083179867,5.116546610000724,-4.9863681879401724,3.2559842063640967,-3.6648300800247564
0.02,4.722826588781357,0.2806909374626909,5.195109247659493,-0.7967165308273154,3.30597861214695,-0.8672013924519246
0.021,4.793830718755473,4.646714848188795,5.27321379063102,3.537219501374852,3.3556815031288307,2.2052518932267327
0.022,4.864414254897774,8.224481566646437,5.350855680387552,7.628705848863543,3.4050899784284416,4.459531408893261
0.023,4.934573093984735,10.252215577402188,5.428030403383209,10.43729950485201,3.454201165789314,5.77119636996562
0.024,5.004303174023567,10.93698643692339,5.504733491425925,11.488090063803075,3.5030122218164967,6.367965313283225
0.025,5.073600474586228,10.008211535206124,5.580960522044851,10.772006650903371,3.5515203322103592,6.067765037757849
0.026,5.142461017139256,8.5125980876699,5.656707118853182,9.096578305144893,3.599722711997479,4.709361393075715
0.027,5.210880865369442,6.180021006905485,5.731968951906387,6.620193726599121,3.6476166057586092,3.2338691938188
0.028,5.278856125505255,3.948931072717679,5.8067417380557815,4.273387427599418,3.6951992878536783,1.8564737195409653
0.029,5.346382946634043,2.373733430232358,5.881021241297448,2.5842806626640975,3.7424680626438303,1.015849342843821
0.03,5.413457521014937,1.298204206242387,5.954803273116432,1.6408357989068367,3.7894202647104556,0.3122720710815954
0.031,5.480076084387463,0.8670464867302448,6.028083692826209,1.9494226971102093,3.8360532590712237,-0.03657776319987205
0.032,5.546234916275796,0.8456393658496402,6.100858407903376,1.3823195095617242,3.8823644413930567,-0.22528123313680704
0.033,5.611930340288663,0.2239866104533199,6.17312337431753,0.6911273975844088,3.928351238202064,-0.7247923381358041
0.034,5.6771587244148485,-0.8967488750750645,6.2448745968563335,-0.0009221197619249111,3.974011107090394,-1.4647848393747187
0.035,5.741916481314269,-2.010459101479752,6.316108129445697,-1.1678291058213892,4.019341536919988,-1.939715365038134
0.036,5.806200068604601,-3.1223612287707545,6.386820075465061,-2.5852189995049315,4.064340048023221,-2.4739051740427045
0.037,5.8700059891434355,-2.6588586252155872,6.457006588057779,-2.4142812208949174,4.109004192400405,-2.4193377376530445
0.038,5.933330791305923,-1.3201713118229783,6.526663870436516,-1.3176595051718607,4.153331553914145,-1.644808997662449
0.039,5.996171069257885,1.204509027419343,6.5957881761836745,0.5473412427112985,4.19731974848052,-0.06554398807882311
0.04,6.058523463224383,4.765315852250016,6.664375809546822,4.2871485797768285,4.240966424257068,2.2578113964690414
0.041,6.120384659753688,8.763910604852981,6.732423125729057,8.65899322048849,4.284269261827581,5.037737131327583
0.042,6.181751391976656,12.652195961242523,6.7999265311743216,12.961385781894979,4.3272259743836585,7.7146639682685745
0.043,6.242620439861469,15.625108882818015,6.866882483847616,16.36793114447041,4.3698343079030275,9.766050418565602
0.044,6.302988630463721,17.622163007176663,6.933287493510094,18.28272242205433,4.4120920413246045,10.766033691340919
0.045,6.3628528381718334,17.31201588567069,6.999138121989017,18.372781621914527,4.453996986720283,10.768357865187
0.046,6.422209984947755,15.352751354414377,7.064430983442531,16.69553581155509,4.495546989463429,9.402172470100393
0.047,6.481057040562951,12.42256100672789,7.129162744619247,13.867188952611928,4.5367399283940655,7.620507375966483
0.048,6.5393910228296495,9.226585541870563,7.193330125112615,10.173623221504219,4.577573715980754,5.44895516773026
0.049,6.597208997827305,5.481485830608171,7.2569298976100365,6.35801685838483,4.618046298479113,3.434632001816162
0.05,6.654508080124296,3.2851107771196966,7.319958888136727,3.2720010838080804,4.658155656087007,1.8398857627705532
0.051,6.711285432994797,1.323377492498894,7.382413976294277,1.877908419477511,4.697899803096357,0.850811029336922
0.052,6.76753826863083,0.885869310254332,7.444292095493913,1.0173662855079408,4.73727678804158,0.2104100125895183
0.053,6.82326384834947,0.1087288068819019,7.505590233184417,0.8669397493126487,4.776284693844628,-0.24596645289321106
0.054,6.878459482795181,-0.4573807891657715,7.566305431074699,0.4481893381009625,4.814921637956626,-0.6367832046803463
0.055,6.933122532137267,-1.4224984697084846,7.626434785350994,-0.6727658684391864,4.8531857724960865,-1.2731061283849314
0.056,6.987250406262419,-1.7293989722726817,7.685975446888661,-1.628701510516505,4.891075284383692,-1.7255263462354011
0.057,7.0408405649623464,-2.253717106096608,7.744924621458582,-2.135942012894896,4.928588395473642,-2.2567182032448683
0.058,7.093890518116458,-1.7119091981510266,7.803279569928105,-2.3090786412094086,4.96572336268152,-2.107770112522122
0.059,7.1463978258696095,-0.2626350910373869,7.861037608456571,-0.7784868794751834,5.002478478108726,-1.2633800264711943
0.06,7.198360098804855,2.1605053917660966,7.918196108685342,1.5641684399605431,5.038852069163398,0.3241303901028676
0.061,7.249774998111233,5.018992695263336,7.974752497922357,5.02731081127144,5.074842498677863,2.4909553818010903
0.062,7.30064023574654,8.706799523480228,8.030704259321194,8.743898249138258,5.110448165022578,4.954653204863563
0.063,7.350953574595092,12.396428166305572,8.086048932054602,13.03359796167422,5.145667502216564,7.279961348609099
0.064,7.400712828620459,14.889329620422135,8.140784111482505,15.70748895802403,5.180498980034321,8.902230191602099
0.065,7.449915863013141,15.705508738302552,8.194907449314455,16.817655047506015,5.214941104109198,9.596917088508357
0.066,7.498560594333212,14.964892186358684,8.248416653766535,15.80145866377283,5.248992416033248,9.074651829197741
0.067,7.546644990647877,12.745696954935772,8.301309489712665,13.24101205058836,5.282651493453514,7.7864594358220405
0.068,7.594167071663945,9.20453524558922,8.35358377883034,9.816311249039465,5.315916950164761,5.80897058501346
0.069,7.641124908855225,5.685393518608278,8.405237399740749,6.196242350938758,5.348787436198657,3.6228841744841724
0.07,7.687516625584808,2.928469706481398,8.45626828814329,3.1524573796987214,5.381261637909366,1.5300434255554585
0.071,7.733340397222232,1.1807616326218104,8.506674436944456,1.2669389532073687,5.413338278055562,-0.04127258728489025
0.072,7.77859445125553,0.40853009841453414,8.556453896381084,0.5196369079190832,5.445016115878871,-0.5828140405040885
0.073,7.8232770673981396,0.43901270435589446,8.605604774137953,0.7558733003436107,5.476293947178697,-0.5317089566860167
0.074,7.867386577690672,1.0685970563987244,8.65412523545974,1.3186190200431431,5.50717060438347,-0.05450267690225363
0.075,7.910921366597526,1.7145334674046886,8.702013503257279,2.1311368764116043,5.5376449566182675,0.5642599737634342
0.076,7.953879871098349,2.3483933740213097,8.749267858208185,2.5567049954251573,5.567715909768844,1.1048520592617845
0.077,7.996260580774324,2.97967460281441,8.795886638851757,2.956792981141353,5.597382406542026,1.152890008781171
0.078,8.038062037889294,3.9235980110030435,8.841868241678224,3.5869121821682173,5.626643426522505,1.6684812307159085
0.079,8.07928283746568,4.462442763602223,8.887211121212248,4.605722805536966,5.655497986225976,2.3762369415783198
0.08,8.119921627355257,6.226025345138677,8.931913790090784,6.443056763247393,5.68394513914868,3.347900793938911
0.081,8.159977108304703,8.630065435236029,8.975974819135175,9.367514732014252,5.711983975813292,5.12273739145304
0.082,8.199448034015951,11.31182622262362,9.019392837417547,12.393348897857368,5.739613623811166,7.200736803970746
0.083,8.238333211201375,14.539819170805082,9.062166532321514,15.559876412105213,5.766833247840962,9.470636617770523
0.084,8.27663149963373,17.295009835357504,9.104294649597104,18.616161468242908,5.79364204974361,11.394836510886574
0.085,8.314341812190914,18.953067440176305,9.145775993410007,20.805642239577892,5.820039268533639,12.445485744628716
0.086,8.351463114895509,19.201425290480266,9.186609426385061,21.1698237872012,5.846024180426856,12.299043737480702
0.087,8.387994426949106,17.866341691990208,9.226793869644018,19.305622259059916,5.871596098864374,11.504852637077434
0.088,8.423934820761426,14.89036959445085,9.26632830283757,15.719129433437738,5.896754374532998,9.348471078139724
0.089,8.459283421974213,10.83102044717185,9.305211764171634,11.330597807965201,5.921498395381949,6.52398074173457
0.09,8.494039409479925,6.741145907378891,9.343443350427918,7.065307040708926,5.9458275866359465,3.895246980641979
0.091,8.528202015435198,3.6895595360788516,9.38102221697872,3.114749987958377,5.969741410804638,1.2350421585443527
0.092,8.5617705252691,1.1620508724581953,9.417947577796012,0.536170694876354,5.9932393676883695,-0.3655199283090127
0.093,8.594744277686168,0.45800595807809596,9.454218705454785,-0.4163016255269838,6.016320994380317,-1.0805779761181844
0.094,8.627122664664231,0.3874053431000464,9.489834931130655,0.09671538246903388,6.038985865264961,-0.9782009330153851
0.095,8.65890513144703,0.9659662234288371,9.524795644591734,1.285449159298559,6.061233592012921,-0.31024084544622443
0.096,8.690091176531613,2.216056697896078,9.559100294184775,2.065965634291696,6.083063823572129,0.4339803200690562
0.097,8.720680351650541,2.840460763321939,9.592748386815597,3.3389487656755863,6.104476246155379,0.8858658231348997
0.098,8.750672261748878,3.48024816482169,9.625739487923767,4.104524847225682,6.125470583224215,1.2771498850291674
0.099,8.780066564955995,4.349726743788791,9.658073221451595,4.871027774894185,6.146046595469196,1.600781585320488
0.1,8.80886297255217,4.912967316621324,9.689749269807388,5.635581549624988,6.166204080786518,2.1256056587589565
0.101,8.837061248930006,6.537497341967885,9.720767373823007,7.113995345037398,6.185942874251004,2.929560743071979
0.102,8.864661211550661,7.971825082767715,9.751127332705728,9.206384806276743,6.205262848085463,4.309987268566799
0.103,8.891662730894913,10.654391397801042,9.780829003984405,11.763996243598484,6.224163911626438,6.068689190471221
0.104,8.918065730409031,12.962510735998137,9.809872303449936,14.436129147960852,6.242646011286322,7.63617790480642
0.105,8.943870186445512,15.074125081452644,9.838257205090065,16.741796371468652,6.260709130511858,9.055870159440607
0.106,8.969076128198637,16.197948778870042,9.865983741018502,17.62971948109514,6.278353289739045,9.913149677357566
0.107,8.9936836376349,15.723617685016254,9.893052001398392,17.091470538787576,6.29557854634443,9.66864101489027
0.108,9.017692849418289,13.688458698532692,9.919462134360119,14.859092020706932,6.312384994592802,8.088856466642083
0.109,9.04110395083043,10.165871884337497,9.945214345913472,11.551271046898574,6.3287727655813,6.00937237467005
0.11,9.063917181685632,6.63690733047256,9.970308899854196,7.467170606417293,6.344742027179942,3.4579836511173285
0.111,9.086132834240804,2.7420317444260904,9.994746117664885,3.879528485095112,6.360292983968562,1.270128676813886
0.112,9.107751253100284,-0.19350440642879096,10.018526378410314,0.4657670355507726,6.375425877170199,-0.37908222118926016
0.113,9.128772835115576,-1.4650173753894604,10.041650118627135,-1.0358279213352137,6.390140984580903,-1.4289041990068974
0.114,9.149198029280011,-1.337769115912045,10.064117832208014,-0.5288950451713657,6.404438620496007,-1.297977205258281
0.115,9.169027336618353,0.36401191009016465,10.085930070280188,1.1246932407338885,6.418319135632847,-0.2615980435470382
0.116,9.18826131007134,2.510699242561695,10.107087441078475,3.483039084346199,6.431782917049937,1.4680483599986092
0.117,9.206900554375213,4.9296692256205334,10.127590609812735,5.8668971682544955,6.444830388062649,3.0726421262821755
0.118,9.224945725936184,7.066641337888514,10.147440298529803,8.300694425981193,6.4574620081553284,4.701081608121238
0.119,9.242397532699936,8.862219266368822,10.16663728596993,10.049879736991318,6.469678272889955,5.808449892570257
0.12,9.259256734016097,9.90165254278216,10.185182407417708,11.204834301826185,6.481479713811267,6.460337092679891
0.121,9.275524140497758,10.561929850711348,10.203076554547534,12.489499242144593,6.492866898348431,6.961428698814043
0.122,9.291200613876011,11.583150787130778,10.220320675263613,14.196271541238136,6.5038404297132075,7.898274790329661
0.123,9.306287066849553,13.352162725364511,10.236915773534509,15.551037993479309,6.514400946794686,9.05699074233588
0.124,9.32078446292935,15.224938620426325,10.252862909222285,17.576460113058097,6.524549124050544,10.424628474662445
0.125,9.334693816278396,16.907064470266725,10.268163197906237,19.45586656888191,6.534285671394876,11.239374238368988
0.126,9.34801619154658,18.13194306075507,10.28281781070124,20.846869196632234,6.543611334082606,12.053257714781669
0.127,9.360752703700658,18.210069597305374,10.296827974070725,21.19159021933053,6.5525268925904605,12.30839691301284
0.128,9.372904517849397,17.072098138016052,10.310194969634338,19.963353775617833,6.561033162494578,11.169188656958234
0.129,9.384472849063851,14.370534606587324,10.322920133970237,16.689329666671362,6.569130994344695,9.312811137270039
0.13,9.395458962192835,10.437484885483805,10.33500485841212,11.971278758614023,6.576821273534985,6.5203154311740015
0.131,9.405864171673603,6.316067737522085,10.346450588840964,7.166234492367835,6.584104920171521,3.378309126351024
0.132,9.415689841337734,2.60560738224173,10.357258825471508,2.7847092448293544,6.590982888936414,0.5435901597558486
0.133,9.42493738421227,-0.4318548018535626,10.367431122633498,-0.9516827268731074,6.5974561689485895,-1.1796397343361358
0.134,9.433608262316135,-1.8664039770141425,10.37696908854775,-2.0609029707477653,6.6035257836212935,-1.9192983666213532
0.135,9.441703986451794,-0.9696116769902936,10.385874385096974,-1.7173757494227644,6.609192790516255,-1.6573551801563768
0.136,9.449226115992277,0.8646265704048126,10.394148727591505,0.21626754804611714,6.614458281194593,-0.12937426263890117
0.137,9.4561762586635,3.6638509899897294,10.401793884529852,2.8760664148646367,6.61932338106445,1.3449266610501533
0.138,9.462556070321966,6.393291037243324,10.408811677354164,5.751893514482365,6.623789249225376,3.0891441021725896
0.139,9.468367254727813,8.614348775896513,10.415203980200594,8.502833687505856,6.627857078309469,4.868539699565719
0.14,9.473611563313298,9.643571566938757,10.42097271964463,10.22089650448374,6.631528094319308,5.905716175418773
0.141,9.478290794946707,10.27731607319954,10.426119874441378,11.692108042857859,6.634803556462694,6.502588107013917
0.142,9.482406795691702,10.954406318883244,10.430647475260873,12.393528278789802,6.637684756984191,6.864782446733692
0.143,9.485961458562159,11.296386087275032,10.434557604418375,13.088730596922307,6.640173020993511,7.174432388507625
0.144,9.488956723272521,12.047404408642832,10.437852395599775,13.836270280278798,6.642269706290764,7.851757915370363
0.145,9.49139457598367,13.273384606348213,10.440534033582036,14.91295544026657,6.6439762031885685,8.452854236821022
0.146,9.493277049044373,14.346536728641686,10.44260475394881,16.25949889022974,6.645293934331061,9.573430772176337
0.147,9.494606220728304,15.062686451052887,10.444066842801135,17.17288565075735,6.646224354509813,9.796119053595403
0.148,9.495384214966695,15.100515010630136,10.444922636463366,16.907366980458335,6.646768950476686,9.86852019165612
0.149,9.495613201076615,13.95526817104956,10.445174521184278,15.413277728688154,6.6469292407536305,8.973253439683539
0.15,9.495295393484954,11.293320857583785,10.44482493283345,12.460473610324092,6.646706775439467,7.030903420196804
0.151,9.494433051448059,8.07345289999623,10.443876356592865,8.682965879928343,6.646103136013641,4.651462862776187
0.152,9.493028478767169,4.199371554052034,10.442331326643886,4.671831754188175,6.645119935137018,2.22202556314668
0.153,9.491084023499546,1.1751653699240485,10.440192425849501,1.2987482267829744,6.643758816449682,0.16266642378921414
0.154,9.488602077665455,-0.508643368358138,10.437462285432002,-0.4581709647569543,6.642021454365818,-1.3652376446150933
0.155,9.485585076950926,-0.6571784976802935,10.43414358464602,-0.6195205503624646,6.639909553865648,-1.3689584514969422
0.156,9.482035500406411,0.8615217939403141,10.430239050447053,0.9511668922015311,6.6374248502844875,-0.44747835117715606
0.157,9.477955870141287,3.508077972017851,10.425751457155416,4.0490340872954915,6.6345691090989005,1.744688620647831
0.158,9.473348751014328,7.040932786202415,10.42068362611576,7.8610021764909614,6.631344125710029,4.374906364998882
0.159,9.46821675032008,10.176763078611177,10.415038425352089,11.749695210794947,6.627751725224056,6.590495951294173
0.16,9.462562517471255,12.963128983544989,10.408818769218382,14.66568752067932,6.623793762229878,8.268185562951079
0.161,9.456388743677138,14.801595383619617,10.402027618044853,16.881698920483007,6.619472120573996,9.51682035902536
0.162,9.449698161618043,15.807289349817673,10.394667977779848,17.704764286735852,6.61478871313263,10.099662871892566
0.163,9.442493545115852,15.72836925226901,10.386742899627437,18.1902775635549,6.609745481581096,10.239585487262062
0.164,9.434777708800691,15.684930916971211,10.378255479680762,17.984539516212777,6.604344396160483,10.230748089709142
0.165,9.426553507773752,15.710296617421657,10.369208858551128,17.93022694270737,6.598587455441626,10.155396638789927
0.166,9.417823837266303,15.75131628775399,10.359606220992934,18.133927476538098,6.592476686086411,10.219685282428603
0.167,9.408591632294945,15.891027247108397,10.34945079552444,18.37761956086195,6.586014142606461,10.152871261912924
0.168,9.398859867313115,15.650588113142721,10.338745854044427,18.101973473048627,6.57920190711918,9.834428556831618
0.169,9.388631555858904,14.104363602089053,10.327494711444794,17.461411064828415,6.572042089101233,9.247491476749575
0.17,9.377909750199194,11.956726509853361,10.315700725219115,15.107976024688506,6.564536825139435,7.943618018676203
0.171,9.3666975409702,9.457594300772925,10.303367295067222,11.359971083462383,6.55668827867914,5.822136127452053
0.172,9.354998056814399,5.978040406790074,10.290497862495839,7.284838774192158,6.548498639770079,3.162731587140745
0.173,9.342814464013909,2.217988744853413,10.2770959104153,3.3850822831573772,6.539970124809736,0.8704634522957404
0.174,9.330149966120391,-0.6141119049312724,10.26316496273243,0.19465746919289195,6.531104976284274,-0.9192739319847751
0.175,9.31700780358143,-2.0195800710265566,10.248708583939573,-1.8187961316693002,6.521905462507,-1.8575045424439258
0.176,9.303391253363527,-1.5490965878948888,10.23373037869988,-1.7549448063130413,6.512373877354468,-1.6738980519983784
0.177,9.289303628571663,0.18997421824431981,10.21823399142883,0.07064822470817056,6.502512540000163,-0.5582765283440558
0.178,9.274748278065541,3.1517463082708543,10.202223105872095,3.327457412893545,6.492323794645879,1.7845971120052306
0.179,9.259728586072473,6.699405493320206,10.18570144467972,7.332770196508984,6.481810010250731,4.398865001319718
0.18,9.244247971797048,10.02671377461452,10.168672768976753,11.224839357879333,6.470973580257933,6.632026746777507
0.181,9.22830988902751,12.51884197580102,10.151140877930262,13.919385536573682,6.459816922319257,8.537393132344882
0.182,9.211917825738986,14.019104587546568,10.133109608312886,15.374014231493996,6.44834247801729,9.45153501160882
0.183,9.195075303693534,14.262650789101254,10.114582834062888,15.895610734614154,6.436552712585473,9.772638267794573
0.184,9.177785878037115,13.776827080822326,10.095564465840827,15.165783855357937,6.42445011462598,9.562373971787117
0.185,9.160053136893463,13.3249406382415,10.07605845058281,14.057342895113132,6.412037195825424,9.004978564167175
0.186,9.141880700954951,12.321035589969185,10.056068771050448,13.707432765922295,6.399316490668466,8.292206612018756
0.187,9.123272223070467,11.855495914931257,10.035599445377514,12.98991501668593,6.386290556149326,7.9797753263740505
0.188,9.104231387830358,11.288872231022925,10.014654526613395,12.21998584797851,6.37296197148125,7.793842033797597
0.189,9.084761911148467,11.08405171714396,9.993238102263314,11.537749742796516,6.3593333378039265,7.37488389565629
0.19,9.064867539841323,10.469330524090186,9.971354293825456,10.242368507502,6.345407277888926,6.720497159651923
0.191,9.044552051204521,8.748484577307392,9.949007256324974,9.030607651823116,6.331186435843164,5.907163460252619
0.192,9.023819252586343,6.3795375208938765,9.926201177844977,6.621225583022755,6.31667347681044,4.5425352640333685
0.193,9.002672980958634,3.886256554122811,9.902940279054498,3.5425451596148383,6.301871086671043,2.5625842136213253
0.194,8.98111710248504,1.3284120944855733,9.879228812733546,0.9859851383206486,6.2867819717395275,0.48666086172823686
0.195,8.959155512086577,-0.0887298465883557,9.855071063295235,-0.4604172220397551,6.271408858460603,-0.5081258951241407
0.196,8.936792133004632,-0.6961715347936259,9.830471346305096,-0.8655529684892702,6.255754493103242,-0.47953771785894617
0.197,8.914030916361419,0.825530731109037,9.805434007997562,0.9406057465705988,6.239821641452993,0.5988963520675465
0.198,8.890875840717941,4.098398636704462,9.779963424789736,3.971285536131444,6.2236130885025585,2.4697557042871616
0.199,8.8673309116295,8.010858199555855,9.75406400279245,7.983574074546635,6.207131638140649,5.232625582958512
0.2,8.843400161198787,12.019513046651069,9.727740177318665,13.014234666402778,6.190380112839151,7.981496547928921
0.201,8.819087647626652,15.51967797965553,9.700996412389319,16.897427763027526,6.173361353338656,10.680961810845723
0.202,8.794397454760514,18.021546740558158,9.673837200236566,19.578154589936965,6.156078218332359,12.338078366694733
0.203,8.769333691640556,19.2362601771571,9.646267060804613,21.018757633331646,6.138533584148389,12.979233679060663
0.204,8.74390049204365,18.60416150162571,9.618290541248015,20.673958680225816,6.120730344430555,12.729647219348024
0.205,8.718102014025147,17.214498199792914,9.589912215427663,19.168268551600477,6.102671409817603,11.69864223108771
0.206,8.691942439458552,15.42383098959644,9.561136683404408,17.090354100018864,6.084359707620986,10.51265754718895
0.207,8.665425973573068,13.91595140900625,9.531968570930376,14.93081108420721,6.0657981815011475,9.096648431667642
0.208,8.63855684448918,12.740098018711208,9.502412528938098,13.305269872202661,6.046989791142426,8.3882316522398
0.209,8.611339302752206,11.461554039257688,9.472473233027427,12.105937827423743,6.027937511926544,7.59075186891699
0.21,8.583777620863946,10.117906307773492,9.442155382950341,10.872826482450492,6.008644334604762,6.749028580911828
0.211,8.555876092812435,8.854264554719471,9.411463702093679,9.602324005617351,5.9891132649687036,5.691264476401997
0.212,8.52763903359985,7.144094741692529,9.380402936959836,7.78685550366726,5.969347323519895,4.426880391624557
0.213,8.499070778768669,5.138084886309253,9.348977856645536,5.411679201102217,5.949349545138068,2.8354177471838518
0.214,8.470175683926028,2.5285263317448123,9.317193252318631,2.600293502653554,5.929122978748219,1.0599156436143975
0.215,8.440958124266466,0.05310338726550334,9.285053936693114,0.03129840744252377,5.908670686986525,-0.5814152488687698
0.216,8.411422494092951,-1.3808854006037539,9.252564743502248,-1.4592966293542826,5.887995745865066,-1.6852164971282386
0.217,8.381573206336393,-1.5498337145247891,9.219730526970032,-1.8401966499604558,5.867101244435474,-1.604945590978888
0.218,8.351414692073535,-0.1497489780706811,9.186556161280889,0.4320151083695425,5.8459902844514735,-0.3712427705596246
0.219,8.32095140004344,2.5838876101860784,9.153046540047784,3.017057472472797,5.8246659800304075,1.522674791327721
0.22,8.29018779616245,6.17271441433968,9.119206575778694,7.100097322895616,5.8031314573137145,4.185558442302515
0.221,8.25912836303783,10.316241622609422,9.085041199341614,11.605797824733578,5.7813898541264805,6.715865856520521
0.222,8.227777599480001,13.731563534568021,9.050555359428003,15.439360616000378,5.759444319636001,8.997810563372575
0.223,8.196140020013551,15.656182502005919,9.015754022014907,17.513929423870135,5.737298014009486,10.749088019133303
0.224,8.164220154386934,16.360746882671002,8.980642169825629,17.936294342705224,5.714954108070853,11.27129981150882
0.225,8.13202254708104,15.058995054690712,8.945224801789143,16.92677072990535,5.6924157829567275,10.677995480228507
0.226,8.099551756816574,13.060954640612465,8.909506932498232,14.483711944277678,5.669686229771601,9.116521162253086
0.227,8.066812356060401,10.777523625592439,8.873493591666442,11.648393425646447,5.64676864924228,7.34898426510631
0.228,8.033808930530784,8.824527348704468,8.837189823583863,9.469919280727398,5.6236662513715485,5.730440212523403
0.229,8.000546078701703,7.045846542885437,8.800600686571874,7.839051408312502,5.6003822550911915,4.707573219534905
0.23,7.967028411306167,6.228112850827086,8.763731252436784,6.685964512494601,5.5769198879143165,4.1395460065416785
0.231,7.933260550838723,5.462277512084461,8.726586605922595,6.1727805055415494,5.553282385587106,3.6754514796381823
0.232,7.899247131057032,5.108869196741615,8.689171844162736,5.607396923556487,5.529472991739922,3.4130206878300595
0.233,7.86499279648276,4.714869970359878,8.651492076131037,4.634871920301422,5.505494957537931,2.7746016412211025
0.234,7.830502201901646,3.4399160317253115,8.61355242209181,3.252696615445571,5.4813515413311515,2.0796863397143057
0.235,7.795780011862973,2.255917403271396,8.575358013049271,2.1075041925338898,5.457046008304081,1.36990687587289
0.236,7.760830900178323,1.3722347299873494,8.536913990196156,0.9055169270594252,5.432581630124826,0.8808611834947007
0.237,7.725659549419841,0.8462547327216603,8.498225504361825,0.8390440309341045,5.4079616845938885,0.49390857661483434
0.238,7.690270650417884,1.8351701675024197,8.459297715459673,1.773672817138082,5.383189455292518,1.3005300232017634
0.239,7.654668901758282,3.946878115099974,8.420135791934111,4.531499478445111,5.358268231230797,3.1564722181412814
0.24,7.61885900927909,7.170609151636358,8.380744910207,8.033613078410186,5.333201306495362,5.256073056486914
0.241,7.582845685567045,11.123874846552152,8.34113025412375,12.210150940437318,5.307991979896931,7.80084454427122
0.242,7.54663364945363,14.943103363523974,8.301297014398994,16.56839156069038,5.2826435546175405,10.734762479795304
0.243,7.510227625510939,18.119300801783737,8.261250388062033,19.796368826881732,5.257159337857657,12.731210947663415
0.244,7.47363234354725,19.6102143920768,8.220995577901975,21.482540644238796,5.231542640483075,13.711405743095055
0.245,7.436852538102515,19.811332211434348,8.180537791912768,21.188202323804546,5.20579677667176,13.669172547509653
0.246,7.3998929479436475,17.80788980914721,8.139882242738013,19.04940123097435,5.179925063560553,12.211081975432691
0.247,7.3627583155598275,14.93868514786018,8.09903414711581,15.783880567728744,5.153930820891879,10.173613515606698
0.248,7.3254533866577285,11.539048675220252,8.057998725323502,11.660577992645841,5.127817370660409,7.627341167972842
0.249,7.287982909656843,8.176094783916525,8.016781200622528,8.67311658641414,5.1015880367597894,5.594630472456482
0.25,7.2503516351848445,6.112522138000332,7.97538679870333,5.944203733143729,5.075246144629391,4.037670252191887
0.251,7.212564315573152,4.554004462545095,7.933820747130468,4.377307100621797,5.048795020901206,2.9557610112587778
0.252,7.174625704352627,3.4870855230687825,7.89208827478789,2.981054764965826,5.022237993046838,2.3213454833435767
0.253,7.136540555749578,3.0096174127700843,7.850194611324537,2.2581680737297605,4.995578389024704,1.91960305908596
0.254,7.098313624182009,2.646492700925604,7.808144986600211,1.7915951580044132,4.968819536927406,1.4943629402154284
0.255,7.059949663756272,1.701162706364335,7.7659446301319,1.4478317490721428,4.94196476462939,0.9562198412212286
0.256,7.0214534277640634,0.8391469645052227,7.7235987705404705,0.6280072273584407,4.915017399434844,0.4709298979336385
0.257,6.982829668179929,0.3666764051160536,7.681112634997922,0.029711862577876502,4.88798076772595,-0.2637776522129647
0.258,6.944083135159224,0.3231828225567046,7.638491448675147,-0.12679723746114746,4.860858194611457,-0.028094559301762523
0.259,6.905218576536675,1.3621300815787754,7.595740434190343,0.9375523886996424,4.833653003575672,0.6539964631953756
0.26,6.866240737325496,3.390977013231147,7.552864811058046,3.2378536983890776,4.806368516127847,2.4374575276269663
0.261,6.827154359217225,6.153985027283989,7.509869795138948,6.7378344038271045,4.779008051452057,4.601992968841286
0.262,6.7879641800821995,9.69762532798286,7.46676059809042,10.965062619278577,4.75157492605754,7.071612006126604
0.263,6.748674933470865,12.94660678051957,7.423542426817953,14.553063745097525,4.7240724534296055,9.465877675039337
0.264,6.709291348115822,15.319778784230515,7.380220482927404,17.159739092213307,4.696503943681075,10.909582543256981
0.265,6.6698181474348015,16.08288984476507,7.336799962178282,18.000319024119925,4.668872703204361,11.335412793827677
0.266,6.630260049034488,15.285353405275256,7.293286053937938,16.995203997895207,4.6411820343241414,10.700595895041829
0.267,6.59062176421538,12.883457153797512,7.249683940636919,14.658388846813272,4.613435234950766,9.061770786196739
0.268,6.550907997477579,9.785162690161624,7.205998797225337,11.119885263684619,4.5856355982343056,6.903621805887948
0.269,6.5111234460277165,6.435127443204671,7.162235790630489,7.331552310503995,4.557786412219401,4.462022815820824
0.27,6.471272799286959,3.269656047558151,7.118400079215656,3.9976242433443367,4.529890959500871,2.567658775612118
0.271,6.431360738400166,1.5375222379571625,7.074496812240183,1.583600663672172,4.501952516880116,0.7614536465135662
0.272,6.391391935746305,0.5009013510444591,7.030531129320936,0.7642231638018071,4.473974355022413,0.40679777180528554
0.273,6.351371054450077,0.33487579937025735,6.986508159895085,0.9901162634630856,4.445959738115054,0.3704132457229523
0.274,6.311302747894917,1.1717971132814764,6.942433022684409,1.8082470885525241,4.417911923526441,0.8763223323103029
0.275,6.271191659237288,1.778761223538596,6.898310825161017,2.5489926108567973,4.389834161466101,1.53263552841178
0.276,6.23104242092246,2.3770494690252004,6.854146663014706,2.953336153473411,4.361729694645722,1.711236043580528
0.277,6.1908596542016845,2.499933285223574,6.809945619621853,3.477068981148501,4.333601757941179,2.161958546028197
0.278,6.150647968650945,2.846652851453608,6.7657127655160405,4.102067391866856,4.305453578055661,2.5073526236671753
0.279,6.110411961691203,3.6162980310637973,6.721453157860324,5.059832469920156,4.277288373183842,3.2467171476147425
0.28,6.070156218110315,5.029675823051178,6.677171839921346,6.419295528337057,4.24910935267722,4.218071449703561
0.281,6.029885309586552,7.262828848483467,6.632873840545208,8.981273880758591,4.220919716710586,5.771134550293818
0.282,5.989603794213879,10.290361706169572,6.588564173635268,11.773592652215815,4.192722655949716,7.700570405875173
0.283,5.94931621602894,13.710507814251462,6.5442478376318345,15.565601773907318,4.164521351220258,9.796423712841333
0.284,5.9090271045398755,16.26106809344581,6.499929814993863,18.565940978332222,4.136318973177913,11.673784654225088
0.285,5.868740974256994,17.37366723571446,6.455615071682694,20.320271793637676,4.108118681979896,12.848449421147766
0.286,5.82846232422531,17.66663459677013,6.411308556647842,20.588131468609777,4.079923626957717,12.906143473167438
0.287,5.788195637559081,15.798767560517387,6.36701520131499,18.43232720602853,4.051736946291356,11.485378996101552
0.288,5.7479453809782655,12.488393423070821,6.322739919076093,14.837102867456043,4.023561766684786,9.181808394066802
0.289,5.707716004347111,8.342245218783127,6.278487604781822,10.096588443306551,3.9954012030429773,6.3339994128189545
0.29,5.667511940214732,3.987645681885037,6.234263134236206,5.177367425305565,3.9672583581503122,3.1115438841818475
0.291,5.627337603357918,0.5257503630093483,6.19007136369371,1.4384093939351965,3.9391363223505422,0.8229317792307622
0.292,5.5871973903260335,-1.728166555028051,6.145917129358637,-1.0140855049510797,3.9110381732282233,-0.8063954700349134
0.293,5.547095678988222,-2.5107541504207704,6.101805246887045,-2.5265763432797845,3.882966975291755,-1.4623046596023253
0.294,5.507036828082819,-2.378330161603383,6.057740510891101,-2.1235110470319523,3.8549257796579726,-1.127145175344575
0.295,5.467025176769138,-1.9276657253678184,6.013727694446052,-1.1492104462174204,3.826917623738396,-0.6713276645415593
0.296,5.427065044181566,-1.0106690331904424,5.969771548599723,0.22208471131455543,3.798945530927096,-0.04004571912953603
0.297,5.387160728986127,0.25487369955402084,5.9258768018847405,1.287115190745916,3.771012510290289,0.29452977647095313
0.298,5.347316508939439,0.8202462894997371,5.882048159833384,2.223243964425831,3.743121556257607,0.7776264951857734
0.299,5.307536640450233,1.5392378600734427,5.838290304495257,3.0172376821416576,3.715275648315163,1.3286745781797022
0.3,5.267825358143346,2.165583972012426,5.794607893957681,3.7746083473863172,3.6874777507003422,1.5379732066275258
0.301,5.228186874426374,3.6028570138406035,5.751005561869012,5.240568498816335,3.6597308120984615,2.2747337700593744
0.302,5.188625379058888,5.529654576950923,5.707487916964777,7.404627011518578,3.6320377653412215,3.648908372605606
0.303,5.149145038724393,7.677940476587737,5.664059542596833,9.694844896521015,3.604401527107075,5.305200234923844
0.304,5.109749996604938,10.039967760856115,5.620724996265432,12.231559246453415,3.5768249976234565,7.058190627056379
0.305,5.070444371958542,11.891436196949236,5.5774888091543975,14.254925418748606,3.549311060370979,8.573518165785638
0.306,5.03123225969939,13.172689691853192,5.534355485669329,15.492170193227011,3.521862581789573,9.567309590819105
0.307,4.9921177299809045,12.498593656859384,5.491329502978996,14.771744197775153,3.494482410986633,9.235614292744069
0.308,4.953104827781667,10.449788565720644,5.448415310559834,12.04985027725861,3.467173379447167,7.831157286552289
0.309,4.914197572494326,7.204739303364553,5.40561732974376,8.220497874611699,3.4399383007460282,5.579981410313463
0.31,4.875399957517412,3.40622874916613,5.362939953269153,3.8796007097603176,3.412779970262188,2.5571299126923774
0.311,4.836715949850232,-0.34545052293291256,5.320387544835255,-0.057970795794993535,3.3857011648951625,0.01748761682680744
0.312,4.798149489690758,-3.381328269843716,5.277964438659834,-2.798612910680652,3.3587046427835303,-2.1347614725625665
0.313,4.759704490036671,-4.902533194711474,5.235674939040338,-4.0890037568245345,3.3317931430256693,-3.055693888894933
0.314,4.721384836289494,-4.8554932255861925,5.193523319918444,-3.8970175606365673,3.3049693854026456,-2.765360752744409
0.315,4.683194385861908,-3.8585403197708033,5.1515138244481,-2.5440856049908946,3.2782360701033353,-1.8236689899217802
0.316,4.645136967788326,-1.462046113172934,5.109650664567159,-0.6138938423732831,3.251595877451828,-0.1488913277744528
0.317,4.6072163823386525,1.0838657111813101,5.067938020572518,1.8688317899507259,3.2250514676370567,1.228494831416051
0.318,4.569436400635408,2.990395957083331,5.02638004069895,4.071139409753841,3.1986054804447854,2.700339136242562
0.319,4.5318007642741245,4.875938950927193,4.984980840701537,5.8020787272618115,3.172260534991887,3.81351982359401
0.32,4.494313184947167,6.008476705809173,4.943744503441884,7.2242835281013,3.1460192294630165,4.199537006404938
0.321,4.456977344070912,7.166236763431293,4.902675078478004,8.39756882716381,3.1198841408496385,4.95985598881639
0.322,4.419796892416423,8.44260093084186,4.861776581658066,9.599961008167165,3.0938578246914963,5.328507782524599
0.323,4.382775449743562,9.864069707282235,4.821052994717919,11.07411139586587,3.0679428148204932,6.42059075453758
0.324,4.345916604438667,11.197169988058434,4.780508264882534,12.629560657141154,3.042141623107067,7.745112209243768
0.325,4.309223913155743,12.977316974357532,4.740146304471318,14.33655196742233,3.01645673920902,8.909343313350783
0.326,4.2727009004612935,14.26401413174638,4.699970990507423,15.41770160730637,2.9908906303229053,9.77381257234583
0.327,4.236351058482729,14.221835388006543,4.659986164331002,16.112517804271718,2.96544574093791,10.17054297947947
0.328,4.200177846560496,12.922171833501043,4.620195631216546,15.039525407344328,2.9401244925923473,9.136893836492533
0.329,4.164184690903849,10.121870201729653,4.580603159994235,11.606047843644445,2.9149292836326945,7.004751145071248
0.33,4.128374984250415,6.033017478816156,4.541212482675458,7.3572435858952545,2.8898624889752904,4.567104072708101
0.331,4.092752085529465,1.6975304015423367,4.502027294082412,2.240874478015787,2.8649264598706257,1.5360928287696556
0.332,4.057319319529055,-2.3444353413303096,4.463051251481962,-2.0814194891114415,2.8401235236703384,-1.0976964111828735
0.333,4.022079976566935,-5.0892437551059615,4.4242879742236285,-5.340901914777624,2.8154559835968542,-3.358762258630912
0.334,3.987037312165387,-6.462083161016852,4.385741043381926,-6.77816976907878,2.7909261185157708,-4.607630423665083
0.335,3.9521945467299187,-6.199429448982204,4.347414001402911,-6.1343704046250895,2.7665361827109427,-4.442824802060721
0.336,3.917554865231928,-4.771009834014912,4.309310351755121,-4.189370922838867,2.7422884056623493,-3.2338179100673914
0.337,3.883121416895297,-1.7816267255256175,4.271433558584827,-1.3009577120514892,2.718184991826708,-1.539566436626282
0.338,3.848897314887025,0.7378271668831351,4.233787046375728,1.6146916742496642,2.694228120420917,0.23774041818172975
0.339,3.8148856360118426,2.7162502315124604,4.196374199613027,3.798241608181771,2.6704199452082897,1.541122191504523
0.34,3.781089420410936,4.388556896385287,4.15919836245203,5.1355230431790195,2.646762594287655,2.6886231374626317
0.341,3.7475116712647107,5.330153571470064,4.122262838391182,6.033454654682761,2.6232581698852973,3.317688900646945
0.342,3.7141553544997175,5.9778399173188905,4.08557088994969,6.541977585326094,2.599908748149802,3.4219505509207493
0.343,3.6810233984996916,6.621231231769269,4.0491257383496615,6.994171118148486,2.576716378949784,3.808174652141428
0.344,3.6481186938207983,7.576498515532429,4.012930563202879,7.677536291169139,2.5536830856745585,4.381854144011777
0.345,3.615444092911062,8.338009057696306,3.9769885022021687,8.829751603322833,2.5308108650377434,5.299153348743488
0.346,3.5830024098340374,9.386212451888436,3.9413026508174416,10.275411128123949,2.508101686883826,5.985618604987955
0.347,3.5507964199967583,9.678097120350262,3.9058760619964343,10.486821957006708,2.4855574939977307,6.600412796691227
0.348,3.5188288598819355,9.386730013083284,3.8707117458701292,9.976283819923445,2.4631802019173548,6.572190151912059
0.349,3.48710242678452,8.116965226552905,3.835812669462972,8.524410247334893,2.4409716987491636,5.469036738959679
0.35,3.4556197785525606,5.334599839253462,3.801181756407817,5.292549457726784,2.418933844986792,3.7573938254406962
0.351,3.4243835333324704,2.361755278387263,3.7668218866657175,1.2716425680490397,2.397068473332729,1.5167986788042436
0.352,3.3933962693186492,-1.2893048290364728,3.7327358962505146,-2.150430717180002,2.3753773885230545,-0.8796888473898843
0.353,3.3626605245075565,-4.719601237563428,3.6989265769583124,-5.328549479419699,2.353862367155289,-2.9855817309256576
0.354,3.3321787964562013,-6.33716344542774,3.6653966761018215,-6.662053395699155,2.3325251575193406,-4.268655935216129
0.355,3.30195354204512,-5.99226609313735,3.632148896249632,-7.177748331746527,2.311367479431584,-4.551464512341369
0.356,3.271987177245819,-4.900859385125605,3.599185894970401,-4.967885916541887,2.2903910240720733,-3.277931304146838
0.357,3.242282076892762,-1.8725362076109375,3.5665102845820384,-2.1247414380402896,2.2695974538249333,-1.4836638041296268
0.358,3.2128405744598574,1.4431442869972075,3.5341246319058435,1.9436223430555524,2.2489884021219,0.964457695524906
0.359,3.18366496184154,4.881996786959617,3.5020314580256944,5.22376024077071,2.228565473289078,3.530259422423865
0.36,3.154757489138409,7.391906733828552,3.4702332380522503,8.351235978546384,2.2083302423968862,5.313693609853363
0.361,3.126120364447458,9.3723868227796,3.438732400892204,10.399387758726402,2.1882842551132207,6.559876486550609
0.362,3.0977557536569647,10.131585673762341,3.407531329022661,11.196933916960841,2.168429027559875,6.90935508264727
0.363,3.069665780245983,10.508024637355906,3.3766323582705815,11.044177732924286,2.148766046172188,6.972132711996025
0.364,3.041852525088518,10.130386940112384,3.34603777759737,10.845017895925164,2.1292967675619625,6.744725761512615
0.365,3.014318026262373,9.970902679494568,3.3157498288886105,10.79765834401815,2.110022618383661,6.5808025117870015
0.366,2.987064278862709,9.53983766237039,3.28577070674898,10.596274982152844,2.090944995203896,6.7172514574134095
0.367,2.9600932348203015,10.140508397535136,3.2561025583023318,10.629797616443051,2.072065264374211,6.857063358327822
0.368,2.933406802724554,10.212345821807128,3.22674748299701,10.324999350624278,2.053384761907188,6.576931271116368
0.369,2.9070068476512523,9.570794953625736,3.197707532416378,9.330118607520818,2.0349047933558766,5.913054628685988
0.37,2.880895190995096,7.770084685282535,3.168984710094606,6.781491958522736,2.0166266336965673,4.4470672828366204
0.371,2.8550736103070076,4.543149103589574,3.1405809713377084,3.4075352420810447,1.9985515272149053,2.3154734279950735
0.372,2.829543839136263,0.8130846631461361,3.112498223049889,-0.4880908248324456,1.980680687395384,-0.36966861751126157
0.373,2.804307566877406,-2.8558916536853736,3.084738323565147,-4.53729127411725,1.963015296814184,-2.962740053071827
0.374,2.779366438622046,-5.785102455800923,3.0573030824842506,-7.943868482636942,1.945556507035432,-5.249978838936986
0.375,2.7547220550154448,-7.642791315707316,3.0301942605169896,-9.382410652040534,1.9283054385108112,-5.986798447767193
0.376,2.7303759721180167,-7.757279426910479,3.0034135693298185,-8.94560674208454,1.9112631804826117,-5.6792294720874565
0.377,2.7063297012716676,-6.198657390145654,2.9769626713988346,-6.729973958210534,1.8944307908901672,-4.037747731200323
0.378,2.6825847089710386,-3.177573248563783,2.950843179868143,-3.4023387243827865,1.8778092962797268,-1.7394635760923318
0.379,2.659142416739649,0.42346977294398824,2.9250566584136144,0.574603081086976,1.8613996917177542,0.8163464872895911
0.38,2.63600420101094,3.785422003576252,2.8996046211120343,4.6361264267098115,1.845202940707658,2.8706655436218607
0.381,2.613171393014259,6.454722189260965,2.874488532315685,7.646235488954283,1.8292199751099811,4.82327033751865
0.382,2.59064527866576,7.627703465634882,2.8497098065323363,9.464234455492267,1.813451695066032,5.992426629443768
0.383,2.568427098464264,7.802724273369751,2.825269808310691,9.755786765852006,1.7978989689249847,6.006230476583552
0.384,2.5465180473920634,7.20095883890773,2.8011698521312702,9.277902519163307,1.7825626331744442,5.711694050520007
0.385,2.524919274820694,6.572477359633652,2.7774112023027637,8.416825989217704,1.7674434923744855,5.107877785384435
0.386,2.503631884421682,5.850255488119112,2.7539950728638507,7.777631227773357,1.7525423190951772,4.510681899317088
0.387,2.4826569340822626,5.406361714516876,2.730922627490489,6.579235848004643,1.7378598538575838,4.184629470940941
0.388,2.4619954358261067,4.8982864373807935,2.7081949794087175,6.189616326943753,1.7233968050782746,3.9816938286648194
0.389,2.4416483557390185,4.52760511599385,2.6858131913129206,5.902534420450664,1.7091538490173128,3.518578391224658
0.39,2.4216166138996558,3.561387792852346,2.6637782752896215,5.176736495832199,1.695131629729759,3.0480868778880796
0.391,2.401901084315253,1.9276002568790434,2.6420911927467787,3.3168954370927812,1.681330759020677,1.7448889844040532
0.392,2.382502594862352,-0.17610240865984528,2.6207528543485874,0.8876287500840427,1.6677518164036462,0.2457683172590308
0.393,2.3634219272325687,-2.907101148088354,2.5997641199558257,-1.9204856145744076,1.654395349062798,-1.574463264542745
0.394,2.3446598168833717,-5.382929623519659,2.579125798571709,-4.472431562762033,1.64126187181836,-3.4475882210218107
0.395,2.326216952993895,-7.097943711239289,2.5588386482932846,-6.366176923749103,1.6283518670957264,-4.4711848441157125
0.396,2.308093978425778,-7.630950723262932,2.538903376268356,-6.781711447849917,1.6156657848980447,-4.998200741411321
0.397,2.2902914896890554,-6.379026997561563,2.519320638657961,-5.498340526657071,1.6032040427823386,-4.041282141196128
0.398,2.2728100369130715,-3.578121739205914,2.500091040604379,-2.198974471853623,1.59096702583915,-2.0207905049423758
0.399,2.2556501238224396,0.31442710068595625,2.4812151362046837,2.2667016966679645,1.5789550866757076,0.9267119969324347
0.4,2.2388122077180492,4.226586399978242,2.4626934284898545,7.004220310392398,1.5671685454026343,3.9352571302005037
0.401,2.222296699463114,7.882618781247784,2.444526369409426,11.114014655977698,1.5556076896241797,6.183598584433277
0.402,2.2061039634742547,10.72999601184475,2.4267143598216805,13.855123856003882,1.5442727744319782,7.913301970216442
0.403,2.1902343177176444,11.993243177515575,2.409257749489409,14.814022051544791,1.533164022402351,8.918126324875878
0.404,2.174688033710181,11.67154124686236,2.3921568370811994,14.223011852179543,1.5222816235971266,8.669506411702274
0.405,2.159465336525713,10.168643145954553,2.3754118701782847,12.91749797362558,1.511625735567999,7.571832919903329
0.406,2.1445664048063042,8.444108513649471,2.3590230452869347,11.074392024247052,1.501196483364413,6.292553920138882
0.407,2.129991370778531,6.885058988809954,2.3429905078563844,9.021976681058664,1.4909939595449715,5.256832946685629
0.408,2.1157403202748313,5.711949180765876,2.3273143523023148,7.306792403928425,1.4810182241923817,4.055110153498076
0.409,2.1018132927598687,4.426829626586702,2.3119946220358556,5.95299765790142,1.471269304931908,3.070752071137577
0.41,2.088210281361948,3.1659665291341086,2.297031309498143,4.954599659431623,1.4617471969533635,2.3016815501711996
0.411,2.074931232909436,2.036134566617305,2.2824243562003796,3.625028949059107,1.4524518630366052,1.3380511392255026
0.412,2.061976047972218,0.41540391076159633,2.26817365276944,1.5299530989322874,1.4433832335805523,0.25928846919707227
0.413,2.0493445809081665,-1.781107833891936,2.2542790389989835,-0.8838275082033555,1.4345412066357164,-1.3318694048267863
0.414,2.037036639914625,-4.3644461306789335,2.2407403039060876,-4.041553460058768,1.4259256479402374,-2.999561017477623
0.415,2.0250519870848827,-6.841030682540823,2.227557185793371,-6.689635417674305,1.4175363909594179,-4.333468921546208
0.416,2.0133903384696703,-8.073880030046787,2.2147293723166377,-8.662532581454652,1.409373236928769,-5.475339840680091
0.417,2.0020513641436244,-7.950687044792827,2.202256500557987,-8.934615157005624,1.401435954900537,-5.393314784438274
0.418,1.9910346882767485,-6.532572401377099,2.1901381571044234,-7.444662726329069,1.3937242817937239,-4.247024184095501
0.419,1.9803398892108435,-3.267108431675427,2.178373878131928,-4.661351589918899,1.3862379224475903,-2.4134000660490993
0.42,1.969966499540913,0.584161046920487,2.1669631494950043,-0.11224572391935617,1.378976549678639,0.44836380463450687
0.421,1.9599140062015126,4.509780193429748,2.155905406821664,4.207983040303997,1.3719398043410587,3.038128624647669
0.422,1.9501818505580548,7.59802884453863,2.1452000356138603,7.869502030876841,1.3651272953906384,5.1669488367585386
0.423,1.9407694285030574,9.339690882619802,2.134846371353363,10.018848638189734,1.3585385999521402,6.514999617657574
0.424,1.9316760905572998,9.794083475989924,2.12484369961303,10.781211071438106,1.3521732633901098,6.7876575691799514
0.425,1.9229011419759177,8.977371779416817,2.11519125617351,10.104701744906198,1.3460307993831422,6.115834820559421
0.426,1.9144438428593826,7.52351857233567,2.105888227145321,8.084107436148226,1.3401106900015678,4.626162014378661
0.427,1.9063034082693822,5.153650235789082,2.0969337490963205,5.558127220884806,1.3344123857885675,3.0944253741258447
0.428,1.898479008349577,3.051029140370237,2.088326909184535,2.691657966698757,1.3289353058447038,1.565673034828356
0.429,1.8909697684512272,1.188244194459842,2.08006674529635,0.8687347915151797,1.323678837915859,0.4530812993077499
0.43,1.883774769263657,0.1679382004370833,2.072152246190023,-0.11327893438004155,1.3186423384845598,-0.1648194012969486
0.431,1.8768930469495766,-0.4492852020253042,2.0645823516445345,-0.5157587474465011,1.3138251328647035,-0.37365556826048674
0.432,1.8703235932852076,-1.1663033484975542,2.0573559526137286,-0.960883453884469,1.3092265152996452,-0.8055439414883878
0.433,1.864065355805229,-1.600934109738267,2.050471891385752,-1.3062527895192324,1.3048457490636602,-1.3918817595690514
0.434,1.858117237952511,-2.6683982995456974,2.0439289617477625,-2.656696676248433,1.3006820665667576,-1.9889323786382325
0.435,1.85247809923262,-3.6459059748990046,2.037725909155882,-4.163229548784754,1.2967346694628339,-2.6479984771638483
0.436,1.8471467553730863,-4.638527642893292,2.031861430910395,-5.157625749213085,1.2930027287611603,-3.3313906194388734
0.437,1.842121978487417,-4.9715309612338645,2.026334176336159,-5.164401667945091,1.2894853849411918,-3.5078515552684886
0.438,1.8374024972438239,-4.2319494411637955,2.0211427469682066,-3.8928615561466104,1.2861817480706765,-2.915521777149333
0.439,1.8329869970386614,-2.056309875090279,2.0162856967425276,-1.9465874188179857,1.283090897927063,-1.442815866211776
0.44,1.8288741201745573,1.6456940496004626,2.011761532192013,1.7961437089404386,1.2802118841221901,0.8802801440344583
0.441,1.8250624660431978,5.475288426579459,2.007568712647518,6.417366180860039,1.2775437262302383,3.694158238702845
0.442,1.821550591312775,9.51329757566554,2.0037056504440525,10.876547820877672,1.2750854139189425,6.525349755577414
0.443,1.8183370101200547,12.434125996441743,2.00017071113206,14.240996156074853,1.2728359070840383,8.735439723047962
0.444,1.8154201942670474,14.038300005098405,1.9969622136937524,15.800803649975679,1.270794135986933,9.63553827848304
0.445,1.8127985734222793,13.80519092061992,1.9940784307645074,14.79524210742499,1.2689590013955954,9.46239862743478
0.446,1.8104705353266182,11.675016772681031,1.9915175888592802,13.236798050187394,1.2673293747286327,8.06847089205024
0.447,1.8084344260036413,8.79234857487286,1.9892778686040056,10.12463917634886,1.265904098202549,5.992573761858042
0.448,1.806688549974532,5.908357996382756,1.9873574049719853,6.236493281885961,1.2646819849821722,3.6955577193189004
0.449,1.8052311704774624,2.8658308504069985,1.9857542875252088,2.7770871857993713,1.2636618193342235,1.691556577247134
0.45,1.8040605096914613,0.6441794247780774,1.9844665606606076,0.22418831794763983,1.2628423567840228,0.008776449946343412
0.451,1.803174748964727,-0.88540890011509,1.9834922238611998,-1.3707661175624568,1.2622223242753088,-1.0069434451262893
0.452,1.8025720290473677,-1.644944568994874,1.9828292319521046,-2.6457353674472213,1.2618004203331572,-1.7697992803362539
0.453,1.8022504503285388,-2.3800922243121025,1.9824754953613928,-3.430807059914576,1.2615753152299771,-2.2910316371995245
0.454,1.8022080730779644,-2.979384038007966,1.982428880385761,-3.871984175419451,1.261545651154575,-2.677523646036038
0.455,1.8024429176918,-3.5573250993047654,1.9826872094609802,-4.7688200617177525,1.26171004238426,-2.689334055932974
0.456,1.802952964942829,-4.511351785797594,1.983248261437112,-6.046931859945346,1.2620670754599803,-3.4088193972964707
0.457,1.80373615623495,-4.976889407662167,1.9841097718584453,-6.860567085000006,1.262615309364465,-3.848912409808679
0.458,1.8047903938619356,-5.2509122710152045,1.9852694332481293,-6.805321797205183,1.2633532757033548,-3.817387191531239
0.459,1.8061135412704337,-4.2814261602489765,1.9867248953974772,-6.009471607557823,1.2642794788893035,-3.1392340035462976
0.46,1.8077034233271956,-2.2115765596857386,1.9884737656599154,-3.186009098350063,1.2653923963290368,-1.7346600343822263
0.461,1.8095578265904706,1.4329788878738643,1.990513609249518,0.5792998124939532,1.2666904786133293,0.5323935823608394
0.462,1.8116744995855782,4.903674039722805,1.9928419495441363,4.78413601879339,1.2681721497099048,2.9246004099441185
0.463,1.814051153084601,8.314309722985648,1.9954562683930614,8.524362879967168,1.2698358071592206,5.345682459993676
0.464,1.816685460390171,10.26389823705502,1.9983540064291883,10.897295096273519,1.2716798222731196,6.943342823953871
0.465,1.8195750576233425,10.9022489732682,2.001532563385677,11.711070836861268,1.2737025403363396,7.7054293181797595
0.466,1.8227175440154886,10.146808291856825,2.0049892984170374,11.132043943540094,1.275902280810842,6.864055615684744
0.467,1.826110482204212,7.7759652580313725,2.0087215304246335,8.410517987958887,1.2782773375429484,5.237724968332673
0.468,1.8297513985332339,4.482088576760206,2.0127265383865574,4.848207793586488,1.2808259789732637,2.81790516350686
0.469,1.833637783356227,0.9823725896278539,2.01700156169185,1.014519118204662,1.2835464483493588,0.5488140090237812
0.47,1.837767091344562,-1.977990480850125,2.0215438004790185,-2.2290257786905743,1.2864369639411934,-1.3786764048776818
0.471,1.842136741798937,-4.263174411713495,2.026350415978831,-4.388565748294997,1.2894957192592558,-3.119790923330258
0.472,1.846744118964848,-5.072747851882827,2.031418530861333,-5.342612203946762,1.2927208832753934,-3.8477282093517995
0.473,1.851586572351887,-4.976809187797799,2.036745229587076,-5.311900259447768,1.2961106006463208,-3.602870770689206
0.474,1.8566614170568054,-4.0789456207456,2.0423275587624863,-4.645370532677866,1.2996629919397638,-3.1437680899952922
0.475,1.8619659340903398,-3.1298813162234382,2.048162527499374,-3.815193502278805,1.3033761538632378,-2.4954931427881872
0.476,1.867497370707739,-3.0904856062864248,2.054247107778513,-3.320073545196011,1.307248159495417,-2.0574708937604713
0.477,1.8732529407429737,-2.7706050562682956,2.060578234817271,-3.122700668418317,1.3112770585200815,-1.7326253744567834
0.478,1.8792298249465933,-1.9195138302072794,2.0671528074412526,-2.6569253497533674,1.3154608774626153,-1.2853314735697086
0.479,1.8854251713271757,-0.9211876433960671,2.073967688459893,-1.8960899474754485,1.319797619929023,-0.9000900874379064
0.48,1.8918360954963678,0.6745720745058901,2.0810197050460046,-0.17498475253750922,1.3242852668474574,0.09757165816300428
0.481,1.8984596810174428,2.9015797060189907,2.0883056491191874,2.2423025018818965,1.32892177671221,1.6049023077298155
0.482,1.9052929797573674,6.06539676311524,2.095822277733104,5.2382877527752845,1.3337050858301571,3.782043877351761
0.483,1.9123330122423248,8.971539719923024,2.1035663134665574,9.231791252809138,1.3386331085696273,5.877101800428303
0.484,1.9195767680166638,11.639963666865825,2.1115344448183304,12.216087782411115,1.3437037376116645,7.978856618436845
0.485,1.9270212060052332,13.362252873864797,2.1197233266057567,13.604301497927302,1.3489148442036631,9.063138782466899
0.486,1.9346632548790637,13.507412665525383,2.12812958036697,13.903243286606225,1.3542642784153445,9.165092558746387
0.487,1.9424998134243556,11.81218360717689,2.1367497947667915,11.978132213633886,1.359749869397049,7.858012663117161
0.488,1.9505277509147518,8.679947982135896,2.1455805260062273,8.532639046567576,1.3653694256403262,5.748909527178684
0.489,1.9587439074868187,4.647084851324333,2.154618298235501,4.187680278600309,1.371120735240773,3.0861183742432403
0.49,1.967145094518746,0.4595642027951605,2.163859603970621,-0.05438670345106589,1.377001566163122,0.3063837767529404
0.491,1.9757280950121707,-2.7030228592586063,2.173300904513388,-3.7250706214927782,1.3830096665085194,-2.233217123917236
0.492,1.9844896639771443,-4.60399218583768,2.182938630374859,-6.476483744654316,1.389142764784001,-3.600867096524447
0.493,1.9934265288201418,-5.587886536111671,2.192769181702156,-7.689649014768979,1.3953985701740992,-4.164312370119899
0.494,2.0025353897351255,-5.6604467374071925,2.2027889287086384,-7.692749198223382,1.4017747728145877,-4.130822402722936
0.495,2.0118129200975825,-4.822939573705574,2.212994212107341,-6.702690453247419,1.4082690440683077,-3.4725339980942325
0.496,2.0212557668615254,-3.7096942409890454,2.223381343547678,-5.291873537486724,1.4148790368030677,-2.497557545692329
0.497,2.0308605509593827,-3.2129032441091803,2.233946606055321,-4.336852368892156,1.4216023856715678,-1.9928177241666305
0.498,2.0406238677047766,-2.234010749080819,2.2446862544752544,-3.6435072803567268,1.4284367073933435,-1.667232447428384
0.499,2.0505422871980974,-1.8108039261865463,2.255596515917907,-3.097318364333982,1.4353796010386681,-1.3067454190760492
0.5,2.0606123547348876,-1.2318987767625946,2.2666735902083763,-2.3166039908195044,1.4424286483144213,-0.9955380271511758
0.501,2.0708305912169314,-0.04050808520548399,2.2779136503386246,-0.705367318491672,1.449581413851852,-0.10322402083843818
0.502,2.0811934935660705,1.785747426967192,2.2893128429226777,1.391158030018578,1.4568354454962493,1.3331598341578943
0.503,2.0916975351406473,4.264169951983594,2.3008672886547124,4.3875066969687975,1.464188274598453,3.057627503960507
0.504,2.1023391661545654,7.0185060528279655,2.312573082770022,7.13892767002271,1.4716374163081958,4.748028798516169
0.505,2.1131148140989167,9.388679716830428,2.3244262955088084,9.512670761919901,1.4791803698692416,6.353768917305499
0.506,2.1240208841661135,10.564009816022011,2.336422972582725,10.653374590179876,1.4868146189162794,7.045176753397687
0.507,2.1350537596765173,9.88687256579723,2.348559135644169,10.259245240810108,1.4945376317735621,6.608791555387033
0.508,2.146209802507475,7.828891891610355,2.3608307827582227,8.182368890111178,1.5023468617552325,5.231973283508919
0.509,2.1574853535247573,4.565252127364182,2.373233888877233,4.602380965164105,1.5102397474673301,3.107180624984226
0.51,2.1688767330163254,0.7347994385011254,2.3857644063179584,0.9406524181098046,1.5182137131114277,0.2913563819791938
0.511,2.180380241128406,-2.867864298111086,2.398418265241247,-2.8220182351448875,1.5262661687898842,-2.072044000709763
