time,roll_setpoint,gyro_roll,pitch_setpoint,gyro_pitch,yaw_setpoint,gyro_yaw
0.0,3.221088436188455,-4.843843122930566,3.543197279807301,2.581359177663035,2.2547619053319186,3.2978647250853586
0.001,3.299582398918418,-4.368387326010737,3.62954063881026,2.6816073317521893,2.3097076792428926,2.950492771701894
0.002,3.3777459409858164,-3.8252163303002837,3.7155205350843983,2.1656410914687596,2.364422158690071,2.596914533349546
0.003,3.455574210797501,-3.7122875030007823,3.8011316318772517,2.104031192646824,2.4189019475582505,2.194331598219035
0.004,3.533062390490227,-3.2081082444887756,3.88636862953925,1.9668035004936664,2.473143673343159,1.9427239902596718
0.005,3.6102056963405573,-2.912480164536141,3.9712262659746136,1.683586083162137,2.52714398743839,1.7140445298895783
0.006,3.686999379171322,-2.885130653686207,4.055699317088455,1.90970894413132,2.580899565419925,1.5115490144696255
0.007,3.763438724754603,-2.566492289335545,4.139782597230063,1.6287436203285053,2.634407107328222,1.4082633050258258
0.008,3.839519054211185,-2.5561720046410534,4.223470959632304,1.2800238157635317,2.6876633379478294,1.1545307442719395
0.009,3.9152357244064526,-2.27002315706112,4.3067592968470985,1.2068190550546514,2.740665007084517,0.8810270260075055
0.01,3.9905841283426917,-1.906305025560248,4.389642541176961,0.93039568570194,2.793408889839884,0.7200245529013984
0.011,4.0655596955477415,-1.2441294559334661,4.472115665102516,1.1338327000805213,2.845891786883419,0.5085512803005804
0.012,4.140157892459986,-1.0431870356073671,4.5541736817059855,0.593744104038563,2.8981105247219903,0.5766340003290635
0.013,4.214374222809629,-1.1201895014268377,4.635811645090592,0.46601500622164405,2.95006195596674,0.5277748577746922
0.014,4.28820422799622,-1.386126875394444,4.7170246507958415,0.004882743100939835,3.0017429595973537,0.3885291473454207
0.015,4.3616434874624,-1.1515432259473095,4.797807836208641,0.08114604233018753,3.05315044122368,0.5108370165061294
0.016,4.4346876190638245,-1.1490107884152594,4.878156380970207,0.2929505912412711,3.104281333344677,0.3748671548894199
0.017,4.507332279435237,-1.5674484824101445,4.958065507378761,0.3640078713146162,3.1551325956046656,0.4037614138187431
0.018,4.5795731643526425,-1.5332817019076495,5.0375304807879075,0.5504753225152619,3.2057012150468496,0.6750872919848896
0.019,4.651406009091567,-1.610873552174353,5.116546610000724,0.24306390028948172,3.2559842063640967,0.6048311836074886
0.02,4.722826588781357,-1.0834345851185505,5.195109247659493,0.239714265429164,3.30597861214695,0.6847213838293511
0.021,4.793830718755473,-1.1772776112133283,5.27321379063102,0.21251731416351338,3.3556815031288307,0.5151043962793689
0.022,4.864414254897774,-1.1231756310999776,5.350855680387552,0.14879361021086873,3.4050899784284416,0.4677028140415951
0.023,4.934573093984735,-1.0308100695219833,5.428030403383209,-0.03808976770620087,3.454201165789314,0.45667244874392915
0.024,5.004303174023567,-0.9014860518475907,5.504733491425925,0.08381746875065017,3.5030122218164967,0.4300164829409078
0.025,5.073600474586228,-0.6161171513825479,5.580960522044851,-0.20233464472602442,3.5515203322103592,0.2530765018673957
0.026,5.142461017139256,-0.4953174672421633,5.656707118853182,-0.18405334635531181,3.599722711997479,0.1354641976370899
0.027,5.210880865369442,-0.553168651362059,5.731968951906387,-0.13637699753013133,3.6476166057586092,-0.012841356776125606
0.028,5.278856125505255,-0.6278421422836395,5.8067417380557815,-0.19928099273037056,3.6951992878536783,0.04194203871066318
0.029,5.346382946634043,-0.7108591064547266,5.881021241297448,-0.457844304801865,3.7424680626438303,-0.06165008102011049
0.03,5.413457521014937,-0.25546805500442077,5.954803273116432,-0.34928919935740294,3.7894202647104556,-0.09593833242617228
0.031,5.480076084387463,-0.24568438788438304,6.028083692826209,-0.22277122289401324,3.8360532590712237,-0.24229701259163058
0.032,5.546234916275796,-0.18137117047564763,6.100858407903376,-0.2954264125160973,3.8823644413930567,-0.29260725318040215
0.033,5.611930340288663,-0.16784787127039635,6.17312337431753,-0.24959355080113624,3.928351238202064,-0.08532256808342079
0.034,5.6771587244148485,-0.5027444157040108,6.2448745968563335,-0.39583169364650334,3.974011107090394,-0.14048364007122266
0.035,5.741916481314269,-0.1603699435616635,6.316108129445697,-0.06145629365295002,4.019341536919988,-0.3431188258976212
0.036,5.806200068604601,-0.3410282984109376,6.386820075465061,0.3901391126930551,4.064340048023221,-0.16630189009873156
0.037,5.8700059891434355,-0.335679720514554,6.457006588057779,0.4245842984318596,4.109004192400405,-0.042457398235067154
0.038,5.933330791305923,-0.25959068326349355,6.526663870436516,0.5282767941726306,4.153331553914145,0.07623296541663728
0.039,5.996171069257885,-0.48279605136599435,6.5957881761836745,0.8081136183189584,4.19731974848052,0.14315341443526342
0.04,6.058523463224383,-0.49480065702833964,6.664375809546822,0.7968507227969158,4.240966424257068,0.2315843621171476
0.041,6.120384659753688,-0.3989912451625519,6.732423125729057,0.9954289977165725,4.284269261827581,0.05053900278582135
0.042,6.181751391976656,-0.01032594576800866,6.7999265311743216,0.6501975300287882,4.3272259743836585,0.030991252082346182
0.043,6.242620439861469,-0.27758515838157377,6.866882483847616,0.06371840825663266,4.3698343079030275,0.03959253381315719
0.044,6.302988630463721,-0.11395979043000284,6.933287493510094,0.20056510646224235,4.4120920413246045,0.21792959599401446
0.045,6.3628528381718334,0.09580306811925743,6.999138121989017,0.37735106315136135,4.453996986720283,0.010265796351294154
0.046,6.422209984947755,-0.12574088175962342,7.064430983442531,0.24514743103265013,4.495546989463429,-0.17267339030607398
0.047,6.481057040562951,-0.05966843757446713,7.129162744619247,0.05229089522494432,4.5367399283940655,-0.12738307661467246
0.048,6.5393910228296495,0.15571162418109674,7.193330125112615,0.07751272635576151,4.577573715980754,-0.11594625629205836
0.049,6.597208997827305,0.38940162221915364,7.2569298976100365,-0.016805617907519443,4.618046298479113,0.047067792389613464
0.05,6.654508080124296,0.2552691536212978,7.319958888136727,0.4028515166186474,4.658155656087007,0.07838869573154562
0.051,6.711285432994797,0.3777335980857839,7.382413976294277,0.1310614472776631,4.697899803096357,0.05618676720751033
0.052,6.76753826863083,0.8399073264745975,7.444292095493913,0.21606648509087722,4.73727678804158,0.21449926839667172
0.053,6.82326384834947,0.7158941401598489,7.505590233184417,0.32131021567037316,4.776284693844628,0.22097464571128783
0.054,6.878459482795181,0.9850867633686867,7.566305431074699,0.2805400727935923,4.814921637956626,0.21915682968920056
0.055,6.933122532137267,1.2832999728033587,7.626434785350994,0.5179635651831955,4.8531857724960865,0.2328319219407587
0.056,6.987250406262419,1.6479009914642082,7.685975446888661,0.6191378991737873,4.891075284383692,0.4991111806677812
0.057,7.0408405649623464,1.4327069505194188,7.744924621458582,1.02911141235528,4.928588395473642,0.6479762009676134
0.058,7.093890518116458,1.4125247247330572,7.803279569928105,1.5166413875013043,4.96572336268152,0.6472191604722395
0.059,7.1463978258696095,1.6007062763116413,7.861037608456571,0.9785959065458724,5.002478478108726,0.8935162491902746
0.06,7.198360098804855,1.730525163042028,7.918196108685342,1.2184070749107647,5.038852069163398,0.9888384445578707
0.061,7.249774998111233,1.3927923860900822,7.974752497922357,1.1455224998282025,5.074842498677863,0.943572452901456
0.062,7.30064023574654,1.7686113818058344,8.030704259321194,1.6089452535739646,5.110448165022578,1.007083202313868
0.063,7.350953574595092,1.6701020984235768,8.086048932054602,1.7344947460965543,5.145667502216564,1.1698136234097696
0.064,7.400712828620459,1.526649320827053,8.140784111482505,1.5798147642587814,5.180498980034321,1.0908795765679324
0.065,7.449915863013141,1.8353201260533314,8.194907449314455,1.528858925147543,5.214941104109198,1.1715093447490028
0.066,7.498560594333212,1.8124441724225193,8.248416653766535,1.406101446029501,5.248992416033248,1.0553964441393595
0.067,7.546644990647877,2.200797604919325,8.301309489712665,1.6064182449322717,5.282651493453514,1.2850780318782533
0.068,7.594167071663945,2.192599032503888,8.35358377883034,1.3913743589282248,5.315916950164761,1.2649184962986924
0.069,7.641124908855225,2.2239830015488957,8.405237399740749,1.451507126124965,5.348787436198657,1.3631446226211281
0.07,7.687516625584808,2.2043435142913483,8.45626828814329,1.247411508450281,5.381261637909366,1.4292091056368426
0.071,7.733340397222232,2.0192105076036513,8.506674436944456,1.5871151576921627,5.413338278055562,1.6449296371518547
0.072,7.77859445125553,2.215144516349835,8.556453896381084,1.6730967854383585,5.445016115878871,1.6283150829417163
0.073,7.8232770673981396,2.4391450242852657,8.605604774137953,1.888659397190302,5.476293947178697,1.6548096327385855
0.074,7.867386577690672,2.6113815002136316,8.65412523545974,1.993898197204081,5.50717060438347,1.7984808607268237
0.075,7.910921366597526,2.7496033051033235,8.702013503257279,1.771162643142677,5.5376449566182675,2.091583256780927
0.076,7.953879871098349,2.9904668278618702,8.749267858208185,1.8215317072959059,5.567715909768844,2.2023589633135927
0.077,7.996260580774324,2.9044001306794827,8.795886638851757,1.9821948303723071,5.597382406542026,2.2568635859443194
0.078,8.038062037889294,3.1250236746482765,8.841868241678224,1.9678957658316136,5.626643426522505,2.2676931044745245
0.079,8.07928283746568,3.2573329677704526,8.887211121212248,1.8332342875246659,5.655497986225976,2.050949238778922
0.08,8.119921627355257,3.2271907000676197,8.931913790090784,2.438127553638193,5.68394513914868,1.959901345963109
0.081,8.159977108304703,3.121942089902868,8.975974819135175,2.3023713870371476,5.711983975813292,1.9787047785413143
0.082,8.199448034015951,3.085530242474541,9.019392837417547,2.2716919192094744,5.739613623811166,2.193485376214249
0.083,8.238333211201375,2.884651878503572,9.062166532321514,2.4249752560368685,5.766833247840962,2.022894104893794
0.084,8.27663149963373,3.062309097210217,9.104294649597104,2.4927638304128745,5.79364204974361,2.0485518237414215
0.085,8.314341812190914,3.1492956967345584,9.145775993410007,2.706872474800827,5.820039268533639,1.8390561637739953
0.086,8.351463114895509,3.1798153587279425,9.186609426385061,2.6702397740670794,5.846024180426856,1.8818246950507058
0.087,8.387994426949106,3.2694030195080526,9.226793869644018,2.7351900633256885,5.871596098864374,1.7929927191300712
0.088,8.423934820761426,3.582248381702506,9.26632830283757,2.9709676255725936,5.896754374532998,1.8385109176346344
0.089,8.459283421974213,3.6183419036205313,9.305211764171634,3.114033739647927,5.921498395381949,1.6500529268439812
0.09,8.494039409479925,3.81598018067666,9.343443350427918,3.4438699226521083,5.9458275866359465,1.5951870790358669
0.091,8.528202015435198,3.9794020190048323,9.38102221697872,3.5306633535837126,5.969741410804638,1.7889721842488842
0.092,8.5617705252691,3.8508403851933766,9.417947577796012,3.5375527211613256,5.9932393676883695,1.8331812495181954
0.093,8.594744277686168,4.051849941297945,9.454218705454785,3.832919022741311,6.016320994380317,1.906971565482993
0.094,8.627122664664231,4.100715189680132,9.489834931130655,3.741079622709182,6.038985865264961,1.9937189483875222
0.095,8.65890513144703,4.162984315884943,9.524795644591734,3.7582611198228024,6.061233592012921,2.073048020485544
0.096,8.690091176531613,4.106617325856651,9.559100294184775,3.783858519215358,6.083063823572129,2.054822195276148
0.097,8.720680351650541,3.8142533041760345,9.592748386815597,3.978681013041781,6.104476246155379,2.292456010863224
0.098,8.750672261748878,3.4476902310874062,9.625739487923767,4.216781221782336,6.125470583224215,2.6301017163422977
0.099,8.780066564955995,3.2752514329546467,9.658073221451595,4.224605547146678,6.146046595469196,2.5639699568336702
0.1,8.80886297255217,3.432502676016225,9.689749269807388,4.221162476299053,6.166204080786518,2.646303600108142
0.101,8.837061248930006,3.3950638770734556,9.720767373823007,4.2292535762276575,6.185942874251004,2.777029009467911
0.102,8.864661211550661,3.3018963183751056,9.751127332705728,4.318161761724054,6.205262848085463,2.864910656092129
0.103,8.891662730894913,3.410269534731836,9.780829003984405,4.446611183048654,6.224163911626438,2.9341928314997467
0.104,8.918065730409031,3.3825991590718645,9.809872303449936,4.635626552544404,6.242646011286322,2.9550629899113514
0.105,8.943870186445512,3.6702289516020246,9.838257205090065,4.326305806393029,6.260709130511858,2.978129663679548
0.106,8.969076128198637,3.9574501832369244,9.865983741018502,4.262507008628969,6.278353289739045,2.9757442618764127
0.107,8.9936836376349,4.203828214991421,9.893052001398392,4.537779768653364,6.29557854634443,3.130043083311495
0.108,9.017692849418289,4.338233264506673,9.919462134360119,4.343119038655474,6.312384994592802,3.0629836973065316
0.109,9.04110395083043,4.182098589828835,9.945214345913472,4.147708069151678,6.3287727655813,2.9255779950012584
0.11,9.063917181685632,4.254001935115314,9.970308899854196,4.329479241827922,6.344742027179942,2.863663036427187
0.111,9.086132834240804,4.313455698170495,9.994746117664885,4.099759930579811,6.360292983968562,3.0332923598745563
0.112,9.107751253100284,4.432082439503458,10.018526378410314,4.335947283252617,6.375425877170199,2.9404282981244956
0.113,9.128772835115576,4.444386989058964,10.041650118627135,4.608848827839555,6.390140984580903,3.102427533293568
0.114,9.149198029280011,4.548243752033978,10.064117832208014,4.958595513136514,6.404438620496007,3.1517389371288886
0.115,9.169027336618353,4.559117447941246,10.085930070280188,5.066485571864611,6.418319135632847,3.152216934120318
0.116,9.18826131007134,4.797180552275484,10.107087441078475,5.157884118390835,6.431782917049937,3.1415119153423916
0.117,9.206900554375213,4.605201971872764,10.127590609812735,4.65653207245939,6.444830388062649,3.1784039417770256
0.118,9.224945725936184,4.654770041760876,10.147440298529803,4.626890766264204,6.4574620081553284,3.293470980506687
0.119,9.242397532699936,4.707277267162553,10.16663728596993,4.973314193894355,6.469678272889955,3.2530133063313413
0.12,9.259256734016097,4.591009535501129,10.185182407417708,4.7935565503814725,6.481479713811267,3.1285481981371617
0.121,9.275524140497758,4.508182282491379,10.203076554547534,4.723554259294805,6.492866898348431,3.3459928390613087
0.122,9.291200613876011,4.4273164050004015,10.220320675263613,4.907767604617381,6.5038404297132075,3.5823334469229584
0.123,9.306287066849553,4.6143772468516655,10.236915773534509,5.128125927763305,6.514400946794686,3.689903892846722
0.124,9.32078446292935,4.488640064742171,10.252862909222285,5.295636869236194,6.524549124050544,3.7306181369509934
0.125,9.334693816278396,4.357158030662399,10.268163197906237,5.477808866681775,6.534285671394876,3.7967831956008498
0.126,9.34801619154658,4.227390064191548,10.28281781070124,5.7322919874295435,6.543611334082606,3.685645035157947
0.127,9.360752703700658,4.326440237221581,10.296827974070725,5.905329304920048,6.5525268925904605,3.6405352325424776
0.128,9.372904517849397,4.18751729649021,10.310194969634338,6.141850126431968,6.561033162494578,3.9259643861045057
0.129,9.384472849063851,4.214837252611539,10.322920133970237,6.068998624743569,6.569130994344695,3.77149633058244
0.13,9.395458962192835,4.395193733423246,10.33500485841212,5.933776379308529,6.576821273534985,3.8006784532165674
0.131,9.405864171673603,4.631402170351038,10.346450588840964,6.268534233439058,6.584104920171521,3.754937316371573
0.132,9.415689841337734,5.053142820938447,10.357258825471508,6.265704299463483,6.590982888936414,3.7459634282791487
0.133,9.42493738421227,5.0378223195074305,10.367431122633498,6.328022340961732,6.5974561689485895,3.689864173683353
0.134,9.433608262316135,5.201892549507105,10.37696908854775,6.22258847156321,6.6035257836212935,3.6414760858575943
0.135,9.441703986451794,5.2829959603851,10.385874385096974,5.914263007329556,6.609192790516255,3.479311014881326
0.136,9.449226115992277,5.231052709803007,10.394148727591505,6.137906659429597,6.614458281194593,3.580090079818571
0.137,9.4561762586635,5.132431494146219,10.401793884529852,6.304221019014504,6.61932338106445,3.5608430351249307
0.138,9.462556070321966,5.229042765570867,10.408811677354164,6.4375286778742495,6.623789249225376,3.606555249474576
0.139,9.468367254727813,5.373091307005727,10.415203980200594,6.14600769295538,6.627857078309469,3.728053808126586
0.14,9.473611563313298,5.345273177291567,10.42097271964463,6.177568488965368,6.631528094319308,3.604010000873223
0.141,9.478290794946707,5.351370462535585,10.426119874441378,6.386230635673297,6.634803556462694,3.59200409749967
0.142,9.482406795691702,5.639246943014621,10.430647475260873,6.142336979192616,6.637684756984191,3.5248860877179773
0.143,9.485961458562159,5.948811285711602,10.434557604418375,5.967217816964913,6.640173020993511,3.5714477553964894
0.144,9.488956723272521,5.860181565068747,10.437852395599775,6.062149116503474,6.642269706290764,3.615372652636401
0.145,9.49139457598367,5.903764937770753,10.440534033582036,5.871447515366174,6.6439762031885685,3.6354756254766203
0.146,9.493277049044373,6.044134517278589,10.44260475394881,5.424214410003583,6.645293934331061,3.887999165394853
0.147,9.494606220728304,6.012469417759299,10.444066842801135,5.424830731666833,6.646224354509813,3.9894559876063824
0.148,9.495384214966695,5.895494892097036,10.444922636463366,5.365203782775952,6.646768950476686,3.823583524857013
0.149,9.495613201076615,5.935840430639026,10.445174521184278,5.583094445777131,6.6469292407536305,3.876902485681011
0.15,9.495295393484954,6.07209489383539,10.44482493283345,5.859351161089525,6.646706775439467,3.708301540345005
0.151,9.494433051448059,6.116688056801132,10.443876356592865,5.783991149576227,6.646103136013641,3.8014093183618733
0.152,9.493028478767169,6.108254788748804,10.442331326643886,6.349161755739222,6.645119935137018,3.7078071422593295
0.153,9.491084023499546,5.86505129502288,10.440192425849501,6.437077682209344,6.643758816449682,3.673607232704924
0.154,9.488602077665455,5.9284123885581845,10.437462285432002,6.301101739702011,6.642021454365818,3.7592271960619006
0.155,9.485585076950926,5.853331499735167,10.43414358464602,6.457059098281526,6.639909553865648,3.6296015797753367
0.156,9.482035500406411,5.936894976788292,10.430239050447053,6.560813666705108,6.6374248502844875,3.7650944405296016
0.157,9.477955870141287,5.833762215394576,10.425751457155416,6.675380287884113,6.6345691090989005,3.758021049034906
0.158,9.473348751014328,5.781253478260695,10.42068362611576,7.001841278658626,6.631344125710029,3.701177642343419
0.159,9.46821675032008,6.142106148181852,10.415038425352089,6.761736471951137,6.627751725224056,3.688592525136171
0.16,9.462562517471255,6.186623603236546,10.408818769218382,6.894030200694387,6.623793762229878,3.6388891983169516
0.161,9.456388743677138,5.7241061579745995,10.402027618044853,6.8946241115927425,6.619472120573996,3.593315077430278
0.162,9.449698161618043,6.001255042242102,10.394667977779848,6.517392137889341,6.61478871313263,3.6770819591782997
0.163,9.442493545115852,5.772015992832696,10.386742899627437,6.23113851180582,6.609745481581096,3.9661561972649073
0.164,9.434777708800691,5.663474542517633,10.378255479680762,6.529850887375025,6.604344396160483,4.080522830913978
0.165,9.426553507773752,5.702224311043621,10.369208858551128,6.728323741338646,6.598587455441626,4.021136967825104
0.166,9.417823837266303,5.946390166042029,10.359606220992934,7.062088974660611,6.592476686086411,3.9925811851351227
0.167,9.408591632294945,6.02467236135877,10.34945079552444,7.0978512998385135,6.586014142606461,3.8451928143861815
0.168,9.398859867313115,5.749228223739393,10.338745854044427,6.7042590608242545,6.57920190711918,3.869629930824582
0.169,9.388631555858904,5.8855935663425125,10.327494711444794,6.671583152746956,6.572042089101233,3.8672675675082924
0.17,9.377909750199194,5.843770526932709,10.315700725219115,6.653065434144781,6.564536825139435,3.8422399235782323
0.171,9.3666975409702,5.8437046095027965,10.303367295067222,6.6630462452296655,6.55668827867914,3.969884339223992
0.172,9.354998056814399,5.794193711934783,10.290497862495839,6.482029772069721,6.548498639770079,3.9825041699842476
0.173,9.342814464013909,5.674902029055377,10.2770959104153,6.8132299554871425,6.539970124809736,4.068307656586568
0.174,9.330149966120391,5.57089061012274,10.26316496273243,6.650332706322383,6.531104976284274,4.164544506278328
0.175,9.31700780358143,5.7865751106312135,10.248708583939573,6.691289296383937,6.521905462507,4.2009943523061475
0.176,9.303391253363527,5.698823768520181,10.23373037869988,6.563332557214754,6.512373877354468,4.257846209037669
0.177,9.289303628571663,5.540804129047848,10.21823399142883,6.749479848142684,6.502512540000163,4.265098225339995
0.178,9.274748278065541,5.49599189482978,10.202223105872095,6.513051144429474,6.492323794645879,4.394220074145734
0.179,9.259728586072473,5.566109910435816,10.18570144467972,6.287554031139973,6.481810010250731,4.4891242668440245
0.18,9.244247971797048,5.738529668943423,10.168672768976753,6.572729508026693,6.470973580257933,4.395902713475496
0.181,9.22830988902751,5.864793049709952,10.151140877930262,6.715760082242947,6.459816922319257,4.570844793680256
0.182,9.211917825738986,5.890293943502325,10.133109608312886,7.103943063843476,6.44834247801729,4.535016481335421
0.183,9.195075303693534,5.792600987983684,10.114582834062888,7.150546106313812,6.436552712585473,4.542777979279403
0.184,9.177785878037115,5.669368824512916,10.095564465840827,7.20303287278535,6.42445011462598,4.59342340033746
0.185,9.160053136893463,5.917329155724252,10.07605845058281,7.003164196279036,6.412037195825424,4.71743610685718
0.186,9.141880700954951,6.072614949618943,10.056068771050448,7.26348822817279,6.399316490668466,4.773719545877668
0.187,9.123272223070467,6.209438922284884,10.035599445377514,7.454963465341724,6.386290556149326,4.78407115281466
0.188,9.104231387830358,6.283709121915755,10.014654526613395,7.633070958301314,6.37296197148125,4.730689226141828
0.189,9.084761911148467,6.371986580565245,9.993238102263314,7.652826304705249,6.3593333378039265,4.558263294548482
0.19,9.064867539841323,6.401221850855241,9.971354293825456,7.5046385579908055,6.345407277888926,4.7137960893067286
0.191,9.044552051204521,6.276666371985044,9.949007256324974,7.481760316011264,6.331186435843164,4.807778649216904
0.192,9.023819252586343,6.621653182312467,9.926201177844977,7.507942264631955,6.31667347681044,4.737765169627852
0.193,9.002672980958634,6.352213041069572,9.902940279054498,7.450539792848338,6.301871086671043,4.792561827905597
0.194,8.98111710248504,6.131234979530754,9.879228812733546,7.368823516933773,6.2867819717395275,4.694250652474325
0.195,8.959155512086577,6.260253025123311,9.855071063295235,7.51869478763738,6.271408858460603,4.8148070223957395
0.196,8.936792133004632,6.348291279631861,9.830471346305096,7.713692861189615,6.255754493103242,4.966038246828257
0.197,8.914030916361419,6.72995423744509,9.805434007997562,7.485726756734135,6.239821641452993,5.09830861613624
0.198,8.890875840717941,6.766344728975512,9.779963424789736,7.507085778382176,6.2236130885025585,5.179075302589193
0.199,8.8673309116295,6.7658753850873055,9.75406400279245,7.816328277989624,6.207131638140649,5.170077624663041
0.2,8.843400161198787,6.929257531849708,9.727740177318665,7.623239690237938,6.190380112839151,5.276143164715471
0.201,8.819087647626652,7.33750763613991,9.700996412389319,7.535653243277049,6.173361353338656,5.236113141661139
0.202,8.794397454760514,7.369715523803991,9.673837200236566,7.356152185905098,6.156078218332359,4.8788753010607255
0.203,8.769333691640556,7.055637499200679,9.646267060804613,7.3345417985465255,6.138533584148389,4.73549124684372
0.204,8.74390049204365,7.391568028740406,9.618290541248015,7.395458616671736,6.120730344430555,4.585982109472292
0.205,8.718102014025147,7.332255228438268,9.589912215427663,7.410311772445769,6.102671409817603,4.608021640936199
0.206,8.691942439458552,7.291802594506732,9.561136683404408,7.5765057944487015,6.084359707620986,4.722865641822075
0.207,8.665425973573068,6.828270061917856,9.531968570930376,7.573197995737386,6.0657981815011475,4.670970017091565
0.208,8.63855684448918,6.670648718855568,9.502412528938098,7.628415517878058,6.046989791142426,4.708858052485459
0.209,8.611339302752206,6.492614479885491,9.472473233027427,7.508460736978138,6.027937511926544,4.662471499517322
0.21,8.583777620863946,6.41710720037851,9.442155382950341,7.264684914025279,6.008644334604762,4.8281130261255685
0.211,8.555876092812435,6.586166226027198,9.411463702093679,7.652605379359292,5.9891132649687036,4.817467111318359
0.212,8.52763903359985,6.255054631166689,9.380402936959836,7.7544583104289515,5.969347323519895,4.629187891893093
0.213,8.499070778768669,5.902112829095659,9.348977856645536,7.561857061879696,5.949349545138068,4.600139271644432
0.214,8.470175683926028,6.242799420917842,9.317193252318631,7.536819150816933,5.929122978748219,4.57772341605277
0.215,8.440958124266466,6.364462486468681,9.285053936693114,7.6524785733473095,5.908670686986525,4.571905018306011
0.216,8.411422494092951,6.361403372588705,9.252564743502248,7.550304642942853,5.887995745865066,4.500864728555717
0.217,8.381573206336393,6.492525198601423,9.219730526970032,7.527159032116835,5.867101244435474,4.605080343505174
0.218,8.351414692073535,6.44765979366991,9.186556161280889,7.6133092592080125,5.8459902844514735,4.780105181886349
0.219,8.32095140004344,6.268128359998119,9.153046540047784,7.662157704638842,5.8246659800304075,4.705166054271657
0.22,8.29018779616245,6.06370309687726,9.119206575778694,7.313009607218604,5.8031314573137145,4.607270298545608
0.221,8.25912836303783,6.120721168612981,9.085041199341614,7.305511278203908,5.7813898541264805,4.591429286789973
0.222,8.227777599480001,6.175172272963637,9.050555359428003,6.960991706691746,5.759444319636001,4.685223640312364
0.223,8.196140020013551,6.0587614529836085,9.015754022014907,7.049967061492121,5.737298014009486,4.545433169494445
0.224,8.164220154386934,6.24957959754693,8.980642169825629,7.130077210514081,5.714954108070853,4.715504025116492
0.225,8.13202254708104,6.415610448779122,8.945224801789143,7.161310592539722,5.6924157829567275,4.645921687037315
0.226,8.099551756816574,6.142607929201396,8.909506932498232,7.295246926160996,5.669686229771601,4.57497826660629
0.227,8.066812356060401,6.384217135392558,8.873493591666442,6.9214211085824155,5.64676864924228,4.633981411029653
0.228,8.033808930530784,6.3638492207440684,8.837189823583863,6.878608925529209,5.6236662513715485,4.361826726619308
0.229,8.000546078701703,6.27834610098966,8.800600686571874,6.785802058105945,5.6003822550911915,4.507468996459413
0.23,7.967028411306167,6.405365918635989,8.763731252436784,6.734005479485779,5.5769198879143165,4.823346225831861
0.231,7.933260550838723,6.338205716162022,8.726586605922595,6.616600871230569,5.553282385587106,5.022476219135059
0.232,7.899247131057032,6.00178996087404,8.689171844162736,6.558548275019884,5.529472991739922,5.075239054467828
0.233,7.86499279648276,5.946749780958994,8.651492076131037,6.360892473134012,5.505494957537931,5.139655013274863
0.234,7.830502201901646,5.8508715821312665,8.61355242209181,6.422403618241619,5.4813515413311515,5.071155797203812
0.235,7.795780011862973,5.851785012365699,8.575358013049271,6.54512409187226,5.457046008304081,5.014510283150997
0.236,7.760830900178323,5.983838365119239,8.536913990196156,6.765256588294678,5.432581630124826,4.826716948991008
0.237,7.725659549419841,5.868542038626388,8.498225504361825,6.747532225571893,5.4079616845938885,4.724960783245442
0.238,7.690270650417884,6.152767152108996,8.459297715459673,6.931725263731828,5.383189455292518,4.594770118351751
0.239,7.654668901758282,6.193173920758418,8.420135791934111,6.9060769573858485,5.358268231230797,4.666403133085758
0.24,7.61885900927909,6.307548194526923,8.380744910207,7.160020386433278,5.333201306495362,4.626189094095802
0.241,7.582845685567045,6.216086976074926,8.34113025412375,7.218817099917514,5.307991979896931,4.573148965858751
0.242,7.54663364945363,6.474795177672876,8.301297014398994,7.121631515736279,5.2826435546175405,4.584915163096671
0.243,7.510227625510939,6.616091450592409,8.261250388062033,7.331078114882503,5.257159337857657,4.614412867703937
0.244,7.47363234354725,6.349930067304404,8.220995577901975,7.168218640668143,5.231542640483075,4.721960093157697
0.245,7.436852538102515,6.299331480115177,8.180537791912768,7.238970349882161,5.20579677667176,4.526257184119723
0.246,7.3998929479436475,6.728971256718672,8.139882242738013,7.054159275537526,5.179925063560553,4.535667013412392
0.247,7.3627583155598275,6.995840574930078,8.09903414711581,7.254137521475734,5.153930820891879,4.662180251059898
0.248,7.3254533866577285,6.957185295725851,8.057998725323502,7.560964862912587,5.127817370660409,4.757588232547197
0.249,7.287982909656843,7.101260572815715,8.016781200622528,7.130069986405439,5.1015880367597894,4.98749655788111
0.25,7.2503516351848445,6.950155196053317,7.97538679870333,7.080516864797386,5.075246144629391,4.91273142420577
0.251,7.212564315573152,7.066964122192394,7.933820747130468,7.471184179553731,5.048795020901206,4.968801502356603
0.252,7.174625704352627,6.770443332999765,7.89208827478789,7.244009481968398,5.022237993046838,4.650692467551656
0.253,7.136540555749578,6.444555813568675,7.850194611324537,7.143494304068429,4.995578389024704,4.618447657811322
0.254,7.098313624182009,6.814639719485408,7.808144986600211,7.139936306050428,4.968819536927406,4.561806061396103
0.255,7.059949663756272,6.85940071235534,7.7659446301319,7.021060485992237,4.94196476462939,4.687076317524557
0.256,7.0214534277640634,6.6657648520242265,7.7235987705404705,7.320223682532411,4.915017399434844,4.741508703634969
0.257,6.982829668179929,6.7468741007661075,7.681112634997922,7.527627495231894,4.88798076772595,4.6162043780631485
0.258,6.944083135159224,6.7714943750626615,7.638491448675147,7.158717867606887,4.860858194611457,4.537121804804876
0.259,6.905218576536675,6.4055879473362065,7.595740434190343,7.060303709889378,4.833653003575672,4.403727194755077
0.26,6.866240737325496,6.435732489872823,7.552864811058046,7.376008161059763,4.806368516127847,4.505713908411786
0.261,6.827154359217225,6.541194847073036,7.509869795138948,7.176124169008492,4.779008051452057,4.561304923076424
0.262,6.7879641800821995,6.81428192710432,7.46676059809042,7.173599206407565,4.75157492605754,4.26976202563564
0.263,6.748674933470865,6.665206541834161,7.423542426817953,6.878568576490478,4.7240724534296055,4.105762499762652
0.264,6.709291348115822,6.25790857880195,7.380220482927404,7.018009657253232,4.696503943681075,4.096793717906053
0.265,6.6698181474348015,6.080561613393249,7.336799962178282,7.068708075082949,4.668872703204361,4.225211787759222
0.266,6.630260049034488,5.932529542248581,7.293286053937938,6.877124064421268,4.6411820343241414,4.016288122473381
0.267,6.59062176421538,5.8531034151590084,7.249683940636919,7.008018295181451,4.613435234950766,4.0872396460518345
0.268,6.550907997477579,5.875309407348221,7.205998797225337,6.764844422023767,4.5856355982343056,4.0061984344922825
0.269,6.5111234460277165,5.927705208396921,7.162235790630489,6.972057473859166,4.557786412219401,4.019790330561661
0.27,6.471272799286959,6.28472289402397,7.118400079215656,7.154623517261862,4.529890959500871,4.057774861769714
0.271,6.431360738400166,5.88580519737015,7.074496812240183,7.2355821445003174,4.501952516880116,4.077673263737622
0.272,6.391391935746305,5.483360682044817,7.030531129320936,7.204566946663675,4.473974355022413,3.7990522028208895
0.273,6.351371054450077,5.446168378932269,6.986508159895085,6.97582902333841,4.445959738115054,4.221134579193236
0.274,6.311302747894917,5.251654179527305,6.942433022684409,6.713606945465087,4.417911923526441,4.367542624455058
0.275,6.271191659237288,5.2239324803699505,6.898310825161017,6.8561964575880205,4.389834161466101,4.363592254179486
0.276,6.23104242092246,4.948411875099456,6.854146663014706,6.393707478653857,4.361729694645722,4.257629659813276
0.277,6.1908596542016845,5.316309420963995,6.809945619621853,6.210636020727585,4.333601757941179,4.26246812736838
0.278,6.150647968650945,5.677642067358017,6.7657127655160405,6.298541121441173,4.305453578055661,4.154823718345057
0.279,6.110411961691203,5.679924796900153,6.721453157860324,6.184841807026339,4.277288373183842,4.133397462657812
0.28,6.070156218110315,6.023252129867102,6.677171839921346,6.524583054342821,4.24910935267722,4.266700275687038
0.281,6.029885309586552,6.453436367272132,6.632873840545208,6.326516748160637,4.220919716710586,4.1737614451670035
0.282,5.989603794213879,6.353542055460158,6.588564173635268,6.166412063752385,4.192722655949716,4.206736167311038
0.283,5.94931621602894,6.381929462014074,6.5442478376318345,6.057971856168432,4.164521351220258,4.3161012331406114
0.284,5.9090271045398755,6.055654778700608,6.499929814993863,5.848990404536194,4.136318973177913,4.392668234054664
0.285,5.868740974256994,5.900096704620791,6.455615071682694,6.112124763238459,4.108118681979896,4.36776726954144
0.286,5.82846232422531,6.120176161287461,6.411308556647842,5.767976631636316,4.079923626957717,4.251163226707092
0.287,5.788195637559081,6.18550788936372,6.36701520131499,5.815892001746771,4.051736946291356,4.430975823845573
0.288,5.7479453809782655,6.1222660533073485,6.322739919076093,6.161187800934313,4.023561766684786,4.566348740404931
0.289,5.707716004347111,6.135026329306556,6.278487604781822,6.29500693999136,3.9954012030429773,4.431612762765738
0.29,5.667511940214732,6.238877443786557,6.234263134236206,6.311457797860691,3.9672583581503122,4.442034475108736
0.291,5.627337603357918,6.3857509864804145,6.19007136369371,6.149988499881318,3.9391363223505422,4.275927380082722
0.292,5.5871973903260335,6.252971701535491,6.145917129358637,6.074380505104554,3.9110381732282233,4.16905108243367
0.293,5.547095678988222,6.108572936682704,6.101805246887045,6.187298058641499,3.882966975291755,4.351113288845906
0.294,5.507036828082819,6.071770436275609,6.057740510891101,6.547586147241879,3.8549257796579726,4.228356598733931
0.295,5.467025176769138,5.833619963687722,6.013727694446052,6.420731025623631,3.826917623738396,4.164774515765258
0.296,5.427065044181566,5.719801618732091,5.969771548599723,5.996586339974997,3.798945530927096,4.18851222246019
0.297,5.387160728986127,5.832902529623443,5.9258768018847405,6.224985348941077,3.771012510290289,4.157949659608534
0.298,5.347316508939439,5.861837526108383,5.882048159833384,6.209651758956744,3.743121556257607,4.158808172482643
0.299,5.307536640450233,6.050293142099178,5.838290304495257,6.203870653635691,3.715275648315163,4.189028767251892
0.3,5.267825358143346,5.897401777275864,5.794607893957681,6.054334527039108,3.6874777507003422,3.874601873623092
0.301,5.228186874426374,6.1274317098622415,5.751005561869012,5.85498855713383,3.6597308120984615,3.9237901743077495
0.302,5.188625379058888,5.9429214213470125,5.707487916964777,5.510346186426262,3.6320377653412215,3.9056879255397794
0.303,5.149145038724393,5.7555859336958095,5.664059542596833,5.611564257507739,3.604401527107075,3.5516545549187084
0.304,5.109749996604938,5.43680481315544,5.620724996265432,5.789541167001105,3.5768249976234565,3.4918338247414997
0.305,5.070444371958542,4.971489128390649,5.5774888091543975,5.888237211803961,3.549311060370979,3.609313795375352
0.306,5.03123225969939,5.1004157790154405,5.534355485669329,5.746685714444044,3.521862581789573,3.6918171435082026
0.307,4.9921177299809045,5.113203379743119,5.491329502978996,6.183542816955568,3.494482410986633,3.7048115044448116
0.308,4.953104827781667,5.207937987625763,5.448415310559834,6.421201232985407,3.467173379447167,3.603300284935532
0.309,4.914197572494326,5.179036872269441,5.40561732974376,6.491680895987356,3.4399383007460282,3.655864358382486
0.31,4.875399957517412,5.123393931252965,5.362939953269153,6.347132497591636,3.412779970262188,3.5901789943221862
0.311,4.836715949850232,5.1683205791659494,5.320387544835255,6.461496808432848,3.3857011648951625,3.556026826893589
0.312,4.798149489690758,5.376348927890165,5.277964438659834,6.344474270676773,3.3587046427835303,3.3481110049535143
0.313,4.759704490036671,5.47038419552397,5.235674939040338,6.534811986318952,3.3317931430256693,3.256917520069702
0.314,4.721384836289494,5.7204734323961715,5.193523319918444,6.438189905725847,3.3049693854026456,3.396448726464086
0.315,4.683194385861908,5.744012019450339,5.1515138244481,6.196701921011251,3.2782360701033353,3.5087890460239892
0.316,4.645136967788326,5.548705029466808,5.109650664567159,6.358244231566,3.251595877451828,3.452108912047287
0.317,4.6072163823386525,5.914277988819023,5.067938020572518,6.539179144356727,3.2250514676370567,3.300434668951307
0.318,4.569436400635408,6.061557947954263,5.02638004069895,6.480920176387989,3.1986054804447854,3.4439994094153685
0.319,4.5318007642741245,5.974895045480602,4.984980840701537,6.433583685352893,3.172260534991887,3.3763468982652776
0.32,4.494313184947167,5.970219208922263,4.943744503441884,6.5271335382179405,3.1460192294630165,3.535218608185478
0.321,4.456977344070912,5.950800525303203,4.902675078478004,6.0780147941636296,3.1198841408496385,3.527403026333062
0.322,4.419796892416423,5.629930695090844,4.861776581658066,6.112403348431162,3.0938578246914963,3.3846769094882694
0.323,4.382775449743562,5.548549668239917,4.821052994717919,6.052228373839155,3.0679428148204932,3.4508402078757343
0.324,4.345916604438667,5.481945114696383,4.780508264882534,5.846800390038721,3.042141623107067,3.388148713810346
0.325,4.309223913155743,5.605418668531046,4.740146304471318,5.876021759622936,3.01645673920902,3.305264865774489
0.326,4.2727009004612935,5.467784882603085,4.699970990507423,6.235742879683546,2.9908906303229053,3.289201889485196
0.327,4.236351058482729,5.459784370950029,4.659986164331002,5.893158517113619,2.96544574093791,3.1204302649162794
0.328,4.200177846560496,5.693517764254315,4.620195631216546,5.894892396511898,2.9401244925923473,3.1887279604928644
0.329,4.164184690903849,5.620062533236029,4.580603159994235,5.736924644455387,2.9149292836326945,3.113423748036296
0.33,4.128374984250415,5.646089522080802,4.541212482675458,5.502955107093287,2.8898624889752904,2.8677092224916545
0.331,4.092752085529465,5.6666857522948035,4.502027294082412,5.348936328251229,2.8649264598706257,2.761910685263855
0.332,4.057319319529055,5.528207747587191,4.463051251481962,5.450937255323123,2.8401235236703384,3.2748288397705627
0.333,4.022079976566935,5.441539910298127,4.4242879742236285,5.378384464382194,2.8154559835968542,3.223665411784886
0.334,3.987037312165387,5.311236686573893,4.385741043381926,5.477185407411493,2.7909261185157708,3.353841821281849
0.335,3.9521945467299187,4.993595626599409,4.347414001402911,5.326519576237288,2.7665361827109427,3.0518469012147076
0.336,3.917554865231928,4.898811719877567,4.309310351755121,5.460180700559946,2.7422884056623493,3.034587953359101
0.337,3.883121416895297,4.6824454444644505,4.271433558584827,5.129678684718141,2.718184991826708,2.835673590535435
0.338,3.848897314887025,4.696192532522102,4.233787046375728,5.275290869691971,2.694228120420917,2.7096679080439907
0.339,3.8148856360118426,4.866157907125723,4.196374199613027,4.896265112306969,2.6704199452082897,2.669506386868213
0.34,3.781089420410936,5.16278407287567,4.15919836245203,4.9520117882245165,2.646762594287655,2.9137593404753357
0.341,3.7475116712647107,4.988767639208314,4.122262838391182,4.8733752420068885,2.6232581698852973,3.0583207375289314
0.342,3.7141553544997175,4.947532747429394,4.08557088994969,4.518112225282314,2.599908748149802,2.933622527754215
0.343,3.6810233984996916,4.777513311804535,4.0491257383496615,4.681329787482518,2.576716378949784,2.981514492181745
0.344,3.6481186938207983,4.511328500162289,4.012930563202879,4.766402255488054,2.5536830856745585,2.984809145975903
0.345,3.615444092911062,4.489939829052018,3.9769885022021687,4.709459111928621,2.5308108650377434,2.861775819188803
0.346,3.5830024098340374,4.073799653046495,3.9413026508174416,4.243758726609663,2.508101686883826,2.6023473066344316
0.347,3.5507964199967583,4.208474477104745,3.9058760619964343,4.36833369340824,2.4855574939977307,2.7963235612079256
0.348,3.5188288598819355,4.098936785168269,3.8707117458701292,4.4051060799960435,2.4631802019173548,2.930558031363779
0.349,3.48710242678452,4.002853316730759,3.835812669462972,3.9344011475823963,2.4409716987491636,2.9260982074267465
0.35,3.4556197785525606,3.691635715297651,3.801181756407817,4.095508350917616,2.418933844986792,2.833694194822488
0.351,3.4243835333324704,3.523603983221724,3.7668218866657175,4.45696892653587,2.397068473332729,2.7941348952257057
0.352,3.3933962693186492,3.6855444909807433,3.7327358962505146,4.115467651984964,2.3753773885230545,2.7989534650847294
0.353,3.3626605245075565,3.7600578953388175,3.6989265769583124,3.96173865257184,2.353862367155289,2.933735155951581
0.354,3.3321787964562013,3.7170850827635635,3.6653966761018215,4.061900069746955,2.3325251575193406,2.877527205477286
0.355,3.30195354204512,3.7522327025700486,3.632148896249632,4.417769668577963,2.311367479431584,2.767060297549657
0.356,3.271987177245819,3.597238417777022,3.599185894970401,4.408373898046444,2.2903910240720733,2.7923344694931687
0.357,3.242282076892762,3.254258534796608,3.5665102845820384,4.46753955997901,2.2695974538249333,2.790887698543914
0.358,3.2128405744598574,3.457551223114271,3.5341246319058435,4.029891176909232,2.2489884021219,2.864914214921323
0.359,3.18366496184154,3.6428736383776954,3.5020314580256944,4.136550724620619,2.228565473289078,2.4888915038111454
0.36,3.154757489138409,3.5998424578848036,3.4702332380522503,4.0607408829834295,2.2083302423968862,2.40675717329575
0.361,3.126120364447458,3.8325839865123528,3.438732400892204,4.163997107745444,2.1882842551132207,2.4168005882427943
0.362,3.0977557536569647,3.589189692128358,3.407531329022661,4.392948689395929,2.168429027559875,2.2462225540153886
0.363,3.069665780245983,3.7475105339957144,3.3766323582705815,4.68085081902677,2.148766046172188,2.31260742244122
0.364,3.041852525088518,3.6000763330068044,3.34603777759737,4.781943323241203,2.1292967675619625,2.1930363572160485
0.365,3.014318026262373,3.5100206031022863,3.3157498288886105,4.651331917652543,2.110022618383661,2.1553875095248385
0.366,2.987064278862709,3.3005598048425213,3.28577070674898,4.411284329555491,2.090944995203896,2.124692955935861
0.367,2.9600932348203015,3.499283057041083,3.2561025583023318,4.1605314541681695,2.072065264374211,2.3916114796631573
0.368,2.933406802724554,3.6729780400491157,3.22674748299701,4.020600007958428,2.053384761907188,2.337477579074523
0.369,2.9070068476512523,3.600908784399881,3.197707532416378,4.325748847702383,2.0349047933558766,2.419902814202461
0.37,2.880895190995096,3.529476735751525,3.168984710094606,4.098602842720531,2.0166266336965673,2.219449145422802
0.371,2.8550736103070076,3.75458748547094,3.1405809713377084,3.889180106750411,1.9985515272149053,2.4353731846189857
0.372,2.829543839136263,3.7371116655668604,3.112498223049889,3.783121228729525,1.980680687395384,2.333461110293291
0.373,2.804307566877406,3.654724995665914,3.084738323565147,3.718931830026306,1.963015296814184,2.246657109145205
0.374,2.779366438622046,3.2700399329892447,3.0573030824842506,3.5446072839675287,1.945556507035432,2.1902599472613318
0.375,2.7547220550154448,3.4967355440619725,3.0301942605169896,3.6418362724580913,1.9283054385108112,2.094847028861066
0.376,2.7303759721180167,3.2756119558431593,3.0034135693298185,3.7442797307910554,1.9112631804826117,1.9828683054930496
0.377,2.7063297012716676,3.3484788859827432,2.9769626713988346,3.661009810139471,1.8944307908901672,2.1525770436181513
0.378,2.6825847089710386,3.1053266705335396,2.950843179868143,3.6455191494958155,1.8778092962797268,2.132566657306902
0.379,2.659142416739649,3.191801234456782,2.9250566584136144,3.552412944952997,1.8613996917177542,2.0526334886223507
0.38,2.63600420101094,3.106882622402712,2.8996046211120343,3.7467151760834474,1.845202940707658,2.283259670914124
0.381,2.613171393014259,2.963980688496077,2.874488532315685,3.5748000507852753,1.8292199751099811,2.137338750485063
0.382,2.59064527866576,2.6170091792052643,2.8497098065323363,3.3721738536953563,1.813451695066032,2.16072860655772
0.383,2.568427098464264,2.5883588070679227,2.825269808310691,3.7890858646937735,1.7978989689249847,1.9061886203388485
0.384,2.5465180473920634,2.304755773164934,2.8011698521312702,3.4805797560768763,1.7825626331744442,1.771786880533237
0.385,2.524919274820694,2.404697069038885,2.7774112023027637,3.5561540901555495,1.7674434923744855,1.8208865134746925
0.386,2.503631884421682,2.5273563194564597,2.7539950728638507,3.430941477418849,1.7525423190951772,1.9212027162194492
0.387,2.4826569340822626,2.614084724902782,2.730922627490489,3.682451824974243,1.7378598538575838,1.8779151628560398
0.388,2.4619954358261067,2.5308603427609073,2.7081949794087175,3.432774114232348,1.7233968050782746,2.1244694283481373
0.389,2.4416483557390185,2.397794952428347,2.6858131913129206,3.4649837908219383,1.7091538490173128,1.9749447241088787
0.39,2.4216166138996558,2.5706288099122325,2.6637782752896215,3.513351173316406,1.695131629729759,1.8901294017668149
0.391,2.401901084315253,3.0107542122223108,2.6420911927467787,3.692554483757492,1.681330759020677,1.8017240199002686
0.392,2.382502594862352,2.9302087480460908,2.6207528543485874,3.5785164587404013,1.6677518164036462,1.8122463344860833
0.393,2.3634219272325687,3.0363523915674486,2.5997641199558257,3.8810491724977956,1.654395349062798,2.0272146047541355
0.394,2.3446598168833717,2.9391307401548787,2.579125798571709,3.899051319576738,1.64126187181836,2.2308783961947167
0.395,2.326216952993895,2.904330778220829,2.5588386482932846,4.033968427717245,1.6283518670957264,2.059139387848498
0.396,2.308093978425778,2.7696634500313397,2.538903376268356,4.16146277580313,1.6156657848980447,1.9058352580174804
0.397,2.2902914896890554,2.861473288538883,2.519320638657961,4.062068717523896,1.6032040427823386,1.6548599339191266
0.398,2.2728100369130715,2.494107564029457,2.500091040604379,3.896021056278941,1.59096702583915,1.7636867217728482
0.399,2.2556501238224396,2.045457714390346,2.4812151362046837,3.649081464588921,1.5789550866757076,1.947113887752534
0.4,2.2388122077180492,2.062690023354341,2.4626934284898545,3.6237915711663025,1.5671685454026343,1.914003282534456
0.401,2.222296699463114,2.312178531241712,2.444526369409426,3.4097892274539703,1.5556076896241797,1.9244576099681123
0.402,2.2061039634742547,2.4694083488046843,2.4267143598216805,3.4028579956675085,1.5442727744319782,1.9850909724708536
0.403,2.1902343177176444,2.5941843195769634,2.409257749489409,3.5610712965149562,1.533164022402351,1.8156041157411638
0.404,2.174688033710181,2.9362483250563076,2.3921568370811994,3.40388741942697,1.5222816235971266,1.7973658233954184
0.405,2.159465336525713,3.16023569747444,2.3754118701782847,3.0451379813420063,1.511625735567999,1.6239649186613982
0.406,2.1445664048063042,3.052413524078875,2.3590230452869347,2.9864192331334842,1.501196483364413,1.7301503845332205
0.407,2.129991370778531,2.914390830028679,2.3429905078563844,2.917319675453861,1.4909939595449715,1.7204992462776652
0.408,2.1157403202748313,2.554080998812968,2.3273143523023148,2.962712544819969,1.4810182241923817,1.6766600117313406
0.409,2.1018132927598687,2.5488585893007567,2.3119946220358556,2.9595579597283654,1.471269304931908,1.6737005999844756
0.41,2.088210281361948,2.842230947974839,2.297031309498143,2.9445888236722126,1.4617471969533635,1.6025866126647992
0.411,2.074931232909436,3.0053168105926247,2.2824243562003796,3.004563076680099,1.4524518630366052,1.617331392436244
0.412,2.061976047972218,3.1779439143049726,2.26817365276944,3.0594793575602868,1.4433832335805523,1.5500262139550678
0.413,2.0493445809081665,3.1047887432096113,2.2542790389989835,3.1607988933540847,1.4345412066357164,1.710704367685487
0.414,2.037036639914625,2.9511536556520017,2.2407403039060876,2.97264689711485,1.4259256479402374,1.5251593969522248
0.415,2.0250519870848827,2.962439975332867,2.227557185793371,2.845301546661399,1.4175363909594179,1.7376521472346127
0.416,2.0133903384696703,3.044540793521226,2.2147293723166377,2.6891784996247936,1.409373236928769,1.770768904901423
0.417,2.0020513641436244,2.9423171945329774,2.202256500557987,2.7845658795468635,1.401435954900537,1.8400935131092175
0.418,1.9910346882767485,3.004398321417088,2.1901381571044234,2.615168210897089,1.3937242817937239,1.468656939484938
0.419,1.9803398892108435,2.8309861847142113,2.178373878131928,2.5551039321589295,1.3862379224475903,1.460536187954994
0.42,1.969966499540913,2.786336150666915,2.1669631494950043,2.986091769341859,1.378976549678639,1.2805323361492582
0.421,1.9599140062015126,2.6280104451487367,2.155905406821664,3.039044498321539,1.3719398043410587,1.3181131629794876
0.422,1.9501818505580548,2.604941310382789,2.1452000356138603,3.060212996212301,1.3651272953906384,1.1337220150338192
0.423,1.9407694285030574,2.6095220655723326,2.134846371353363,2.852393521567879,1.3585385999521402,1.3098429375687883
0.424,1.9316760905572998,2.5629135108947803,2.12484369961303,3.0202991573379117,1.3521732633901098,1.4486065652338613
0.425,1.9229011419759177,2.3768202430138805,2.11519125617351,2.9041296237679517,1.3460307993831422,1.4780464476443087
0.426,1.9144438428593826,2.0982442965113033,2.105888227145321,3.086580833877553,1.3401106900015678,1.3540663127750368
0.427,1.9063034082693822,2.4443800119814982,2.0969337490963205,2.9460971205569466,1.3344123857885675,1.3893093820617008
0.428,1.898479008349577,2.536318768291059,2.088326909184535,2.578805524202444,1.3289353058447038,1.3856120300595156
0.429,1.8909697684512272,2.4539834528324986,2.08006674529635,2.459654170317521,1.323678837915859,1.1795188657579425
0.43,1.883774769263657,2.593743501640906,2.072152246190023,2.393584597904619,1.3186423384845598,1.2224022909285366
0.431,1.8768930469495766,2.544292140221054,2.0645823516445345,2.2922477604412945,1.3138251328647035,1.1355143867295197
0.432,1.8703235932852076,2.744022950795821,2.0573559526137286,2.414227048574059,1.3092265152996452,1.2178087561126458
0.433,1.864065355805229,2.5536932094102354,2.050471891385752,2.716871830355631,1.3048457490636602,1.3477781978578989
0.434,1.858117237952511,2.3006138993148353,2.0439289617477625,2.2690390776868514,1.3006820665667576,1.2174329790772584
0.435,1.85247809923262,2.0515309237721846,2.037725909155882,2.0966728359986373,1.2967346694628339,1.0882251891538242
0.436,1.8471467553730863,1.9783826184945845,2.031861430910395,2.1986708757492,1.2930027287611603,1.1587612699604337
0.437,1.842121978487417,1.6058727001267754,2.026334176336159,1.9829913736097533,1.2894853849411918,1.0162879130978202
0.438,1.8374024972438239,1.6112845805212714,2.0211427469682066,2.212077225370003,1.2861817480706765,1.1147597997784784
0.439,1.8329869970386614,1.4915190876713116,2.0162856967425276,2.006874559197491,1.283090897927063,1.1466051484280815
0.44,1.8288741201745573,1.4516033082805206,2.011761532192013,2.0756736781050527,1.2802118841221901,1.1266880301901439
0.441,1.8250624660431978,1.5868603029133852,2.007568712647518,1.8469754456365306,1.2775437262302383,1.186356602938791
0.442,1.821550591312775,1.7111212924294397,2.0037056504440525,1.9148544280094422,1.2750854139189425,1.153632312408044
0.443,1.8183370101200547,1.423337938751294,2.00017071113206,1.567849125798349,1.2728359070840383,0.963250603451801
0.444,1.8154201942670474,1.6414365752073738,1.9969622136937524,1.512167669567164,1.270794135986933,0.8717838151198328
0.445,1.8127985734222793,1.5276114905029292,1.9940784307645074,1.5182951291033624,1.2689590013955954,1.0390293047925145
0.446,1.8104705353266182,1.1669284560824393,1.9915175888592802,1.7362168248257603,1.2673293747286327,1.0799075717581292
0.447,1.8084344260036413,0.8315800134722975,1.9892778686040056,1.9377132540956672,1.265904098202549,1.1843297021923176
0.448,1.806688549974532,1.1041042088317141,1.9873574049719853,1.9380344987951148,1.2646819849821722,1.185907130124957
0.449,1.8052311704774624,1.232905937176463,1.9857542875252088,2.1181987808488403,1.2636618193342235,1.1053958859728545
0.45,1.8040605096914613,1.4700004132278894,1.9844665606606076,1.9645561366266733,1.2628423567840228,1.193069481291688
0.451,1.803174748964727,1.883821267692593,1.9834922238611998,2.1769915259178,1.2622223242753088,1.2240097100389526
0.452,1.8025720290473677,1.7970428942873418,1.9828292319521046,2.3397607526467716,1.2618004203331572,1.0744332700983843
0.453,1.8022504503285388,2.020535889746272,1.9824754953613928,2.3464202014595217,1.2615753152299771,1.241666835633076
0.454,1.8022080730779644,1.853372826726748,1.982428880385761,2.4431157300455317,1.261545651154575,1.3797175726150246
0.455,1.8024429176918,1.7285804260922293,1.9826872094609802,2.273311101809402,1.26171004238426,1.234226683511996
0.456,1.802952964942829,1.8764835273272815,1.983248261437112,2.238865035634421,1.2620670754599803,1.2585782411320916
0.457,1.80373615623495,1.608156913040388,1.9841097718584453,2.4018861488229613,1.262615309364465,1.343636987494032
0.458,1.8047903938619356,1.2954058481186188,1.9852694332481293,2.3762519590977567,1.2633532757033548,1.3109582108302895
0.459,1.8061135412704337,1.089692284139634,1.9867248953974772,2.2582237939292256,1.2642794788893035,1.5431935942446868
0.46,1.8077034233271956,0.9699074887172262,1.9884737656599154,2.2501894745784212,1.2653923963290368,1.451555822606443
0.461,1.8095578265904706,0.8296954233711686,1.990513609249518,1.846937185950334,1.2666904786133293,1.413134239107014
0.462,1.8116744995855782,0.7736763694319557,1.9928419495441363,1.9138235254358964,1.2681721497099048,1.678817676203787
0.463,1.814051153084601,1.022381694859668,1.9954562683930614,1.6803074536731257,1.2698358071592206,1.4900625754892056
0.464,1.816685460390171,1.1466842033193043,1.9983540064291883,1.3950733636622739,1.2716798222731196,1.4576004930383164
0.465,1.8195750576233425,1.110982881225862,2.001532563385677,1.3946506756910477,1.2737025403363396,1.4861763373415964
0.466,1.8227175440154886,1.2416134017542868,2.0049892984170374,1.602663115963767,1.275902280810842,1.5311572676813197
0.467,1.826110482204212,1.5684031170110382,2.0087215304246335,1.5341920587611002,1.2782773375429484,1.3874621848861584
0.468,1.8297513985332339,1.6480089809106588,2.0127265383865574,1.5739278307110316,1.2808259789732637,1.5011486478275597
0.469,1.833637783356227,1.8071516658414357,2.01700156169185,1.6758813159448782,1.2835464483493588,1.445093647373921
0.47,1.837767091344562,1.7270719096948137,2.0215438004790185,1.6981990602548813,1.2864369639411934,1.3319684733550978
0.471,1.842136741798937,1.8320138178108947,2.026350415978831,1.7532646685822346,1.2894957192592558,1.4217758191549141
0.472,1.846744118964848,1.9582362326933527,2.031418530861333,1.6827882074230185,1.2927208832753934,1.2310768001349037
0.473,1.851586572351887,1.5162997032179086,2.036745229587076,1.5371629046338058,1.2961106006463208,1.2121941649972594
0.474,1.8566614170568054,1.945822059419272,2.0423275587624863,1.5595032407289233,1.2996629919397638,1.163234074749601
0.475,1.8619659340903398,1.8123400144810624,2.048162527499374,1.8033180042689145,1.3033761538632378,1.125003729339873
0.476,1.867497370707739,1.6729951874817628,2.054247107778513,1.6619674260202482,1.307248159495417,1.2232443946188871
0.477,1.8732529407429737,1.6326234268103135,2.060578234817271,1.6339039910572077,1.3112770585200815,1.1461349858021825
0.478,1.8792298249465933,1.9466447898589139,2.0671528074412526,1.5619891726399506,1.3154608774626153,1.0299239934463758
0.479,1.8854251713271757,1.571196918755756,2.073967688459893,1.974292443823734,1.319797619929023,0.8828449086960641
0.48,1.8918360954963678,1.6853122922465245,2.0810197050460046,2.126212258814183,1.3242852668474574,1.0796725673157868
0.481,1.8984596810174428,1.6019001439872937,2.0883056491191874,1.9630866305291164,1.32892177671221,0.8471659727930055
0.482,1.9052929797573674,1.6951829321371035,2.095822277733104,1.4108712799989924,1.3337050858301571,0.8614311815144126
0.483,1.9123330122423248,1.549204349175219,2.1035663134665574,1.5285984722164117,1.3386331085696273,0.9284653606571683
0.484,1.9195767680166638,1.5074259182967662,2.1115344448183304,1.4130057254060904,1.3437037376116645,0.9236635563376777
0.485,1.9270212060052332,1.3704647154334422,2.1197233266057567,0.9877239693561688,1.3489148442036631,0.9303924703515609
0.486,1.9346632548790637,1.3954060970213094,2.12812958036697,0.9098852247383971,1.3542642784153445,0.9308783600399025
0.487,1.9424998134243556,1.2576137001409422,2.1367497947667915,1.2491253165533422,1.359749869397049,0.8769176931153214
0.488,1.9505277509147518,1.2842188998950723,2.1455805260062273,1.355774787102805,1.3653694256403262,0.9648475194534039
0.489,1.9587439074868187,1.3675318406839168,2.154618298235501,1.2483994361416169,1.371120735240773,0.6563021346449929
0.49,1.967145094518746,1.753209357923752,2.163859603970621,1.2927700680109546,1.377001566163122,0.7597351596005062
0.491,1.9757280950121707,1.7458113694673947,2.173300904513388,1.3397145480238895,1.3830096665085194,0.9685637403648683
0.492,1.9844896639771443,1.6119545175258394,2.182938630374859,1.5224176037986508,1.389142764784001,0.9377287786209212
0.493,1.9934265288201418,1.4598878696434485,2.192769181702156,1.5671032267443072,1.3953985701740992,1.0071007908221972
0.494,2.0025353897351255,1.2908110628094267,2.2027889287086384,1.6420102825165879,1.4017747728145877,0.9398957263292945
0.495,2.0118129200975825,1.1991753117814703,2.212994212107341,1.472859468040109,1.4082690440683077,0.9621801044959962
0.496,2.0212557668615254,1.0827581835694364,2.223381343547678,1.5696159044676372,1.4148790368030677,0.8308647542218749
0.497,2.0308605509593827,1.3276278422822347,2.233946606055321,1.0538216157106248,1.4216023856715678,0.8330996547758375
0.498,2.0406238677047766,1.3281665704436785,2.2446862544752544,1.3243431650024016,1.4284367073933435,0.9493325819070292
0.499,2.0505422871980974,1.2758640896702356,2.255596515917907,1.2238853758384143,1.4353796010386681,0.6973765031724822
0.5,2.0606123547348876,1.3089800868242598,2.2666735902083763,1.3691359763949746,1.4424286483144213,0.6436695415428437
0.501,2.0708305912169314,1.5025690755612655,2.2779136503386246,1.3710630165981517,1.449581413851852,0.5869579191370746
0.502,2.0811934935660705,1.3219259052148467,2.2893128429226777,0.9939369037286023,1.4568354454962493,0.9263864035036153
0.503,2.0916975351406473,1.2956162438082148,2.3008672886547124,0.7336032336126525,1.464188274598453,0.9998296328962784
0.504,2.1023391661545654,1.613320921141709,2.312573082770022,0.9418350108180754,1.4716374163081958,0.9513496500107737
0.505,2.1131148140989167,1.3633027074985797,2.3244262955088084,0.9016147035597813,1.4791803698692416,1.1816900768182448
0.506,2.1240208841661135,1.207580248851725,2.336422972582725,0.7230196402754874,1.4868146189162794,1.290808526176438
0.507,2.1350537596765173,1.333892235504312,2.348559135644169,0.8668144039308999,1.4945376317735621,1.1782038933300112
0.508,2.146209802507475,1.237059080764503,2.3608307827582227,1.0063351567410954,1.5023468617552325,1.1591951066048174
0.509,2.1574853535247573,1.158023582834176,2.373233888877233,0.9577395632934417,1.5102397474673301,1.3084928969373322
0.51,2.1688767330163254,1.2122666190448235,2.3857644063179584,1.1919912440802565,1.5182137131114277,1.395929117560482
0.511,2.180380241128406,1.0568032966726741,2.398418265241247,0.9846708010094134,1.5262661687898842,1.3444816796009709
0.512,2.191992158303792,1.1832755729249294,2.4111913741341713,0.9014180831884708,1.5343945108126542,1.3784529022325134
0.513,2.203708745722372,1.5912612117305716,2.4240796202946093,0.8086539511211858,1.5425961220056603,1.3857084456101276
0.514,2.215526245743802,1.3069745230574934,2.437078870318182,1.2365859166198487,1.5508683720206613,1.4480395577140697
