time,roll_setpoint,gyro_roll,pitch_setpoint,gyro_pitch,yaw_setpoint,gyro_yaw
0.0,3.221088436188455,1.4375488815031896,3.543197279807301,1.8269545343666278,2.2547619053319186,3.4998349445780166
0.001,3.299582398918418,3.6159473671875206,3.62954063881026,3.9322572832370017,2.3097076792428926,4.523847710384641
0.002,3.3777459409858164,5.354543621877157,3.7155205350843983,6.218617690822599,2.364422158690071,5.696535760904113
0.003,3.455574210797501,7.016677340321356,3.8011316318772517,8.205216635382971,2.4189019475582505,6.612654611104678
0.004,3.533062390490227,8.516322400484032,3.88636862953925,9.370458207002436,2.473143673343159,7.927406316254151
0.005,3.6102056963405573,9.685706704494814,3.9712262659746136,10.462919747530227,2.52714398743839,8.467912084572598
0.006,3.686999379171322,10.77841800806582,4.055699317088455,11.580259665030734,2.580899565419925,8.752637033819681
0.007,3.763438724754603,11.245692124162073,4.139782597230063,12.268296242151331,2.634407107328222,8.674398340125352
0.008,3.839519054211185,11.074737279229783,4.223470959632304,12.545633318027809,2.6876633379478294,8.675208930233445
0.009,3.9152357244064526,10.822870024525917,4.3067592968470985,12.736356321649232,2.740665007084517,8.659819401097373
0.01,3.9905841283426917,10.676763719632678,4.389642541176961,12.178972193718284,2.793408889839884,8.603873249773104
0.011,4.0655596955477415,10.190818364071484,4.472115665102516,11.599177637902912,2.845891786883419,8.083025949119373
0.012,4.140157892459986,9.404113596396689,4.5541736817059855,11.080910604159568,2.8981105247219903,7.774527929355691
0.013,4.214374222809629,9.143845021176713,4.635811645090592,10.14727240838454,2.95006195596674,7.190075148964783
0.014,4.28820422799622,8.525008536535934,4.7170246507958415,9.344083240345423,3.0017429595973537,6.493968181873234
0.015,4.3616434874624,8.125531654758367,4.797807836208641,8.668684733891347,3.05315044122368,5.872761779908309
0.016,4.4346876190638245,7.722472572145482,4.878156380970207,8.019687478425244,3.104281333344677,5.424861761255386
0.017,4.507332279435237,7.192011856849885,4.958065507378761,7.149931430398229,3.1551325956046656,4.789082966701038
0.018,4.5795731643526425,6.477201277575846,5.0375304807879075,6.263039463989508,3.2057012150468496,4.031373840845487
0.019,4.651406009091567,6.27235701752762,5.116546610000724,5.792432136320271,3.2559842063640967,3.5542157506171113
0.02,4.722826588781357,6.046694854042691,5.195109247659493,5.566632483273689,3.30597861214695,3.120666050268528
0.021,4.793830718755473,5.276646324121318,5.27321379063102,5.237810007173703,3.3556815031288307,2.646744514568828
0.022,4.864414254897774,5.018601163604704,5.350855680387552,5.216057950622071,3.4050899784284416,2.3858806751080763
0.023,4.934573093984735,4.7900675345961385,5.428030403383209,4.834592326366604,3.454201165789314,1.6740521347722088
0.024,5.004303174023567,4.4148196380436096,5.504733491425925,4.069618099209951,3.5030122218164967,1.6635485526391118
0.025,5.073600474586228,4.498404351498062,5.580960522044851,3.8545540094148256,3.5515203322103592,1.6609675292954802
0.026,5.142461017139256,4.461739636338826,5.656707118853182,3.2487918869272483,3.599722711997479,1.2750053377450408
0.027,5.210880865369442,3.8369049799902606,5.731968951906387,2.838131431437596,3.6476166057586092,0.8330789931329202
0.028,5.278856125505255,3.1602735204620336,5.8067417380557815,1.778297426505952,3.6951992878536783,0.6753264909489749
0.029,5.346382946634043,2.3601663048336947,5.881021241297448,1.0823285397785272,3.7424680626438303,0.43574326188995216
0.03,5.413457521014937,1.4022271402173407,5.954803273116432,0.4690662339598375,3.7894202647104556,0.11328425252624519
0.031,5.480076084387463,0.28695248070280943,6.028083692826209,-0.32012462105118233,3.8360532590712237,-0.601826655240342
0.032,5.546234916275796,-0.6202931509997427,6.100858407903376,-1.4211893635610937,3.8823644413930567,-1.2557073060046537
0.033,5.611930340288663,-1.3219452590283343,6.17312337431753,-2.561930072085343,3.928351238202064,-1.9516262613678519
0.034,5.6771587244148485,-2.187726434366221,6.2448745968563335,-3.8539093409737792,3.974011107090394,-2.972368672812013
0.035,5.741916481314269,-3.2364065942487406,6.316108129445697,-5.101961196748476,4.019341536919988,-3.7141378126920013
0.036,5.806200068604601,-4.892341631321263,6.386820075465061,-6.101843468597094,4.064340048023221,-4.437084561702595
0.037,5.8700059891434355,-6.2944991573446405,6.457006588057779,-7.326964472020435,4.109004192400405,-5.018565919626493
0.038,5.933330791305923,-6.932509984923103,6.526663870436516,-8.366008385598505,4.153331553914145,-5.700858974842323
0.039,5.996171069257885,-7.295535993099575,6.5957881761836745,-9.395075210331601,4.19731974848052,-5.9909054657903
0.04,6.058523463224383,-7.672685081904117,6.664375809546822,-9.652488779193447,4.240966424257068,-6.302890114502064
0.041,6.120384659753688,-7.961077355945409,6.732423125729057,-9.851608668370357,4.284269261827581,-6.20042828577156
0.042,6.181751391976656,-7.611244201777466,6.7999265311743216,-9.932703306705065,4.3272259743836585,-6.049375574210653
0.043,6.242620439861469,-7.09147442850016,6.866882483847616,-9.189796875609883,4.3698343079030275,-5.752517910571789
0.044,6.302988630463721,-6.185872231171077,6.933287493510094,-8.32718459192932,4.4120920413246045,-5.437590136594276
0.045,6.3628528381718334,-5.584640302787578,6.999138121989017,-7.280407283090487,4.453996986720283,-4.904557246003419
0.046,6.422209984947755,-4.208398111243958,7.064430983442531,-5.543960544225293,4.495546989463429,-3.739805339510727
0.047,6.481057040562951,-2.292731317235951,7.129162744619247,-3.822768184887244,4.5367399283940655,-2.519662191218745
0.048,6.5393910228296495,-0.44612201655301487,7.193330125112615,-2.1347121041429826,4.577573715980754,-1.324387051055866
0.049,6.597208997827305,1.6392253436127602,7.2569298976100365,0.3138350004932793,4.618046298479113,-0.029989406073284375
0.05,6.654508080124296,3.627752380711584,7.319958888136727,2.445349006726467,4.658155656087007,1.4299029729237112
0.051,6.711285432994797,5.669820457835651,7.382413976294277,5.475259352589051,4.697899803096357,2.691017196526338
0.052,6.76753826863083,7.941780131540489,7.444292095493913,7.631975211227978,4.73727678804158,4.0709456812598175
0.053,6.82326384834947,9.67808102754929,7.505590233184417,9.344265889405952,4.776284693844628,5.538042538508941
0.054,6.878459482795181,11.256284204152287,7.566305431074699,11.753313020396446,4.814921637956626,6.901479046001017
0.055,6.933122532137267,12.699801884183062,7.626434785350994,13.484880564298752,4.8531857724960865,7.947998479261762
0.056,6.987250406262419,13.998777669939738,7.685975446888661,15.001412837505733,4.891075284383692,9.094850618659596
0.057,7.0408405649623464,14.681713983597795,7.744924621458582,16.218608560526956,4.928588395473642,9.937473074514518
0.058,7.093890518116458,15.55547785885888,7.803279569928105,16.700734699804006,4.96572336268152,10.29534180311695
0.059,7.1463978258696095,15.915122676271864,7.861037608456571,16.68486958641951,5.002478478108726,10.372880647615107
0.06,7.198360098804855,16.168488978890153,7.918196108685342,17.275799758928457,5.038852069163398,10.512619666523127
0.061,7.249774998111233,15.514787886432035,7.974752497922357,16.717976573763796,5.074842498677863,10.290951420149838
0.062,7.30064023574654,15.234166668462823,8.030704259321194,16.603872123498377,5.110448165022578,9.863378615557487
0.063,7.350953574595092,14.801532775996058,8.086048932054602,15.953095637303694,5.145667502216564,9.40606791283463
0.064,7.400712828620459,13.978926487501143,8.140784111482505,15.01119904697585,5.180498980034321,8.886367608287284
0.065,7.449915863013141,12.934529165941694,8.194907449314455,13.777374356693397,5.214941104109198,8.273025963083954
0.066,7.498560594333212,11.97703303299036,8.248416653766535,13.074858875510662,5.248992416033248,7.488553823816639
0.067,7.546644990647877,11.053725088327859,8.301309489712665,11.625154854735783,5.282651493453514,6.353580212668484
0.068,7.594167071663945,9.973344768418688,8.35358377883034,10.216894118968876,5.315916950164761,5.716973777045235
0.069,7.641124908855225,8.958060483042523,8.405237399740749,9.180124598764834,5.348787436198657,4.856940891176288
0.07,7.687516625584808,8.23638708278333,8.45626828814329,7.929184622517301,5.381261637909366,4.224999065326621
0.071,7.733340397222232,7.4202517930556375,8.506674436944456,6.742652205982426,5.413338278055562,3.604660035385839
0.072,7.77859445125553,6.4108385830078065,8.556453896381084,5.925825238982464,5.445016115878871,3.4037196134320946
0.073,7.8232770673981396,5.969463328587427,8.605604774137953,5.413847778900345,5.476293947178697,3.2343385363883206
0.074,7.867386577690672,5.355155768918262,8.65412523545974,5.282410135851427,5.50717060438347,2.772097905883598
0.075,7.910921366597526,4.893052515832322,8.702013503257279,5.2742977538355245,5.5376449566182675,2.273656752539134
0.076,7.953879871098349,4.54143225957341,8.749267858208185,4.469200564890986,5.567715909768844,1.870640348482238
0.077,7.996260580774324,4.4301969662859095,8.795886638851757,4.40407624038424,5.597382406542026,1.7461703459073954
0.078,8.038062037889294,4.497022704644409,8.841868241678224,3.911675690780582,5.626643426522505,1.5281757193651218
0.079,8.07928283746568,4.198286688188302,8.887211121212248,3.464092617913111,5.655497986225976,1.24215235773895
0.08,8.119921627355257,4.231150810188617,8.931913790090784,3.104522326838044,5.68394513914868,1.0391902564817088
0.081,8.159977108304703,3.8837985081640234,8.975974819135175,2.696944495514747,5.711983975813292,0.9484586275640563
0.082,8.199448034015951,3.7351791377561687,9.019392837417547,2.1356445385325067,5.739613623811166,0.7341890284648867
0.083,8.238333211201375,3.263376934328681,9.062166532321514,1.2472176498857763,5.766833247840962,0.41664097365385144
0.084,8.27663149963373,2.59740380921515,9.104294649597104,1.1640854320140592,5.79364204974361,0.07617828178238151
0.085,8.314341812190914,2.381048761953826,9.145775993410007,0.8588481453860188,5.820039268533639,-0.2728726268567758
0.086,8.351463114895509,1.5976415073419066,9.186609426385061,0.2875470980155237,5.846024180426856,-0.5938680865707497
0.087,8.387994426949106,0.8156905720105199,9.226793869644018,-0.5056970782537489,5.871596098864374,-0.9190009324733568
0.088,8.423934820761426,-0.03915606788153081,9.26632830283757,-0.7689308847521596,5.896754374532998,-1.503360852429784
0.089,8.459283421974213,-0.2937364312398669,9.305211764171634,-1.2804069201763344,5.921498395381949,-1.7680765908286435
0.09,8.494039409479925,-0.41794759841623197,9.343443350427918,-1.7898468743474378,5.9458275866359465,-2.0399574359796437
0.091,8.528202015435198,-0.6461768415432534,9.38102221697872,-2.362936245220655,5.969741410804638,-2.299135924682221
0.092,8.5617705252691,-0.959574365190166,9.417947577796012,-2.218825350717144,5.9932393676883695,-2.3282323939640226
0.093,8.594744277686168,-0.829963605434199,9.454218705454785,-2.0432200132116796,6.016320994380317,-1.9889748918318562
0.094,8.627122664664231,-0.5071876565441338,9.489834931130655,-1.4623243977125329,6.038985865264961,-1.5465531407964566
0.095,8.65890513144703,-0.05447739820927655,9.524795644591734,-0.6213099768064367,6.061233592012921,-1.0324840225204124
0.096,8.690091176531613,0.8024719714856126,9.559100294184775,0.6136772968051645,6.083063823572129,-0.4701427834294716
0.097,8.720680351650541,2.136056729188259,9.592748386815597,2.0329208743084974,6.104476246155379,0.22564378414969521
0.098,8.750672261748878,3.486898355401048,9.625739487923767,3.6054388376538444,6.125470583224215,1.171357961868547
0.099,8.780066564955995,5.2503983409420805,9.658073221451595,5.615028601772744,6.146046595469196,2.413977516051353
0.1,8.80886297255217,6.7737055154054575,9.689749269807388,7.895589197734257,6.166204080786518,3.780188015414037
0.101,8.837061248930006,9.153165107107261,9.720767373823007,10.428239595530592,6.185942874251004,5.136164332325621
0.102,8.864661211550661,11.152821474371025,9.751127332705728,12.420398889018095,6.205262848085463,6.761282544164475
0.103,8.891662730894913,13.420947868137716,9.780829003984405,14.942262224076044,6.224163911626438,8.306176771942647
0.104,8.918065730409031,15.477115449965634,9.809872303449936,16.784217036874534,6.242646011286322,9.377474034430353
0.105,8.943870186445512,17.45058076290151,9.838257205090065,19.102690061578745,6.260709130511858,10.784298981015347
0.106,8.969076128198637,18.92586988839522,9.865983741018502,20.8428945821551,6.278353289739045,12.145263356973302
0.107,8.9936836376349,20.259984999405486,9.893052001398392,22.64943262872468,6.29557854634443,13.245251758942493
0.108,9.017692849418289,21.32653630695179,9.919462134360119,24.266001860503735,6.312384994592802,14.191327959834645
0.109,9.04110395083043,22.235820708552637,9.945214345913472,25.21940553145175,6.3287727655813,14.782329050911564
0.11,9.063917181685632,23.055375797217643,9.970308899854196,25.742745987554123,6.344742027179942,15.16081794093326
0.111,9.086132834240804,23.310751408480655,9.994746117664885,25.868512075036783,6.360292983968562,15.29194921173345
0.112,9.107751253100284,22.938184934211606,10.018526378410314,25.530566880809626,6.375425877170199,15.207087707840572
0.113,9.128772835115576,22.446284754896823,10.041650118627135,25.187777320754527,6.390140984580903,14.7761027086864
0.114,9.149198029280011,21.611290532550854,10.064117832208014,24.21362530193229,6.404438620496007,14.37128427933633
0.115,9.169027336618353,20.4559472661726,10.085930070280188,22.497262724871646,6.418319135632847,13.808460676848243
0.116,9.18826131007134,19.15468751091762,10.107087441078475,21.264212820127153,6.431782917049937,12.798546205704618
0.117,9.206900554375213,17.842804503661565,10.127590609812735,19.816680225916507,6.444830388062649,11.59288672658785
0.118,9.224945725936184,16.109319644902,10.147440298529803,18.058757416929282,6.4574620081553284,10.303978633256769
0.119,9.242397532699936,14.414469828167498,10.16663728596993,16.0632595695212,6.469678272889955,9.242477858383687
0.12,9.259256734016097,12.995026796898784,10.185182407417708,14.009824555642926,6.481479713811267,8.201107086978324
0.121,9.275524140497758,11.505564288925534,10.203076554547534,12.123936706928085,6.492866898348431,7.162486273278192
0.122,9.291200613876011,10.265912209681105,10.220320675263613,10.575872374038697,6.5038404297132075,6.197112477963596
0.123,9.306287066849553,9.163950886803578,10.236915773534509,8.713912080796023,6.514400946794686,5.167213312056264
0.124,9.32078446292935,7.6321479162381225,10.252862909222285,7.558262649263128,6.524549124050544,4.054894666802737
0.125,9.334693816278396,6.631149434025042,10.268163197906237,6.49341249165892,6.534285671394876,3.2964833522679964
0.126,9.34801619154658,5.6382341474346465,10.28281781070124,5.876241368600239,6.543611334082606,2.9623175908155286
0.127,9.360752703700658,4.683459605966322,10.296827974070725,5.276563480216446,6.5525268925904605,2.5211834126825305
0.128,9.372904517849397,3.9834836157176383,10.310194969634338,4.508663965312343,6.561033162494578,2.200904684263104
0.129,9.384472849063851,3.5205262535651114,10.322920133970237,3.6809002890846267,6.569130994344695,2.028608807393151
0.13,9.395458962192835,3.159274357108461,10.33500485841212,3.1868158652737533,6.576821273534985,1.667373753160874
0.131,9.405864171673603,2.80540604250906,10.346450588840964,3.2637866579868655,6.584104920171521,1.5149724185066158
0.132,9.415689841337734,2.615794163141733,10.357258825471508,3.1051905384929483,6.590982888936414,1.4255897660541472
0.133,9.42493738421227,2.9231807807447368,10.367431122633498,3.013686374527519,6.5974561689485895,1.1332766271190122
0.134,9.433608262316135,2.328858699230061,10.37696908854775,2.6212408437391588,6.6035257836212935,1.0262801914015771
0.135,9.441703986451794,2.3112147798921496,10.385874385096974,2.452351898713742,6.609192790516255,1.0219451263791601
0.136,9.449226115992277,1.9963145471684571,10.394148727591505,1.7845664774641898,6.614458281194593,0.7332746075294212
0.137,9.4561762586635,1.5560036578826866,10.401793884529852,1.6434403831479703,6.61932338106445,0.23756025273960457
0.138,9.462556070321966,0.7742905538644882,10.408811677354164,0.980184666818829,6.623789249225376,0.00837961517950081
0.139,9.468367254727813,0.5704926107972597,10.415203980200594,0.14098141735544267,6.627857078309469,-0.3532495715703057
0.14,9.473611563313298,-0.0879774447473114,10.42097271964463,0.2800462043577898,6.631528094319308,-0.585228930131442
0.141,9.478290794946707,-0.23043805022682662,10.426119874441378,-0.06680423312525718,6.634803556462694,-0.9395542264633141
0.142,9.482406795691702,-0.14159993663016124,10.430647475260873,-0.3472570740591472,6.637684756984191,-1.107714944568717
0.143,9.485961458562159,-0.5886530811299924,10.434557604418375,-0.949039277076098,6.640173020993511,-1.0410676014553788
0.144,9.488956723272521,-0.3762467747803502,10.437852395599775,-0.8053163117763198,6.642269706290764,-1.0693774433192225
0.145,9.49139457598367,-0.24173433273842626,10.440534033582036,-0.42888046107739264,6.6439762031885685,-1.201244039483151
0.146,9.493277049044373,-0.32725808398278566,10.44260475394881,-0.0897791906363512,6.645293934331061,-0.8840473026902851
0.147,9.494606220728304,0.03169196893462001,10.444066842801135,0.7388848310371614,6.646224354509813,-0.467498029540927
0.148,9.495384214966695,0.922816623827547,10.444922636463366,1.867021678926303,6.646768950476686,0.13874336680188648
0.149,9.495613201076615,2.0847411036195673,10.445174521184278,3.087344924268683,6.6469292407536305,1.011743913820033
0.15,9.495295393484954,3.0618800002483404,10.44482493283345,3.9539678838231955,6.646706775439467,1.8174005922787906
0.151,9.494433051448059,4.591329717073992,10.443876356592865,5.317443295331627,6.646103136013641,2.8052264252755252
0.152,9.493028478767169,6.440146697010488,10.442331326643886,7.514378687108496,6.645119935137018,3.8105078102896437
0.153,9.491084023499546,8.426064818865012,10.440192425849501,9.454304849079236,6.643758816449682,5.087611503364074
0.154,9.488602077665455,10.178461567203865,10.437462285432002,11.473315535065396,6.642021454365818,6.406759270683088
0.155,9.485585076950926,12.122303297128937,10.43414358464602,13.304413180907336,6.639909553865648,7.6720092939736695
0.156,9.482035500406411,14.134707107585914,10.430239050447053,15.144889284310052,6.6374248502844875,9.047279295667327
0.157,9.477955870141287,15.970880903011786,10.425751457155416,17.279851959077583,6.6345691090989005,10.083885310500719
0.158,9.473348751014328,17.62906343369587,10.42068362611576,19.26621211151393,6.631344125710029,11.178512148879015
0.159,9.46821675032008,18.891546161955958,10.415038425352089,20.817933401720794,6.627751725224056,12.178345075525652
0.16,9.462562517471255,19.841962217058608,10.408818769218382,22.001807489543765,6.623793762229878,12.817497774061746
0.161,9.456388743677138,20.561806084678057,10.402027618044853,22.85406264270598,6.619472120573996,13.130427367324646
0.162,9.449698161618043,20.73708336440604,10.394667977779848,23.175807016105125,6.61478871313263,13.181525796816867
0.163,9.442493545115852,20.958570906419972,10.386742899627437,22.873475665583726,6.609745481581096,13.268908578695058
0.164,9.434777708800691,20.2843723438545,10.378255479680762,22.17428602017158,6.604344396160483,13.321753345368478
0.165,9.426553507773752,19.51788938415016,10.369208858551128,21.745204063613897,6.598587455441626,12.791652306041572
0.166,9.417823837266303,18.5511882717056,10.359606220992934,20.655010304576802,6.592476686086411,12.204083285498637
0.167,9.408591632294945,17.42054037032574,10.34945079552444,19.38805310759009,6.586014142606461,11.019593104020874
0.168,9.398859867313115,16.100853167607887,10.338745854044427,17.815561599238436,6.57920190711918,10.107902186420631
0.169,9.388631555858904,14.773898476370285,10.327494711444794,16.075400153677833,6.572042089101233,8.869195378113098
0.17,9.377909750199194,13.036039822942488,10.315700725219115,14.240127275909465,6.564536825139435,7.66904575238768
0.171,9.3666975409702,11.103235520781663,10.303367295067222,12.435379543451187,6.55668827867914,6.508633149895914
0.172,9.354998056814399,9.325336031953249,10.290497862495839,10.320554146997086,6.548498639770079,5.113961236233105
0.173,9.342814464013909,7.595957640877647,10.2770959104153,8.742366637821714,6.539970124809736,4.465907272419656
0.174,9.330149966120391,6.170610082453564,10.26316496273243,6.859116351306765,6.531104976284274,3.3321147972564824
0.175,9.31700780358143,4.587581762246598,10.248708583939573,5.398062219963699,6.521905462507,2.4937793275818043
0.176,9.303391253363527,3.4061802087401354,10.23373037869988,3.841684733648946,6.512373877354468,1.9091123205960265
0.177,9.289303628571663,2.80729128776823,10.21823399142883,2.779773835776533,6.502512540000163,1.288651007825104
0.178,9.274748278065541,2.1146796637250196,10.202223105872095,1.863995431230168,6.492323794645879,0.6121127626124441
0.179,9.259728586072473,1.3995252193793668,10.18570144467972,1.3605132135418838,6.481810010250731,0.29815641278867666
0.18,9.244247971797048,1.0624730904799007,10.168672768976753,1.244193170111899,6.470973580257933,-0.14093900333908493
0.181,9.22830988902751,0.543482806247229,10.151140877930262,1.173744540095118,6.459816922319257,-0.2107505740481619
0.182,9.211917825738986,0.6641180432000322,10.133109608312886,1.6931900934622224,6.44834247801729,0.1149011602959753
0.183,9.195075303693534,1.2492272304608898,10.114582834062888,2.053156556779985,6.436552712585473,0.07066435284828998
0.184,9.177785878037115,1.3209224618643773,10.095564465840827,2.274913573883234,6.42445011462598,0.19175395986149368
0.185,9.160053136893463,1.4169029087124798,10.07605845058281,2.5996892512161303,6.412037195825424,0.7357166867515641
0.186,9.141880700954951,1.7216570024867597,10.056068771050448,3.057634116202311,6.399316490668466,0.9822097342346083
0.187,9.123272223070467,2.3426298450053533,10.035599445377514,3.5765846937289094,6.386290556149326,1.1259298739672232
0.188,9.104231387830358,3.067665417371395,10.014654526613395,3.627642914300413,6.37296197148125,1.4418899053639098
0.189,9.084761911148467,3.4618408578441455,9.993238102263314,4.077372019034126,6.3593333378039265,1.6015426226840033
0.19,9.064867539841323,3.4533971886287613,9.971354293825456,4.058269277290284,6.345407277888926,1.419522886414903
0.191,9.044552051204521,3.681143598560757,9.949007256324974,4.406493522630493,6.331186435843164,1.4336656317910066
0.192,9.023819252586343,4.238779388187057,9.926201177844977,4.83251708314196,6.31667347681044,1.9184346739471696
0.193,9.002672980958634,4.327217913008555,9.902940279054498,5.0471526459255,6.301871086671043,2.117696029306603
0.194,8.98111710248504,4.527812031632969,9.879228812733546,4.696516977298941,6.2867819717395275,2.4778809449890282
0.195,8.959155512086577,4.789632452316633,9.855071063295235,4.567885968561178,6.271408858460603,2.496299463515523
0.196,8.936792133004632,4.764409672382762,9.830471346305096,5.074099487923101,6.255754493103242,2.7171244643244554
0.197,8.914030916361419,5.384434585721571,9.805434007997562,5.013426217167783,6.239821641452993,2.9940714060062894
0.198,8.890875840717941,6.085023739520718,9.779963424789736,5.821364808545047,6.2236130885025585,3.3107025917126967
0.199,8.8673309116295,6.352240225406362,9.75406400279245,6.857759722230442,6.207131638140649,3.8463999745200312
0.2,8.843400161198787,6.960949518231958,9.727740177318665,8.08279295723619,6.190380112839151,4.308347298919456
0.201,8.819087647626652,7.83849170994495,9.700996412389319,9.16572399561456,6.173361353338656,5.230129621511322
0.202,8.794397454760514,9.241645975549764,9.673837200236566,10.586689754514378,6.156078218332359,6.145027283615642
0.203,8.769333691640556,10.475403020608248,9.646267060804613,12.112935440370117,6.138533584148389,7.068589302607641
0.204,8.74390049204365,12.075964807745656,9.618290541248015,13.402233892364135,6.120730344430555,8.124988000573017
0.205,8.718102014025147,13.635882890359522,9.589912215427663,15.310171142970916,6.102671409817603,9.180363697883053
0.206,8.691942439458552,15.290579771666899,9.561136683404408,17.389514816951007,6.084359707620986,10.071743294391517
0.207,8.665425973573068,17.017868545852558,9.531968570930376,19.275107102560707,6.0657981815011475,11.084141760028519
0.208,8.63855684448918,18.62414787657884,9.502412528938098,20.815939510952873,6.046989791142426,12.17667402889418
0.209,8.611339302752206,20.043884169126297,9.472473233027427,22.51167448462197,6.027937511926544,13.1587947073291
0.21,8.583777620863946,21.35430332817002,9.442155382950341,24.120316594460697,6.008644334604762,14.157553054139214
0.211,8.555876092812435,22.404329116613162,9.411463702093679,25.421125074445907,5.9891132649687036,14.96947724605021
0.212,8.52763903359985,23.08713520493945,9.380402936959836,26.366613924743998,5.969347323519895,15.419941217292513
0.213,8.499070778768669,23.415206502248047,9.348977856645536,26.375078463446435,5.949349545138068,15.600645139841262
0.214,8.470175683926028,23.872652613656168,9.317193252318631,26.49034386005141,5.929122978748219,15.793209645895145
0.215,8.440958124266466,23.471408391997656,9.285053936693114,26.26536971657483,5.908670686986525,15.643907112615064
0.216,8.411422494092951,23.087758553769618,9.252564743502248,25.72643906466194,5.887995745865066,15.127267975378178
0.217,8.381573206336393,21.925022997293276,9.219730526970032,24.678605165852744,5.867101244435474,14.304907923460647
0.218,8.351414692073535,20.762575488212477,9.186556161280889,23.506995827405653,5.8459902844514735,13.33989695999954
0.219,8.32095140004344,19.502795933352424,9.153046540047784,21.259869397836727,5.8246659800304075,12.335458613948806
0.22,8.29018779616245,17.55750092118592,9.119206575778694,19.336453897453517,5.8031314573137145,11.342062416441397
0.221,8.25912836303783,15.387716250217398,9.085041199341614,17.19957610911308,5.7813898541264805,9.935443439859256
0.222,8.227777599480001,13.175071734818477,9.050555359428003,15.031386590578318,5.759444319636001,8.36769234352528
0.223,8.196140020013551,11.012844741758393,9.015754022014907,12.942584277202078,5.737298014009486,7.198758552179174
0.224,8.164220154386934,8.943313634857969,8.980642169825629,10.317020994242652,5.714954108070853,5.658789833942341
0.225,8.13202254708104,6.881089449332398,8.945224801789143,8.341315025503501,5.6924157829567275,4.125004382899359
0.226,8.099551756816574,4.886750837272516,8.909506932498232,6.3420046207175,5.669686229771601,2.7554997628626854
0.227,8.066812356060401,3.566820766360509,8.873493591666442,4.322248136817301,5.64676864924228,1.516408891060435
0.228,8.033808930530784,2.0051133102077623,8.837189823583863,2.4086571880808405,5.6236662513715485,0.6835456893974587
0.229,8.000546078701703,0.6224149390309037,8.800600686571874,1.0469971300807632,5.6003822550911915,-0.40310401864963463
0.23,7.967028411306167,-0.18505598917538357,8.763731252436784,0.002681523308677214,5.5769198879143165,-0.9603627330703679
0.231,7.933260550838723,-0.7324654904980576,8.726586605922595,-0.7312478893770766,5.553282385587106,-1.422983873029687
0.232,7.899247131057032,-0.9179203294452787,8.689171844162736,-1.3913711878038146,5.529472991739922,-1.7795572803930524
0.233,7.86499279648276,-0.7812902901423939,8.651492076131037,-1.492987759321375,5.505494957537931,-1.9288531965463793
0.234,7.830502201901646,-0.7784759538393189,8.61355242209181,-1.5919337368347346,5.4813515413311515,-1.9135842774975726
0.235,7.795780011862973,-0.7205000090507454,8.575358013049271,-1.1235366293566713,5.457046008304081,-1.724386495387547
0.236,7.760830900178323,-0.8303595613384278,8.536913990196156,-0.4165458575295844,5.432581630124826,-1.5167090538800245
0.237,7.725659549419841,-0.6028227273338338,8.498225504361825,-0.18838472509792403,5.4079616845938885,-1.181926829695481
0.238,7.690270650417884,-0.06569309039086058,8.459297715459673,0.3222780674600081,5.383189455292518,-0.9077509281687739
0.239,7.654668901758282,0.21167118867903945,8.420135791934111,1.06160794072618,5.358268231230797,-0.19601769854136109
0.24,7.61885900927909,0.42280073518030914,8.380744910207,1.6203937670186184,5.333201306495362,0.3103899521596247
0.241,7.582845685567045,0.959793628514304,8.34113025412375,1.783517118511269,5.307991979896931,0.7053906886317387
0.242,7.54663364945363,1.582389301847095,8.301297014398994,2.4149664967398046,5.2826435546175405,0.928721082784028
0.243,7.510227625510939,1.9228762383569773,8.261250388062033,2.643023558452036,5.257159337857657,1.2965976850858456
0.244,7.47363234354725,2.4387359642612045,8.220995577901975,3.0044932257368977,5.231542640483075,1.54149989730243
0.245,7.436852538102515,2.8323353369749853,8.180537791912768,3.0509262878292285,5.20579677667176,1.7268150179523682
0.246,7.3998929479436475,3.2914236503806213,8.139882242738013,3.4843675863820014,5.179925063560553,1.8015100475795505
0.247,7.3627583155598275,3.9281969277346382,8.09903414711581,3.62765235574512,5.153930820891879,1.9953046953325018
0.248,7.3254533866577285,4.634660447527603,8.057998725323502,4.097106809330834,5.127817370660409,2.399028920061225
0.249,7.287982909656843,4.969937323202909,8.016781200622528,4.3577717738454025,5.1015880367597894,2.5915039395789177
0.25,7.2503516351848445,5.141950261042763,7.97538679870333,4.653197696287887,5.075246144629391,2.7928942404087658
0.251,7.212564315573152,5.541819964715287,7.933820747130468,5.2704370972389025,5.048795020901206,3.1238323444546907
0.252,7.174625704352627,6.373870093095395,7.89208827478789,5.685770463679263,5.022237993046838,3.5332055371924476
0.253,7.136540555749578,6.823058578305799,7.850194611324537,6.9045472472155955,4.995578389024704,3.954832085586057
0.254,7.098313624182009,7.905314182551373,7.808144986600211,7.877460860231337,4.968819536927406,4.454361569405609
0.255,7.059949663756272,8.772415829134761,7.7659446301319,8.82591714790248,4.94196476462939,5.270745641283026
0.256,7.0214534277640634,9.844885095231843,7.7235987705404705,9.950184722797168,4.915017399434844,6.212418251576859
0.257,6.982829668179929,10.800461672354388,7.681112634997922,11.270795157671241,4.88798076772595,7.346881052362614
0.258,6.944083135159224,11.727718686353317,7.638491448675147,12.862050768444679,4.860858194611457,8.234515191678309
0.259,6.905218576536675,12.903850760762822,7.595740434190343,14.024190109196999,4.833653003575672,9.078768951748733
0.26,6.866240737325496,14.363799956983085,7.552864811058046,15.279343799462108,4.806368516127847,10.008413414918245
0.261,6.827154359217225,15.306320252243836,7.509869795138948,16.511738754720025,4.779008051452057,10.612776022524713
0.262,6.7879641800821995,16.58590978807684,7.46676059809042,17.93639773037584,4.75157492605754,11.352042426734908
0.263,6.748674933470865,17.204803410318036,7.423542426817953,18.993834830421346,4.7240724534296055,12.00624696227883
0.264,6.709291348115822,17.5029813036526,7.380220482927404,19.899823077293906,4.696503943681075,12.481522998904651
0.265,6.6698181474348015,17.81486948647349,7.336799962178282,20.12927334499542,4.668872703204361,12.84506363146197
0.266,6.630260049034488,17.904681995090645,7.293286053937938,20.340585617985496,4.6411820343241414,12.66222609527405
0.267,6.59062176421538,17.564894891096465,7.249683940636919,20.13969780644323,4.613435234950766,12.287179135701072
0.268,6.550907997477579,16.893815000030347,7.205998797225337,19.439756427726426,4.5856355982343056,11.738302773823893
0.269,6.5111234460277165,16.199838664801348,7.162235790630489,18.409014966492627,4.557786412219401,10.852322927280628
0.27,6.471272799286959,14.88477549658505,7.118400079215656,16.751838912702752,4.529890959500871,10.014630190839021
0.271,6.431360738400166,13.205454864499737,7.074496812240183,15.372444006504052,4.501952516880116,9.012307555844199
0.272,6.391391935746305,11.199520580378946,7.030531129320936,13.276592843213011,4.473974355022413,7.841234665257462
0.273,6.351371054450077,9.54776699175553,6.986508159895085,11.206886236743015,4.445959738115054,6.500493554747879
0.274,6.311302747894917,7.440008286672378,6.942433022684409,9.060440184562625,4.417911923526441,5.217144264822513
0.275,6.271191659237288,5.337659525129709,6.898310825161017,6.430700778905928,4.389834161466101,3.8447631625359433
0.276,6.23104242092246,3.5605537660890567,6.854146663014706,4.177301950608727,4.361729694645722,2.332388029187269
0.277,6.1908596542016845,2.0690737316855694,6.809945619621853,2.1034346095021794,4.333601757941179,0.5781678804542985
0.278,6.150647968650945,0.34356791426952604,6.7657127655160405,0.1423952325431186,4.305453578055661,-0.6494496406703298
0.279,6.110411961691203,-1.2413557553373211,6.721453157860324,-1.5559598394996446,4.277288373183842,-1.6702021619610532
0.28,6.070156218110315,-2.532086299080391,6.677171839921346,-2.6270824068420353,4.24910935267722,-2.5107862729568504
0.281,6.029885309586552,-3.617787828404877,6.632873840545208,-3.9189274778491,4.220919716710586,-3.1825521066987124
0.282,5.989603794213879,-4.36200530150327,6.588564173635268,-4.944470724817188,4.192722655949716,-3.6877981062303222
0.283,5.94931621602894,-4.781853981612051,6.5442478376318345,-5.4435982372293275,4.164521351220258,-4.011381915294116
0.284,5.9090271045398755,-4.634903834904373,6.499929814993863,-5.300223045437534,4.136318973177913,-4.137550574662386
0.285,5.868740974256994,-4.418762361552437,6.455615071682694,-4.837718044928113,4.108118681979896,-3.8467087933524793
0.286,5.82846232422531,-3.6522971856569892,6.411308556647842,-4.162625446324794,4.079923626957717,-3.295460171334292
0.287,5.788195637559081,-2.9877778485362496,6.36701520131499,-3.1909648147406333,4.051736946291356,-2.937682592997175
0.288,5.7479453809782655,-2.1925628324168622,6.322739919076093,-2.188712323503114,4.023561766684786,-2.27567064272251
0.289,5.707716004347111,-0.9310296014835133,6.278487604781822,-1.2184320100438466,3.9954012030429773,-1.408747376076942
0.29,5.667511940214732,0.13392161276483794,6.234263134236206,-0.240231185344979,3.9672583581503122,-0.6384895801310013
0.291,5.627337603357918,1.20455939258009,6.19007136369371,0.7263743972944763,3.9391363223505422,0.2809768983360099
0.292,5.5871973903260335,2.302426464249006,6.145917129358637,1.936531243739048,3.9110381732282233,1.2311325240980375
0.293,5.547095678988222,3.6420215520421215,6.101805246887045,3.320472337854209,3.882966975291755,2.0362476933213363
0.294,5.507036828082819,4.647402003382046,6.057740510891101,4.479749208914459,3.8549257796579726,2.658839328917693
0.295,5.467025176769138,5.746004976868742,6.013727694446052,5.481613638706251,3.826917623738396,3.4765254044791147
0.296,5.427065044181566,6.423899251328408,5.969771548599723,6.130631294446252,3.798945530927096,3.981363853629193
0.297,5.387160728986127,7.274205358164959,5.9258768018847405,7.4873039579898055,3.771012510290289,4.418789429113222
0.298,5.347316508939439,7.8427308167158785,5.882048159833384,7.93022253697819,3.743121556257607,4.9038004127661985
0.299,5.307536640450233,8.463581171897557,5.838290304495257,8.51520416138789,3.715275648315163,5.212443704803063
0.3,5.267825358143346,9.033415907815199,5.794607893957681,9.229497540185381,3.6874777507003422,5.497356829560532
0.301,5.228186874426374,9.178893696403433,5.751005561869012,9.676718323333674,3.6597308120984615,5.74306475913823
0.302,5.188625379058888,9.550898325024612,5.707487916964777,9.934572610257861,3.6320377653412215,6.018361075151194
0.303,5.149145038724393,10.127020361349974,5.664059542596833,10.592770152130907,3.604401527107075,6.364259108035303
0.304,5.109749996604938,10.767003475343348,5.620724996265432,10.811117823229697,3.5768249976234565,6.434817893739489
0.305,5.070444371958542,11.48235785624464,5.5774888091543975,11.808761235679128,3.549311060370979,6.839444291457717
0.306,5.03123225969939,12.025510033761218,5.534355485669329,12.527463339463749,3.521862581789573,7.060841472456832
0.307,4.9921177299809045,12.940332150043982,5.491329502978996,13.20923121020869,3.494482410986633,7.547755692730078
0.308,4.953104827781667,13.464005345973062,5.448415310559834,13.72076648320014,3.467173379447167,8.18837046293986
0.309,4.914197572494326,13.898564134285385,5.40561732974376,14.383158188063383,3.4399383007460282,8.763536166587514
0.31,4.875399957517412,14.644328612463795,5.362939953269153,15.343639252644486,3.412779970262188,9.50356137622903
0.311,4.836715949850232,15.691554320869164,5.320387544835255,16.725418885452534,3.3857011648951625,10.177033748172814
0.312,4.798149489690758,16.21953560922334,5.277964438659834,17.64994761806345,3.3587046427835303,10.462213051488117
0.313,4.759704490036671,16.612229016230458,5.235674939040338,18.50078639279073,3.3317931430256693,11.184652563454138
0.314,4.721384836289494,16.85586037444933,5.193523319918444,19.209502912639966,3.3049693854026456,11.66057309226111
0.315,4.683194385861908,17.44898050424471,5.1515138244481,20.153310923805673,3.2782360701033353,11.892287704544739
0.316,4.645136967788326,17.369696354442496,5.109650664567159,20.191522274443663,3.251595877451828,11.99152151850316
0.317,4.6072163823386525,17.464058770763607,5.067938020572518,20.410451511862952,3.2250514676370567,11.691461487300575
0.318,4.569436400635408,17.08735068530419,5.02638004069895,19.860565580834646,3.1986054804447854,11.543636008490829
0.319,4.5318007642741245,16.32839200356858,4.984980840701537,18.933999802207357,3.172260534991887,11.239506723125473
0.32,4.494313184947167,15.23294871780574,4.943744503441884,17.833939861079646,3.1460192294630165,10.522918444385098
0.321,4.456977344070912,14.097878644652251,4.902675078478004,16.41360959125751,3.1198841408496385,9.573598685050104
0.322,4.419796892416423,12.48405125098991,4.861776581658066,14.837362827554667,3.0938578246914963,8.585677662033827
0.323,4.382775449743562,10.785548344042928,4.821052994717919,12.348336575561792,3.0679428148204932,7.567219262322339
0.324,4.345916604438667,8.961009176634162,4.780508264882534,10.237139940267674,3.042141623107067,6.37226956641249
0.325,4.309223913155743,7.0166661384542595,4.740146304471318,7.793849759494067,3.01645673920902,5.0192056272091445
0.326,4.2727009004612935,5.031937883765058,4.699970990507423,5.238276879020149,2.9908906303229053,3.7590201811215933
0.327,4.236351058482729,2.8488316171990222,4.659986164331002,2.5452341911348113,2.96544574093791,2.30159627027066
0.328,4.200177846560496,0.46284588713449004,4.620195631216546,0.1302608994989125,2.9401244925923473,0.8978840444683613
0.329,4.164184690903849,-1.4891958401757321,4.580603159994235,-2.1952116113177436,2.9149292836326945,-0.5904714622727902
0.33,4.128374984250415,-3.242696363921892,4.541212482675458,-4.306576150895533,2.8898624889752904,-2.0148529238696873
0.331,4.092752085529465,-4.950605076299301,4.502027294082412,-6.431865238614343,2.8649264598706257,-3.062755914055917
0.332,4.057319319529055,-6.402254739078794,4.463051251481962,-7.845128262748792,2.8401235236703384,-4.227162720349257
0.333,4.022079976566935,-6.98694009912203,4.4242879742236285,-9.12671470540646,2.8154559835968542,-4.959837008267115
0.334,3.987037312165387,-8.044191763337452,4.385741043381926,-10.220820010189342,2.7909261185157708,-5.607671419228238
0.335,3.9521945467299187,-8.373384171800911,4.347414001402911,-10.674914762690905,2.7665361827109427,-5.872444376822292
0.336,3.917554865231928,-8.264308086940801,4.309310351755121,-10.808935377730645,2.7422884056623493,-5.914136624277173
0.337,3.883121416895297,-8.132103267971114,4.271433558584827,-10.407561882789999,2.718184991826708,-5.748127005049408
0.338,3.848897314887025,-7.663820207706934,4.233787046375728,-9.832684303021114,2.694228120420917,-5.403519782279502
0.339,3.8148856360118426,-6.983730459276559,4.196374199613027,-9.174913631400518,2.6704199452082897,-4.802512024216385
0.34,3.781089420410936,-6.007165763838121,4.15919836245203,-8.146898175127625,2.646762594287655,-4.040099781799372
0.341,3.7475116712647107,-4.695112511759218,4.122262838391182,-7.127489728944248,2.6232581698852973,-3.469301230456744
0.342,3.7141553544997175,-3.518920506043359,4.08557088994969,-5.343618020182646,2.599908748149802,-2.615509772815339
0.343,3.6810233984996916,-1.6271242328686384,4.0491257383496615,-3.514162314969879,2.576716378949784,-1.7790975406370166
0.344,3.6481186938207983,-0.5114431667582311,4.012930563202879,-1.7027170970138892,2.5536830856745585,-0.8524528415746242
0.345,3.615444092911062,0.9391142516773057,3.9769885022021687,-0.4259107867442493,2.5308108650377434,-0.047482819714257385
0.346,3.5830024098340374,2.1159133422644842,3.9413026508174416,1.1801624938783148,2.508101686883826,0.9405179617144745
0.347,3.5507964199967583,3.088806479160267,3.9058760619964343,2.4307546094865886,2.4855574939977307,1.6423964056240883
0.348,3.5188288598819355,4.2076593093852175,3.8707117458701292,3.253744321809176,2.4631802019173548,2.4014543764935086
0.349,3.48710242678452,4.549588597884906,3.835812669462972,3.981077259836287,2.4409716987491636,2.777713419182879
0.35,3.4556197785525606,5.198998274512674,3.801181756407817,4.666399905284532,2.418933844986792,3.166116618095293
0.351,3.4243835333324704,5.488549148846015,3.7668218866657175,5.270298640663722,2.397068473332729,3.422429651448585
0.352,3.3933962693186492,5.744171001566631,3.7327358962505146,5.80394958722617,2.3753773885230545,3.751675380028437
0.353,3.3626605245075565,5.917036243468365,3.6989265769583124,6.151432699489081,2.353862367155289,3.793653734360628
0.354,3.3321787964562013,5.9480455073450695,3.6653966761018215,6.3566404067101825,2.3325251575193406,3.7383319078197417
0.355,3.30195354204512,5.8333261150438895,3.632148896249632,6.91009763805347,2.311367479431584,3.8368979747328966
0.356,3.271987177245819,6.158886365220845,3.599185894970401,7.10830532723668,2.2903910240720733,4.106234808435844
0.357,3.242282076892762,6.406397601760544,3.5665102845820384,7.324079856981825,2.2695974538249333,4.188636229648256
0.358,3.2128405744598574,6.6496738063354375,3.5341246319058435,7.5823099246986825,2.2489884021219,4.460672560379237
0.359,3.18366496184154,7.164975286726261,3.5020314580256944,7.930452158302944,2.228565473289078,4.636883952944947
0.36,3.154757489138409,7.661661588964726,3.4702332380522503,8.072750364377555,2.2083302423968862,4.706856874869585
0.361,3.126120364447458,8.060814784598026,3.438732400892204,8.385349195916419,2.1882842551132207,5.201723003632656
0.362,3.0977557536569647,9.17165451965468,3.407531329022661,9.522341516392117,2.168429027559875,5.680470535662451
0.363,3.069665780245983,9.835332550765525,3.3766323582705815,9.721985492507795,2.148766046172188,6.064304242710859
0.364,3.041852525088518,10.761567614318093,3.34603777759737,10.372466803091687,2.1292967675619625,6.451917364894662
0.365,3.014318026262373,11.031354742736111,3.3157498288886105,10.98240388534272,2.110022618383661,6.771483859610712
0.366,2.987064278862709,11.37279432941012,3.28577070674898,11.641061532762887,2.090944995203896,6.919659249799979
0.367,2.9600932348203015,11.30078244148898,3.2561025583023318,12.001860664121967,2.072065264374211,7.323297491452409
0.368,2.933406802724554,11.28581426020115,3.22674748299701,12.516991558819424,2.053384761907188,7.397520031116796
0.369,2.9070068476512523,11.040008010890123,3.197707532416378,12.417538224649295,2.0349047933558766,7.401960700387441
0.37,2.880895190995096,11.305976714823258,3.168984710094606,12.320267733414315,2.0166266336965673,7.125472435161253
0.371,2.8550736103070076,10.5376019767692,3.1405809713377084,11.867825123331395,1.9985515272149053,6.819431229913398
0.372,2.829543839136263,9.634309702923472,3.112498223049889,11.237282620781016,1.980680687395384,6.429966284279103
0.373,2.804307566877406,8.251045912791707,3.084738323565147,9.977009977563561,1.963015296814184,5.714050818831192
0.374,2.779366438622046,7.066380604635445,3.0573030824842506,8.55390969513207,1.945556507035432,4.860890228805204
0.375,2.7547220550154448,5.378603045644313,3.0301942605169896,6.736096029155679,1.9283054385108112,3.931187913033348
0.376,2.7303759721180167,3.904738746162498,3.0034135693298185,4.865947761503937,1.9112631804826117,2.8475807734927168
0.377,2.7063297012716676,1.7480021357024125,2.9769626713988346,2.8771926190946453,1.8944307908901672,1.7173135076357278
0.378,2.6825847089710386,-0.10618798877748103,2.950843179868143,0.3118717958040951,1.8778092962797268,0.426331054488049
0.379,2.659142416739649,-2.312696414226921,2.9250566584136144,-1.7835709090727074,1.8613996917177542,-0.8706200509876036
0.38,2.63600420101094,-4.157801046573171,2.8996046211120343,-3.5855406693344283,1.845202940707658,-2.1403855565485777
0.381,2.613171393014259,-5.839001813282016,2.874488532315685,-5.767520368562949,1.8292199751099811,-3.2384729189002748
0.382,2.59064527866576,-7.403170554733796,2.8497098065323363,-7.638852387920582,1.813451695066032,-4.400337688565274
0.383,2.568427098464264,-8.7069657805914,2.825269808310691,-8.759200673493577,1.7978989689249847,-5.252330189099002
0.384,2.5465180473920634,-9.431777521801937,2.8011698521312702,-9.556508598806216,1.7825626331744442,-5.6637053022624775
0.385,2.524919274820694,-9.624802604215102,2.7774112023027637,-10.465629908895247,1.7674434923744855,-6.152254673622414
0.386,2.503631884421682,-9.891136224786502,2.7539950728638507,-10.807133131988765,1.7525423190951772,-6.617692679533528
0.387,2.4826569340822626,-10.051378556102229,2.730922627490489,-10.818673314783654,1.7378598538575838,-6.686061093748675
0.388,2.4619954358261067,-9.65915750575425,2.7081949794087175,-10.166176794344802,1.7233968050782746,-6.373916647458396
0.389,2.4416483557390185,-9.019677324755751,2.6858131913129206,-9.54803524261354,1.7091538490173128,-6.014665098007008
0.39,2.4216166138996558,-7.820919604750973,2.6637782752896215,-8.545731332410528,1.695131629729759,-5.472209116397943
0.391,2.401901084315253,-6.497441383711071,2.6420911927467787,-6.8639939951464,1.681330759020677,-4.784754566553099
0.392,2.382502594862352,-5.337124943359893,2.6207528543485874,-5.489582903047942,1.6677518164036462,-3.7624851614217762
0.393,2.3634219272325687,-3.4493999229049193,2.5997641199558257,-3.80230757589235,1.654395349062798,-2.3718393538267475
0.394,2.3446598168833717,-1.5117508168536982,2.579125798571709,-1.8535640719715754,1.64126187181836,-1.2348281545787754
0.395,2.326216952993895,0.5524394080644259,2.5588386482932846,0.4424320370127228,1.6283518670957264,0.13572524660565488
0.396,2.308093978425778,2.1682184900358044,2.538903376268356,2.0873694432727246,1.6156657848980447,1.3197406427819571
0.397,2.2902914896890554,3.8905751072024484,2.519320638657961,3.789185386924543,1.6032040427823386,2.443460250541687
0.398,2.2728100369130715,5.194131712101064,2.500091040604379,5.663154424706454,1.59096702583915,3.616792973189906
0.399,2.2556501238224396,6.5946800916913055,2.4812151362046837,7.384399539002138,1.5789550866757076,4.386130385355993
0.4,2.2388122077180492,7.901911413208506,2.4626934284898545,8.768534323529057,1.5671685454026343,5.496905744566284
0.401,2.222296699463114,8.793536942134104,2.444526369409426,9.855932833852492,1.5556076896241797,6.283299396120716
0.402,2.2061039634742547,9.687452588835239,2.4267143598216805,10.77414455849437,1.5442727744319782,6.990041097880813
0.403,2.1902343177176444,10.33696045879231,2.409257749489409,11.108249514874295,1.533164022402351,7.35867323900351
0.404,2.174688033710181,10.671889781448519,2.3921568370811994,11.624189336082374,1.5222816235971266,7.707763671594978
0.405,2.159465336525713,11.220182196180106,2.3754118701782847,12.257423264241242,1.511625735567999,7.997183627704391
0.406,2.1445664048063042,11.276266247232527,2.3590230452869347,12.088738225325773,1.501196483364413,8.036633372279208
0.407,2.129991370778531,11.307268749091726,2.3429905078563844,11.952638510043956,1.4909939595449715,7.8974954390752075
0.408,2.1157403202748313,10.944737071339958,2.3273143523023148,11.837794722816176,1.4810182241923817,7.7130996313565126
0.409,2.1018132927598687,10.969712210258864,2.3119946220358556,11.6977231490419,1.471269304931908,7.587763995950238
0.41,2.088210281361948,10.771190723347864,2.297031309498143,12.026262444431554,1.4617471969533635,7.550636994470544
0.411,2.074931232909436,10.879061300458437,2.2824243562003796,11.711518747510663,1.4524518630366052,7.462400371432032
0.412,2.061976047972218,10.5388719787544,2.26817365276944,11.40233100917832,1.4433832335805523,7.348689556877465
0.413,2.0493445809081665,10.607529884822803,2.2542790389989835,11.571779966261666,1.4345412066357164,7.428255690183368
0.414,2.037036639914625,10.175333998626213,2.2407403039060876,11.443758700815238,1.4259256479402374,7.360326832321653
0.415,2.0250519870848827,10.367855801545936,2.227557185793371,11.668240992046119,1.4175363909594179,7.295352389613824
0.416,2.0133903384696703,10.389309140863071,2.2147293723166377,11.66058268684216,1.409373236928769,7.4564104226630405
0.417,2.0020513641436244,10.505651519508143,2.202256500557987,11.778451639746915,1.401435954900537,7.534402715823317
0.418,1.9910346882767485,10.361055200267668,2.1901381571044234,11.384275000619876,1.3937242817937239,7.321362873980355
0.419,1.9803398892108435,10.074175209402492,2.178373878131928,11.379085794095566,1.3862379224475903,7.0538996200041355
0.42,1.969966499540913,9.790643905552042,2.1669631494950043,11.180957959125063,1.378976549678639,6.754533937549848
0.421,1.9599140062015126,9.489610961570264,2.155905406821664,10.710270359574992,1.3719398043410587,6.516012562977685
0.422,1.9501818505580548,9.082702210180283,2.1452000356138603,9.837452907278182,1.3651272953906384,6.321510257329134
0.423,1.9407694285030574,8.41110574126649,2.134846371353363,9.094906895129533,1.3585385999521402,6.00844378137063
0.424,1.9316760905572998,7.276133166380786,2.12484369961303,8.227545509468456,1.3521732633901098,5.431345200299259
0.425,1.9229011419759177,6.504233036590591,2.11519125617351,6.834932178507744,1.3460307993831422,4.860886053671494
0.426,1.9144438428593826,5.190958590232036,2.105888227145321,5.236555750274302,1.3401106900015678,3.885494074372021
0.427,1.9063034082693822,3.5001546708303874,2.0969337490963205,3.735597039198444,1.3344123857885675,2.912111956555851
0.428,1.898479008349577,1.8825747122585312,2.088326909184535,2.2506365961916255,1.3289353058447038,1.5871209615822497
0.429,1.8909697684512272,0.11362827311275625,2.08006674529635,0.43721407651807853,1.323678837915859,0.061013431843655264
0.43,1.883774769263657,-1.8059354246047188,2.072152246190023,-1.6164730094572732,1.3186423384845598,-1.306810884927133
0.431,1.8768930469495766,-3.7486985498615475,2.0645823516445345,-3.779614218477218,1.3138251328647035,-2.646426308577583
0.432,1.8703235932852076,-5.3741805513689656,2.0573559526137286,-5.824761719578724,1.3092265152996452,-3.5655494761046223
0.433,1.864065355805229,-6.75468339584843,2.050471891385752,-8.023733122914273,1.3048457490636602,-4.801121129981173
0.434,1.858117237952511,-8.745226025212224,2.0439289617477625,-9.740015877360236,1.3006820665667576,-6.052397878628202
0.435,1.85247809923262,-9.80641826421881,2.037725909155882,-10.91964384301028,1.2967346694628339,-6.847218908915764
0.436,1.8471467553730863,-10.85598965768893,2.031861430910395,-12.056578827051107,1.2930027287611603,-7.700724455785062
0.437,1.842121978487417,-11.543760470448303,2.026334176336159,-12.991309581695464,1.2894853849411918,-8.193109519387495
0.438,1.8374024972438239,-11.66805734627923,2.0211427469682066,-13.554039817922773,1.2861817480706765,-8.34345074364104
0.439,1.8329869970386614,-12.261476624394671,2.0162856967425276,-13.557813958712032,1.283090897927063,-8.508306021160095
0.44,1.8288741201745573,-11.746090233153389,2.011761532192013,-13.434743736507986,1.2802118841221901,-8.065038546680677
0.441,1.8250624660431978,-10.811024910425505,2.007568712647518,-12.83679881928142,1.2775437262302383,-7.4565358026687125
0.442,1.821550591312775,-9.978335750135475,2.0037056504440525,-11.337658064922433,1.2750854139189425,-6.747550344050203
0.443,1.8183370101200547,-8.991483655710454,2.00017071113206,-10.137244324238607,1.2728359070840383,-5.6488606050497285
0.444,1.8154201942670474,-7.13879883082503,1.9969622136937524,-8.61175291848864,1.270794135986933,-4.7084954620308235
0.445,1.8127985734222793,-5.826273484908317,1.9940784307645074,-6.641567104628719,1.2689590013955954,-3.4705336489427716
0.446,1.8104705353266182,-3.9297156190582365,1.9915175888592802,-4.721377916608952,1.2673293747286327,-2.23245101180182
0.447,1.8084344260036413,-1.8741020473613414,1.9892778686040056,-2.6259182838305484,1.265904098202549,-1.0871651939808362
0.448,1.806688549974532,0.02037051163277992,1.9873574049719853,-0.38297698506339484,1.2646819849821722,0.06647534894346907
0.449,1.8052311704774624,1.8679095602439881,1.9857542875252088,1.2252776062449096,1.2636618193342235,1.5502933442388034
0.45,1.8040605096914613,3.4131051149218203,1.9844665606606076,3.2321735254172532,1.2628423567840228,2.7833879499837497
0.451,1.803174748964727,4.940203012547251,1.9834922238611998,4.734281128399805,1.2622223242753088,3.862876016599235
0.452,1.8025720290473677,6.019441099177364,1.9828292319521046,6.084363515809423,1.2618004203331572,4.5795708727298265
0.453,1.8022504503285388,6.911821380866237,1.9824754953613928,7.669911990451007,1.2615753152299771,5.337720235016779
0.454,1.8022080730779644,7.6986193497430255,1.982428880385761,8.212301634975898,1.261545651154575,5.771807981766777
0.455,1.8024429176918,7.928605476680282,1.9826872094609802,8.959624586605429,1.26171004238426,6.337457677016772
0.456,1.802952964942829,8.383122772609608,1.983248261437112,9.556995400480409,1.2620670754599803,6.655388001131383
0.457,1.80373615623495,8.002788348679774,1.9841097718584453,9.500457187570724,1.262615309364465,6.775789034164324
0.458,1.8047903938619356,8.059306635254497,1.9852694332481293,9.266168560827737,1.2633532757033548,6.750862636274144
0.459,1.8061135412704337,7.975591592225198,1.9867248953974772,8.952370120685726,1.2642794788893035,6.494129289364212
0.46,1.8077034233271956,7.519753849060897,1.9884737656599154,8.456140844484066,1.2653923963290368,6.252265237542656
0.461,1.8095578265904706,6.919040630505729,1.990513609249518,8.063011312665571,1.2666904786133293,6.110221569142314
0.462,1.8116744995855782,6.47069013022783,1.9928419495441363,7.81078977582651,1.2681721497099048,5.780769858132099
0.463,1.814051153084601,6.233171343583771,1.9954562683930614,7.259575630002847,1.2698358071592206,5.270577642958914
0.464,1.816685460390171,5.943561433141835,1.9983540064291883,7.02892416520413,1.2716798222731196,5.092712948707124
0.465,1.8195750576233425,5.396057962928975,2.001532563385677,6.9303293020280075,1.2737025403363396,4.66488318651645
0.466,1.8227175440154886,5.166352974958671,2.0049892984170374,6.649770483616801,1.275902280810842,4.384387074182434
0.467,1.826110482204212,5.017610381878612,2.0087215304246335,6.447451300223744,1.2782773375429484,4.088325198177001
0.468,1.8297513985332339,4.900556595434166,2.0127265383865574,6.0469087237946475,1.2808259789732637,3.5404741732396414
0.469,1.833637783356227,4.56915816532535,2.01700156169185,5.256738162854345,1.2835464483493588,3.4476747557585714
0.47,1.837767091344562,4.496291763070443,2.0215438004790185,5.248119129345495,1.2864369639411934,3.6415006113804123
0.471,1.842136741798937,4.554776351742184,2.026350415978831,5.25555320246991,1.2894957192592558,3.5365537535301548
0.472,1.846744118964848,4.47223743740018,2.031418530861333,5.075436647863272,1.2927208832753934,3.7706934194220674
0.473,1.851586572351887,4.279824019838565,2.036745229587076,4.957807969744007,1.2961106006463208,3.4798235772965116
0.474,1.8566614170568054,4.224868898318398,2.0423275587624863,4.39034912571341,1.2996629919397638,3.180716404661827
0.475,1.8619659340903398,3.718962825367293,2.048162527499374,3.9367124835419847,1.3033761538632378,2.752735493063894
0.476,1.867497370707739,2.8708780016083635,2.054247107778513,3.528325486431795,1.307248159495417,2.256848644235152
0.477,1.8732529407429737,1.8945223409671734,2.060578234817271,2.7482684373941266,1.3112770585200815,1.7041419608421386
0.478,1.8792298249465933,0.9907421722713968,2.0671528074412526,1.944361156514725,1.3154608774626153,1.2065747016582753
0.479,1.8854251713271757,-0.37742387747614314,2.073967688459893,0.9669980004153902,1.319797619929023,0.26728449958602485
0.48,1.8918360954963678,-1.6081299028281215,2.0810197050460046,-0.7252833919896333,1.3242852668474574,-0.6168502407639782
0.481,1.8984596810174428,-2.7660638297377966,2.0883056491191874,-2.0472750282474452,1.32892177671221,-1.4714835261841308
0.482,1.9052929797573674,-3.840959546697488,2.095822277733104,-3.725881736773786,1.3337050858301571,-2.269715914602588
0.483,1.9123330122423248,-5.48330740405596,2.1035663134665574,-5.486345079685371,1.3386331085696273,-3.561928613306674
0.484,1.9195767680166638,-6.712833343625415,2.1115344448183304,-6.977993943682411,1.3437037376116645,-4.674790599287849
0.485,1.9270212060052332,-7.873374776982942,2.1197233266057567,-7.894274859629554,1.3489148442036631,-5.489428124645051
0.486,1.9346632548790637,-8.852513397684783,2.12812958036697,-9.175858360840746,1.3542642784153445,-6.0408130813798175
0.487,1.9424998134243556,-9.601656987174907,2.1367497947667915,-10.474058971597714,1.359749869397049,-6.68333116754638
0.488,1.9505277509147518,-10.132851417635699,2.1455805260062273,-11.377996259087682,1.3653694256403262,-6.976440932428313
0.489,1.9587439074868187,-10.085779562518795,2.154618298235501,-11.504073757256258,1.371120735240773,-6.8888998240145405
0.49,1.967145094518746,-9.776664454408035,2.163859603970621,-11.563696353324401,1.377001566163122,-6.8782580385352095
0.491,1.9757280950121707,-8.975529995143352,2.173300904513388,-11.52253645287979,1.3830096665085194,-6.662088028161344
0.492,1.9844896639771443,-8.307125817364552,2.182938630374859,-10.929145398712462,1.389142764784001,-6.104991246574589
0.493,1.9934265288201418,-7.385658831791119,2.192769181702156,-9.609327311379726,1.3953985701740992,-5.364679091760926
0.494,2.0025353897351255,-6.260450672441358,2.2027889287086384,-7.838693592312161,1.4017747728145877,-4.402922528732365
0.495,2.0118129200975825,-4.758209368941802,2.212994212107341,-6.074789396804273,1.4082690440683077,-3.318641966731122
0.496,2.0212557668615254,-2.7813847835348664,2.223381343547678,-3.830636751168349,1.4148790368030677,-2.0890309902715076
0.497,2.0308605509593827,-0.6287872968767809,2.233946606055321,-1.3754591605404942,1.4216023856715678,-0.8473038607953414
0.498,2.0406238677047766,1.5654681928737118,2.2446862544752544,0.7855716449687846,1.4284367073933435,0.7034285298236604
0.499,2.0505422871980974,3.5110780229024043,2.255596515917907,3.138901454923574,1.4353796010386681,2.034638767438097
0.5,2.0606123547348876,5.438278028214697,2.2666735902083763,5.344040364333722,1.4424286483144213,3.386279057396708
0.501,2.0708305912169314,7.803204913049328,2.2779136503386246,7.697397993447325,1.449581413851852,4.624425786111731
0.502,2.0811934935660705,9.41259028600591,2.2893128429226777,9.60468164098069,1.4568354454962493,5.887681024365689
0.503,2.0916975351406473,11.282764334144206,2.3008672886547124,11.158255448659265,1.464188274598453,7.054153611563485
0.504,2.1023391661545654,12.673868544310064,2.312573082770022,12.73631093562748,1.4716374163081958,7.883461889344675
0.505,2.1131148140989167,13.554532000787226,2.3244262955088084,14.230982842252716,1.4791803698692416,8.645621789976811
0.506,2.1240208841661135,14.068137048710843,2.336422972582725,15.236761460212096,1.4868146189162794,9.259299010678504
0.507,2.1350537596765173,14.407170220586993,2.348559135644169,16.006582907091484,1.4945376317735621,9.413471203613593
0.508,2.146209802507475,14.689449540215398,2.3608307827582227,16.411526347375474,1.5023468617552325,9.494533506417543
0.509,2.1574853535247573,14.424124875285667,2.373233888877233,16.30374687621101,1.5102397474673301,9.748554341204294
0.51,2.1688767330163254,14.426064070032126,2.3857644063179584,15.788741364308347,1.5182137131114277,9.44869952683225
0.511,2.180380241128406,13.835657671969283,2.398418265241247,15.00167602255705,1.5262661687898842,9.209269265649114
0.512,2.191992158303792,13.267542555408621,2.4111913741341713,13.895352166276961,1.5343945108126542,8.670504688551574
