time,roll_setpoint,gyro_roll,pitch_setpoint,gyro_pitch,yaw_setpoint,gyro_yaw
0.0,3.221088436188455,-1.1273170523452476,3.543197279807301,-0.5838117935307122,2.2547619053319186,2.2978971218215847
0.001,3.299582398918418,-1.129427265824239,3.62954063881026,-0.5264238883861253,2.3097076792428926,1.8659135869856251
0.002,3.3777459409858164,-1.0106183224843994,3.7155205350843983,-0.3807991458272875,2.364422158690071,1.8390210719560642
0.003,3.455574210797501,-0.48143700248802335,3.8011316318772517,-0.14175509358872182,2.4189019475582505,1.6632452285386206
0.004,3.533062390490227,0.06929217113569419,3.88636862953925,0.1497342786369801,2.473143673343159,1.5393597253956328
0.005,3.6102056963405573,-0.015486525332116141,3.9712262659746136,0.3675902821272826,2.52714398743839,1.3607980541136668
0.006,3.686999379171322,-0.10878028837268282,4.055699317088455,0.45391280941362083,2.580899565419925,1.1029361407411664
0.007,3.763438724754603,-0.02021232148696657,4.139782597230063,0.2411484813926898,2.634407107328222,1.0101253364734557
0.008,3.839519054211185,0.24133502102365567,4.223470959632304,0.046577480973316265,2.6876633379478294,0.702033733836473
0.009,3.9152357244064526,0.0962519685631954,4.3067592968470985,-0.19575532997337508,2.740665007084517,0.3459825356257489
0.01,3.9905841283426917,0.031117456845971045,4.389642541176961,0.030490130096853224,2.793408889839884,0.33562141584681726
0.011,4.0655596955477415,0.08966559387184622,4.472115665102516,-0.09863639076348615,2.845891786883419,0.08921244621215527
0.012,4.140157892459986,-0.08347148819396907,4.5541736817059855,-0.35139705722488934,2.8981105247219903,0.13673150505504017
0.013,4.214374222809629,-0.2700976999243102,4.635811645090592,-0.17265671618129208,2.95006195596674,0.1450138983604918
0.014,4.28820422799622,-0.22724199816211363,4.7170246507958415,-0.8498660711062437,3.0017429595973537,0.2961860370105317
0.015,4.3616434874624,0.16683208951287748,4.797807836208641,-0.14340734132825161,3.05315044122368,0.3606768676330901
0.016,4.4346876190638245,0.6527644306357456,4.878156380970207,0.23484711002901282,3.104281333344677,0.3441590363953787
0.017,4.507332279435237,0.6326820238561799,4.958065507378761,0.293945732020616,3.1551325956046656,0.3932418892477854
0.018,4.5795731643526425,1.0267390594346013,5.0375304807879075,1.1552627972223437,3.2057012150468496,0.3382414167497248
0.019,4.651406009091567,1.3764475970349759,5.116546610000724,1.683752236636788,3.2559842063640967,0.2590668087119311
0.02,4.722826588781357,1.763071086095537,5.195109247659493,1.782385683891761,3.30597861214695,0.1547709622201794
0.021,4.793830718755473,1.6974804559107222,5.27321379063102,2.2359331952577577,3.3556815031288307,0.2802384423497851
0.022,4.864414254897774,1.7761964251513067,5.350855680387552,2.2643973269498052,3.4050899784284416,0.14440375150369153
0.023,4.934573093984735,2.4026012824002736,5.428030403383209,2.5652428847226503,3.454201165789314,0.037504523245694435
0.024,5.004303174023567,2.6687848708453012,5.504733491425925,2.8843661940448575,3.5030122218164967,0.2814537670184904
0.025,5.073600474586228,2.839065838254072,5.580960522044851,3.2648839736600177,3.5515203322103592,0.5458344399978842
0.026,5.142461017139256,2.9896814155735183,5.656707118853182,3.566306024993634,3.599722711997479,0.6584912439364138
0.027,5.210880865369442,3.3098660256194785,5.731968951906387,3.4959961088428955,3.6476166057586092,0.8175976384603622
0.028,5.278856125505255,3.7641973401690714,5.8067417380557815,3.7415818035933706,3.6951992878536783,0.9549149756529561
0.029,5.346382946634043,3.741925604270773,5.881021241297448,4.0500099631797415,3.7424680626438303,1.1007737787382537
0.03,5.413457521014937,3.6888406492613823,5.954803273116432,4.369588648574474,3.7894202647104556,1.1984357261848133
0.031,5.480076084387463,3.894902590810572,6.028083692826209,4.612561158597282,3.8360532590712237,1.294774814033154
0.032,5.546234916275796,3.7876344389290244,6.100858407903376,4.87172744748442,3.8823644413930567,1.1849382518041622
0.033,5.611930340288663,4.043895666558775,6.17312337431753,4.5577828752426015,3.928351238202064,1.4281496624209018
0.034,5.6771587244148485,4.338080237610573,6.2448745968563335,4.393189026237884,3.974011107090394,1.4310824572859235
0.035,5.741916481314269,4.1772150778558945,6.316108129445697,4.588234023501622,4.019341536919988,1.5234390400858553
0.036,5.806200068604601,4.052998903994539,6.386820075465061,4.734467400622512,4.064340048023221,1.5403906627706694
0.037,5.8700059891434355,4.068592746461067,6.457006588057779,4.850075626249997,4.109004192400405,1.804976372126665
0.038,5.933330791305923,4.552145593908868,6.526663870436516,4.963322902352502,4.153331553914145,1.9107166257908605
0.039,5.996171069257885,4.6730526437363755,6.5957881761836745,4.661760875428408,4.19731974848052,2.144495787246681
0.04,6.058523463224383,4.877761417489299,6.664375809546822,4.913066235044544,4.240966424257068,2.3160215440399785
0.041,6.120384659753688,4.808452931963256,6.732423125729057,4.957035122435278,4.284269261827581,2.307552463662011
0.042,6.181751391976656,4.384985684855908,6.7999265311743216,4.755192326378666,4.3272259743836585,2.3959198146334324
0.043,6.242620439861469,4.389563201072557,6.866882483847616,4.931119597621243,4.3698343079030275,2.5179416407084045
0.044,6.302988630463721,4.374410846262119,6.933287493510094,5.120295192900725,4.4120920413246045,2.404562887841118
0.045,6.3628528381718334,4.500471456867285,6.999138121989017,5.3249664493866575,4.453996986720283,2.6760203601104187
0.046,6.422209984947755,4.275607654103089,7.064430983442531,5.352420403306381,4.495546989463429,2.899176999103775
0.047,6.481057040562951,4.461756701751462,7.129162744619247,5.587827837492333,4.5367399283940655,3.1067285478513083
0.048,6.5393910228296495,4.819201405954182,7.193330125112615,5.321733091694114,4.577573715980754,3.1151027650109357
0.049,6.597208997827305,4.865350287702235,7.2569298976100365,5.444977485327868,4.618046298479113,3.0812964921769637
0.05,6.654508080124296,5.006233650281964,7.319958888136727,5.509953055308575,4.658155656087007,2.9499265571710396
0.051,6.711285432994797,4.811066159848073,7.382413976294277,5.615856161570378,4.697899803096357,3.1829371802214865
0.052,6.76753826863083,4.9034474899699685,7.444292095493913,5.709487248808184,4.73727678804158,3.221525180019922
0.053,6.82326384834947,5.117383912551793,7.505590233184417,6.0590737372042565,4.776284693844628,3.541523835109592
0.054,6.878459482795181,5.264767308306805,7.566305431074699,6.083121060790623,4.814921637956626,3.39389758354111
0.055,6.933122532137267,5.678326405938484,7.626434785350994,6.186713809192335,4.8531857724960865,3.1239089449031696
0.056,6.987250406262419,5.96930790458064,7.685975446888661,6.547253797933069,4.891075284383692,3.0197263528396228
0.057,7.0408405649623464,6.108790171611403,7.744924621458582,6.88903328480168,4.928588395473642,3.122077937043045
0.058,7.093890518116458,6.147370610234129,7.803279569928105,6.12644956713767,4.96572336268152,3.0149469167870073
0.059,7.1463978258696095,6.012155173181281,7.861037608456571,6.399718897359212,5.002478478108726,2.902472449793838
0.06,7.198360098804855,5.87132247458452,7.918196108685342,6.4144748455558345,5.038852069163398,3.1674626810066044
0.061,7.249774998111233,5.716732250105833,7.974752497922357,6.415026256082447,5.074842498677863,3.2032488657905014
0.062,7.30064023574654,5.643130040439461,8.030704259321194,6.120582626992459,5.110448165022578,3.337998179725244
0.063,7.350953574595092,5.736398868390451,8.086048932054602,6.334842621763421,5.145667502216564,3.184682146365756
0.064,7.400712828620459,5.59529972484825,8.140784111482505,6.795274983993016,5.180498980034321,3.1477581370635805
0.065,7.449915863013141,5.594683890071859,8.194907449314455,6.554478909031556,5.214941104109198,3.291168980994865
0.066,7.498560594333212,5.6579539437415045,8.248416653766535,6.368710154495099,5.248992416033248,3.4036016796399937
0.067,7.546644990647877,5.903839324770641,8.301309489712665,6.369296816283724,5.282651493453514,3.7577716450078555
0.068,7.594167071663945,5.785813441553269,8.35358377883034,6.444013133137553,5.315916950164761,3.6779747917966654
0.069,7.641124908855225,5.927217156298612,8.405237399740749,6.367707537277888,5.348787436198657,3.748575414426622
0.07,7.687516625584808,5.687512557249956,8.45626828814329,6.6993157347860075,5.381261637909366,3.8465168132254144
0.071,7.733340397222232,5.672073358740529,8.506674436944456,6.74198255851369,5.413338278055562,3.936130258335765
0.072,7.77859445125553,5.773708108553434,8.556453896381084,6.860699720286775,5.445016115878871,3.979312942727693
0.073,7.8232770673981396,5.66634703149712,8.605604774137953,6.913092640673545,5.476293947178697,4.014607726558093
0.074,7.867386577690672,5.492089149509519,8.65412523545974,6.675442563667086,5.50717060438347,4.162786055333858
0.075,7.910921366597526,5.676904381515816,8.702013503257279,6.6029940258609345,5.5376449566182675,4.122335589553269
0.076,7.953879871098349,5.482324931161307,8.749267858208185,7.049111317301373,5.567715909768844,4.299201035439556
0.077,7.996260580774324,5.59752588647959,8.795886638851757,6.7429316684126155,5.597382406542026,4.202842309591181
0.078,8.038062037889294,5.498471425633591,8.841868241678224,6.671738037743174,5.626643426522505,4.003671799464456
0.079,8.07928283746568,5.706989154710608,8.887211121212248,6.716471237663866,5.655497986225976,4.282986682682969
0.08,8.119921627355257,5.79580089780064,8.931913790090784,6.580517174787517,5.68394513914868,4.2724800333304565
0.081,8.159977108304703,5.959241296847324,8.975974819135175,7.0245034378114175,5.711983975813292,4.118570298749495
0.082,8.199448034015951,6.247220601653198,9.019392837417547,7.582539796788723,5.739613623811166,4.1935075338889485
0.083,8.238333211201375,6.422764705349966,9.062166532321514,7.581067169681772,5.766833247840962,4.095382687461216
0.084,8.27663149963373,6.273263483146724,9.104294649597104,7.4777794518105845,5.79364204974361,4.3200611471719865
0.085,8.314341812190914,6.587814575208866,9.145775993410007,7.279429217640627,5.820039268533639,4.2584493378251915
0.086,8.351463114895509,6.690735289265276,9.186609426385061,6.842140991038675,5.846024180426856,4.354408260535847
0.087,8.387994426949106,6.787031265443013,9.226793869644018,7.005594562530872,5.871596098864374,4.497251757036522
0.088,8.423934820761426,7.358625040040786,9.26632830283757,7.446909997562145,5.896754374532998,4.473227866738772
0.089,8.459283421974213,7.092193773103232,9.305211764171634,7.4502006067069155,5.921498395381949,4.462083771584621
0.09,8.494039409479925,7.412733217626404,9.343443350427918,7.719188876260556,5.9458275866359465,4.5781839116065495
0.091,8.528202015435198,7.153605678118627,9.38102221697872,7.926154224846507,5.969741410804638,4.60899702322762
0.092,8.5617705252691,7.2953030009290725,9.417947577796012,8.015275342082857,5.9932393676883695,4.520600304175149
0.093,8.594744277686168,7.310736680547092,9.454218705454785,8.16926374093385,6.016320994380317,4.396672368087273
0.094,8.627122664664231,7.421310825002561,9.489834931130655,8.267165261119306,6.038985865264961,4.445124855118394
0.095,8.65890513144703,7.334805727286945,9.524795644591734,8.426350354272596,6.061233592012921,4.506539394086895
0.096,8.690091176531613,7.349943291973018,9.559100294184775,8.554494211016104,6.083063823572129,4.635058225096283
0.097,8.720680351650541,7.570886427778846,9.592748386815597,8.57670758821512,6.104476246155379,4.808527076968534
0.098,8.750672261748878,7.539308707628484,9.625739487923767,8.932170671662682,6.125470583224215,4.669522403218825
0.099,8.780066564955995,7.559986361063378,9.658073221451595,8.8014317036579,6.146046595469196,4.667654341558967
0.1,8.80886297255217,8.016352825297753,9.689749269807388,8.848585676343577,6.166204080786518,4.733208836368619
0.101,8.837061248930006,8.25074750491135,9.720767373823007,8.98252317404722,6.185942874251004,4.657461665496673
0.102,8.864661211550661,8.262110829795082,9.751127332705728,8.969203462109885,6.205262848085463,4.568628756000714
0.103,8.891662730894913,8.239099130052313,9.780829003984405,8.864543208594085,6.224163911626438,4.699452132953813
0.104,8.918065730409031,8.109034328945084,9.809872303449936,8.939331575137238,6.242646011286322,4.6624693328721065
0.105,8.943870186445512,7.964868409347287,9.838257205090065,8.976848066200056,6.260709130511858,4.398480146487225
0.106,8.969076128198637,8.402644229217467,9.865983741018502,9.0127559931122,6.278353289739045,4.492480860836756
0.107,8.9936836376349,8.32471700262491,9.893052001398392,8.825908875886025,6.29557854634443,4.84977804103988
0.108,9.017692849418289,7.970073092937194,9.919462134360119,8.850762807426127,6.312384994592802,4.958183286438988
0.109,9.04110395083043,7.844966554615616,9.945214345913472,9.225279968076643,6.3287727655813,5.13728921486042
0.11,9.063917181685632,8.068932326179281,9.970308899854196,9.248696566523511,6.344742027179942,5.041089619237022
0.111,9.086132834240804,8.315735950870835,9.994746117664885,9.055364349607693,6.360292983968562,4.904014537540082
0.112,9.107751253100284,7.885583963329284,10.018526378410314,9.135990317041806,6.375425877170199,5.045793686180503
0.113,9.128772835115576,7.788071417516151,10.041650118627135,9.254463370377144,6.390140984580903,5.047891041302282
0.114,9.149198029280011,8.023694878528048,10.064117832208014,9.559060676618268,6.404438620496007,4.9811315199154675
0.115,9.169027336618353,8.0346931917285,10.085930070280188,9.286133689725492,6.418319135632847,5.109172601939653
0.116,9.18826131007134,8.296444742535943,10.107087441078475,9.278614228731994,6.431782917049937,5.142517024101991
0.117,9.206900554375213,8.234477691497297,10.127590609812735,8.94500951901174,6.444830388062649,5.21961325219681
0.118,9.224945725936184,8.450727624955443,10.147440298529803,9.105721733555995,6.4574620081553284,5.018431764432892
0.119,9.242397532699936,8.772206226306894,10.16663728596993,8.789553458201855,6.469678272889955,5.181014579806357
0.12,9.259256734016097,8.737632732542183,10.185182407417708,8.958201820927908,6.481479713811267,5.255068965362298
0.121,9.275524140497758,8.638221279778877,10.203076554547534,8.892111728062977,6.492866898348431,5.355563475892465
0.122,9.291200613876011,8.773320991103622,10.220320675263613,8.7489285685568,6.5038404297132075,5.084893198316128
0.123,9.306287066849553,8.696058483284226,10.236915773534509,8.822615827372847,6.514400946794686,5.067522163751168
0.124,9.32078446292935,8.600755895107604,10.252862909222285,8.425948907072613,6.524549124050544,4.954182316604819
0.125,9.334693816278396,8.477510660174776,10.268163197906237,8.474700496655254,6.534285671394876,4.979363952946216
0.126,9.34801619154658,8.672669963682909,10.28281781070124,8.794474871968339,6.543611334082606,5.003471363289605
0.127,9.360752703700658,8.811469634808525,10.296827974070725,8.818642331231727,6.5525268925904605,5.158684666334261
0.128,9.372904517849397,8.799043390064016,10.310194969634338,9.416861280494855,6.561033162494578,5.358879227567917
0.129,9.384472849063851,8.83368965505668,10.322920133970237,9.355599164281692,6.569130994344695,5.544158986264528
0.13,9.395458962192835,8.667854968436737,10.33500485841212,9.357388496620974,6.576821273534985,5.716291060808964
0.131,9.405864171673603,8.324890687223373,10.346450588840964,9.61811052420273,6.584104920171521,5.456986143590863
0.132,9.415689841337734,8.452582763504953,10.357258825471508,9.848770796814232,6.590982888936414,5.44864225900902
0.133,9.42493738421227,8.671841153681866,10.367431122633498,9.688105062664027,6.5974561689485895,5.370985863920506
0.134,9.433608262316135,8.68463742701339,10.37696908854775,9.574361897818106,6.6035257836212935,5.4336596712789405
0.135,9.441703986451794,8.725955538921546,10.385874385096974,9.538335616375946,6.609192790516255,5.298338861738484
0.136,9.449226115992277,8.812769061742497,10.394148727591505,9.542672842127942,6.614458281194593,5.222374421962203
0.137,9.4561762586635,8.631978783690558,10.401793884529852,9.482022925895311,6.61932338106445,5.307359040514725
0.138,9.462556070321966,8.457780722507119,10.408811677354164,9.324682316275904,6.623789249225376,5.594276461222457
0.139,9.468367254727813,8.378553696378091,10.415203980200594,9.315240388078584,6.627857078309469,5.815790488953009
0.14,9.473611563313298,8.211885241547245,10.42097271964463,9.358895660018595,6.631528094319308,5.885468979803424
0.141,9.478290794946707,8.53055447036076,10.426119874441378,9.479640905574078,6.634803556462694,5.883660155202829
0.142,9.482406795691702,8.647348601792778,10.430647475260873,9.37647178730084,6.637684756984191,5.64322198924152
0.143,9.485961458562159,8.579505603009327,10.434557604418375,9.25771986786505,6.640173020993511,5.861864457552628
0.144,9.488956723272521,9.027429492275958,10.437852395599775,9.394186877920879,6.642269706290764,6.158699541583863
0.145,9.49139457598367,8.986594286235906,10.440534033582036,9.116911477434702,6.6439762031885685,5.859022765689586
0.146,9.493277049044373,8.86551302189863,10.44260475394881,9.103584296531986,6.645293934331061,5.79249089356049
0.147,9.494606220728304,8.899061475624015,10.444066842801135,9.158350872532072,6.646224354509813,5.910509716550005
0.148,9.495384214966695,8.947175939181815,10.444922636463366,9.44348459184617,6.646768950476686,6.066053091127535
0.149,9.495613201076615,9.2012837090722,10.445174521184278,9.689333326217472,6.6469292407536305,5.795821751293663
0.15,9.495295393484954,9.401006431251423,10.44482493283345,9.98813881591954,6.646706775439467,5.501276163890683
0.151,9.494433051448059,9.549928760702135,10.443876356592865,9.589572935071102,6.646103136013641,5.600021592827241
0.152,9.493028478767169,9.327727884554855,10.442331326643886,9.581946178822065,6.645119935137018,5.591906280759047
0.153,9.491084023499546,9.597358656527511,10.440192425849501,9.622561485683496,6.643758816449682,5.894341841422879
0.154,9.488602077665455,9.420921144517557,10.437462285432002,9.960015975567293,6.642021454365818,5.748296564462811
0.155,9.485585076950926,9.13148888153642,10.43414358464602,9.96289555809736,6.639909553865648,5.569112910928299
0.156,9.482035500406411,8.621470845050561,10.430239050447053,10.059280990381023,6.6374248502844875,5.722474772823723
0.157,9.477955870141287,8.748981858276832,10.425751457155416,9.998375700026921,6.6345691090989005,5.856837798638095
0.158,9.473348751014328,8.782396273874559,10.42068362611576,10.158219151499955,6.631344125710029,5.750637995149227
0.159,9.46821675032008,8.74040465098695,10.415038425352089,10.199479598688336,6.627751725224056,5.605631719510659
0.16,9.462562517471255,8.759197638694406,10.408818769218382,10.730682766342781,6.623793762229878,5.60701136607376
0.161,9.456388743677138,8.560309924399446,10.402027618044853,10.768073503602878,6.619472120573996,5.579513568343608
0.162,9.449698161618043,8.593598729847594,10.394667977779848,10.52544535648362,6.61478871313263,5.693833227641914
0.163,9.442493545115852,8.543821726226174,10.386742899627437,10.426826205979273,6.609745481581096,6.00997516148205
0.164,9.434777708800691,8.484656496829677,10.378255479680762,10.434074215737919,6.604344396160483,5.898279709326122
0.165,9.426553507773752,7.88539975322087,10.369208858551128,10.182634055655962,6.598587455441626,5.7968550734177215
0.166,9.417823837266303,7.724624636976704,10.359606220992934,9.839106754734454,6.592476686086411,5.72931648081375
0.167,9.408591632294945,8.060924982441362,10.34945079552444,9.933020813917913,6.586014142606461,5.733088903363835
0.168,9.398859867313115,8.125034262823425,10.338745854044427,10.186054094441065,6.57920190711918,5.619422074573762
0.169,9.388631555858904,8.08253559779696,10.327494711444794,10.297849691933207,6.572042089101233,5.468186676854589
0.17,9.377909750199194,7.867207095469761,10.315700725219115,10.153119280994911,6.564536825139435,5.381014794649508
0.171,9.3666975409702,8.207078373126047,10.303367295067222,9.715102022547116,6.55668827867914,5.40647331717834
0.172,9.354998056814399,8.284947109678816,10.290497862495839,9.56013971546067,6.548498639770079,5.696292128328859
0.173,9.342814464013909,8.157809034831963,10.2770959104153,9.729948720406046,6.539970124809736,5.797956119680955
0.174,9.330149966120391,8.068044878089907,10.26316496273243,9.735898261393581,6.531104976284274,5.700902316180389
0.175,9.31700780358143,8.198006817610267,10.248708583939573,10.061587328099348,6.521905462507,5.9374501943552245
0.176,9.303391253363527,8.2228294611023,10.23373037869988,10.042613551847134,6.512373877354468,5.947380346376576
0.177,9.289303628571663,8.373242493394553,10.21823399142883,10.101190254944203,6.502512540000163,5.95858769165067
0.178,9.274748278065541,8.008867783061586,10.202223105872095,10.119556162630284,6.492323794645879,5.592922866921914
0.179,9.259728586072473,8.049292445932993,10.18570144467972,10.187791541703078,6.481810010250731,5.735043976373714
0.18,9.244247971797048,7.965406967182151,10.168672768976753,10.185854441022629,6.470973580257933,5.645836167264759
0.181,9.22830988902751,7.92252991255568,10.151140877930262,10.01278149128464,6.459816922319257,5.79767790012169
0.182,9.211917825738986,7.919752767303205,10.133109608312886,10.27008527711995,6.44834247801729,5.847177734836415
0.183,9.195075303693534,7.966070547189163,10.114582834062888,10.194681648196037,6.436552712585473,5.820567279919589
0.184,9.177785878037115,8.182409164420736,10.095564465840827,9.982366672125286,6.42445011462598,5.862905320409349
0.185,9.160053136893463,8.276198806117616,10.07605845058281,10.180798623427373,6.412037195825424,5.942593582885798
0.186,9.141880700954951,8.347181819887188,10.056068771050448,9.992788537977257,6.399316490668466,5.845016193592029
0.187,9.123272223070467,8.426573553850844,10.035599445377514,9.924228448699246,6.386290556149326,5.517452668966052
0.188,9.104231387830358,8.666292409955785,10.014654526613395,9.947449827116886,6.37296197148125,5.287952930383414
0.189,9.084761911148467,8.852238944228366,9.993238102263314,9.940985443274853,6.3593333378039265,5.293897228618094
0.19,9.064867539841323,9.082721754069873,9.971354293825456,9.779235241554302,6.345407277888926,5.302700966529442
0.191,9.044552051204521,9.661466320133277,9.949007256324974,9.690562310530048,6.331186435843164,5.432846092807161
0.192,9.023819252586343,9.88030292460473,9.926201177844977,9.690605328014184,6.31667347681044,5.316726255482423
0.193,9.002672980958634,9.880059282988341,9.902940279054498,9.809849385940993,6.301871086671043,5.06415539842762
0.194,8.98111710248504,9.403593516739246,9.879228812733546,10.300081406138489,6.2867819717395275,5.166888341771914
0.195,8.959155512086577,9.003904284691515,9.855071063295235,9.898830189200115,6.271408858460603,5.197389973895853
0.196,8.936792133004632,9.329198251495752,9.830471346305096,10.21160913769394,6.255754493103242,5.40774054783399
0.197,8.914030916361419,9.352329250743574,9.805434007997562,10.071939011386792,6.239821641452993,5.495247343983537
0.198,8.890875840717941,9.695756152027416,9.779963424789736,9.727013767218414,6.2236130885025585,5.605806627599177
0.199,8.8673309116295,9.148526388770327,9.75406400279245,9.866201505187213,6.207131638140649,5.356674234391203
0.2,8.843400161198787,9.316712386397118,9.727740177318665,9.872444712785226,6.190380112839151,5.420600830936508
0.201,8.819087647626652,9.29825258536692,9.700996412389319,9.87139955527471,6.173361353338656,5.5112511548228085
0.202,8.794397454760514,9.342935425755552,9.673837200236566,9.645166853557203,6.156078218332359,5.425759629103716
0.203,8.769333691640556,8.941993152108068,9.646267060804613,9.695348979198046,6.138533584148389,5.470432043247758
0.204,8.74390049204365,8.757266663491976,9.618290541248015,9.749371360359,6.120730344430555,5.460377871434535
0.205,8.718102014025147,8.390574704384463,9.589912215427663,9.50163102892294,6.102671409817603,5.6399531233153155
0.206,8.691942439458552,8.395657076575063,9.561136683404408,9.407939645045749,6.084359707620986,5.5298511751404
0.207,8.665425973573068,8.284967070058293,9.531968570930376,9.552801428293826,6.0657981815011475,5.450510602833467
0.208,8.63855684448918,8.399616964085741,9.502412528938098,9.624527343269802,6.046989791142426,5.6208238300760955
0.209,8.611339302752206,8.284925935629204,9.472473233027427,9.100188592633929,6.027937511926544,5.471646475242357
0.21,8.583777620863946,8.189011956192463,9.442155382950341,9.070690023593702,6.008644334604762,5.344600812027174
0.211,8.555876092812435,8.147173224148743,9.411463702093679,9.13633665081993,5.9891132649687036,5.27085649846992
0.212,8.52763903359985,8.227142201783193,9.380402936959836,8.922395364372441,5.969347323519895,5.335201418655124
0.213,8.499070778768669,8.614977581429027,9.348977856645536,8.83446881032512,5.949349545138068,5.528742988866366
0.214,8.470175683926028,8.178276343191019,9.317193252318631,8.81789079907642,5.929122978748219,5.65089030930021
0.215,8.440958124266466,8.142725567045765,9.285053936693114,9.30828533323018,5.908670686986525,5.583626510720024
0.216,8.411422494092951,8.3206860090463,9.252564743502248,8.796441319554566,5.887995745865066,5.720495089733427
0.217,8.381573206336393,8.416348244584118,9.219730526970032,8.97408319762461,5.867101244435474,5.662234410450956
0.218,8.351414692073535,8.404669210922387,9.186556161280889,9.351030123252338,5.8459902844514735,5.5001515911345775
0.219,8.32095140004344,8.330735751196691,9.153046540047784,9.193267432522932,5.8246659800304075,5.7392518086798034
0.22,8.29018779616245,8.142465362741115,9.119206575778694,9.276692635697954,5.8031314573137145,5.590120838913224
0.221,8.25912836303783,8.048501179275021,9.085041199341614,9.68411936502622,5.7813898541264805,5.599779731024716
0.222,8.227777599480001,7.995070628851001,9.050555359428003,9.28919956545286,5.759444319636001,5.623499992080643
0.223,8.196140020013551,7.886507117327218,9.015754022014907,9.295652038755064,5.737298014009486,5.698361248159034
0.224,8.164220154386934,8.162488636550702,8.980642169825629,9.090859678190343,5.714954108070853,5.525614487638899
0.225,8.13202254708104,8.500449427468752,8.945224801789143,8.776183610538478,5.6924157829567275,5.450799700089751
0.226,8.099551756816574,8.5720711708923,8.909506932498232,8.678555847637336,5.669686229771601,5.816231136509257
0.227,8.066812356060401,8.82521451995456,8.873493591666442,8.259540070483567,5.64676864924228,5.646105926197334
0.228,8.033808930530784,8.878699501479161,8.837189823583863,8.555749763484117,5.6236662513715485,5.790659680661695
0.229,8.000546078701703,8.988054640105455,8.800600686571874,8.443731366216412,5.6003822550911915,5.976034705771886
0.23,7.967028411306167,9.115040470552929,8.763731252436784,8.652862127225621,5.5769198879143165,5.916293626096173
0.231,7.933260550838723,8.876448023979927,8.726586605922595,8.292697417954727,5.553282385587106,5.852764541820081
0.232,7.899247131057032,8.945144478494125,8.689171844162736,8.387890533224757,5.529472991739922,5.408803385718462
0.233,7.86499279648276,9.107685398654988,8.651492076131037,7.817543962944274,5.505494957537931,5.468390880230212
0.234,7.830502201901646,8.435233347835432,8.61355242209181,8.44513760940802,5.4813515413311515,5.4268907128510095
0.235,7.795780011862973,8.199267773279526,8.575358013049271,8.553165786979605,5.457046008304081,5.512565019762329
0.236,7.760830900178323,8.15263175967866,8.536913990196156,8.570553946954005,5.432581630124826,5.266494156053729
0.237,7.725659549419841,8.678356202944434,8.498225504361825,8.351641267574378,5.4079616845938885,5.301607556735474
0.238,7.690270650417884,8.797308295058988,8.459297715459673,8.22281170962958,5.383189455292518,5.312002126923666
0.239,7.654668901758282,8.905770515844837,8.420135791934111,8.303291289218045,5.358268231230797,5.217270357898985
0.24,7.61885900927909,8.943635965775652,8.380744910207,8.369015387447762,5.333201306495362,5.3063192799340415
0.241,7.582845685567045,8.900064148954408,8.34113025412375,8.47271056310627,5.307991979896931,5.111855223032461
0.242,7.54663364945363,8.744067270660175,8.301297014398994,8.606830459727933,5.2826435546175405,5.135050648310047
0.243,7.510227625510939,8.825378432651169,8.261250388062033,8.455578017641491,5.257159337857657,5.130941353714702
0.244,7.47363234354725,8.478734696345317,8.220995577901975,8.589214126074364,5.231542640483075,5.270974697695026
0.245,7.436852538102515,8.491151095316503,8.180537791912768,8.652526656085769,5.20579677667176,5.6702741126350205
0.246,7.3998929479436475,8.477981348976003,8.139882242738013,8.48668222132912,5.179925063560553,5.622821657744478
0.247,7.3627583155598275,8.280213072291115,8.09903414711581,8.136172554866542,5.153930820891879,5.54905626904427
0.248,7.3254533866577285,8.389950384439198,8.057998725323502,7.957248932303895,5.127817370660409,5.380093555596796
0.249,7.287982909656843,8.119706043295821,8.016781200622528,8.128131618255507,5.1015880367597894,5.2317325728760995
0.25,7.2503516351848445,7.733103670446301,7.97538679870333,8.354549578052048,5.075246144629391,5.175429015102982
0.251,7.212564315573152,7.25686895242991,7.933820747130468,8.505416825842126,5.048795020901206,5.312658479659027
0.252,7.174625704352627,7.334711556313453,7.89208827478789,8.2773983032184,5.022237993046838,5.353785031902355
0.253,7.136540555749578,7.058999712746371,7.850194611324537,8.31288071757722,4.995578389024704,5.203223814838057
0.254,7.098313624182009,7.0555346791068025,7.808144986600211,8.41420724718817,4.968819536927406,5.463729825576869
0.255,7.059949663756272,7.202532798791338,7.7659446301319,8.081503699234483,4.94196476462939,5.280714325223202
0.256,7.0214534277640634,7.143224220618852,7.7235987705404705,7.916148911232554,4.915017399434844,4.760737416060471
0.257,6.982829668179929,7.238246652195391,7.681112634997922,8.042888293796233,4.88798076772595,4.68762064456334
0.258,6.944083135159224,7.2755261662759025,7.638491448675147,8.419265559127002,4.860858194611457,4.745006129292628
0.259,6.905218576536675,7.293056607508492,7.595740434190343,8.18686179712302,4.833653003575672,4.952192746301909
0.26,6.866240737325496,7.1450689492182375,7.552864811058046,7.923484738200845,4.806368516127847,4.913381436063003
0.261,6.827154359217225,7.380189374362304,7.509869795138948,8.008315248081415,4.779008051452057,5.196508047447932
0.262,6.7879641800821995,7.119673277669442,7.46676059809042,7.857515772676009,4.75157492605754,5.192876031965806
0.263,6.748674933470865,6.91556752962449,7.423542426817953,8.21599552095675,4.7240724534296055,4.910316516459523
0.264,6.709291348115822,7.020971218797433,7.380220482927404,7.905768898623274,4.696503943681075,4.55691914316929
0.265,6.6698181474348015,6.920032412682723,7.336799962178282,7.9957910673426245,4.668872703204361,4.648698058894058
0.266,6.630260049034488,6.955028573098893,7.293286053937938,7.805906374719257,4.6411820343241414,4.718610895683567
0.267,6.59062176421538,7.071094815590932,7.249683940636919,7.440750346821228,4.613435234950766,4.777501806586706
0.268,6.550907997477579,7.126967443113861,7.205998797225337,7.8212248576599785,4.5856355982343056,5.026248699339104
0.269,6.5111234460277165,7.084766215174507,7.162235790630489,7.621332732121141,4.557786412219401,4.850333430504762
0.27,6.471272799286959,7.168786513283895,7.118400079215656,7.591717944479483,4.529890959500871,4.717907528005467
0.271,6.431360738400166,7.234755768905167,7.074496812240183,6.998115391468155,4.501952516880116,4.4735223819948455
0.272,6.391391935746305,7.303672865083602,7.030531129320936,6.949050715061926,4.473974355022413,4.560985540241378
0.273,6.351371054450077,7.195102436314106,6.986508159895085,6.964305141653574,4.445959738115054,4.5704036023478185
0.274,6.311302747894917,7.259094221142668,6.942433022684409,7.058725361072845,4.417911923526441,4.5281954382228085
0.275,6.271191659237288,7.211691531364513,6.898310825161017,7.086144886851674,4.389834161466101,4.541298323306324
0.276,6.23104242092246,7.0729200128077085,6.854146663014706,6.754561276489275,4.361729694645722,4.567472071442763
0.277,6.1908596542016845,7.0280999914156626,6.809945619621853,6.555308835000245,4.333601757941179,4.53429686362855
0.278,6.150647968650945,6.5866081672711285,6.7657127655160405,6.416054123896651,4.305453578055661,4.47275781070492
0.279,6.110411961691203,6.308401919559591,6.721453157860324,6.39313522809492,4.277288373183842,4.33742562054808
0.28,6.070156218110315,6.163832814605159,6.677171839921346,6.2383483079588276,4.24910935267722,3.9212920931829554
0.281,6.029885309586552,6.469678634366359,6.632873840545208,6.228460795093474,4.220919716710586,3.7930522322929994
0.282,5.989603794213879,6.653359176893643,6.588564173635268,5.487044034799819,4.192722655949716,4.072844697311803
0.283,5.94931621602894,6.7254018330529615,6.5442478376318345,5.830472020280993,4.164521351220258,4.10370875369841
0.284,5.9090271045398755,6.769581918178516,6.499929814993863,5.538289698115302,4.136318973177913,4.241799188563035
0.285,5.868740974256994,6.129705092945967,6.455615071682694,5.198583525761873,4.108118681979896,4.194426236570971
0.286,5.82846232422531,5.865301178914765,6.411308556647842,5.258284149858853,4.079923626957717,4.290476024532496
0.287,5.788195637559081,5.891158804031958,6.36701520131499,5.1577425982610166,4.051736946291356,3.9885260362213013
0.288,5.7479453809782655,5.966684141256604,6.322739919076093,5.330098008989148,4.023561766684786,3.8265704819650823
0.289,5.707716004347111,6.0622850619194955,6.278487604781822,5.528062416177054,3.9954012030429773,3.974305099898777
0.29,5.667511940214732,6.168197857242127,6.234263134236206,5.3940388925418095,3.9672583581503122,4.009348185082567
0.291,5.627337603357918,5.878459422077802,6.19007136369371,5.392686452946232,3.9391363223505422,4.024628511482337
0.292,5.5871973903260335,5.682887549166327,6.145917129358637,5.351689647834754,3.9110381732282233,3.9269224381765966
0.293,5.547095678988222,6.04225115505083,6.101805246887045,5.6746608621337975,3.882966975291755,3.970069391915378
0.294,5.507036828082819,5.9882819826819285,6.057740510891101,5.974938648077617,3.8549257796579726,4.096608456679046
0.295,5.467025176769138,5.391377215572484,6.013727694446052,5.99460358872163,3.826917623738396,4.333721509696316
0.296,5.427065044181566,5.342652253144969,5.969771548599723,5.9088272831248965,3.798945530927096,4.543267936863403
0.297,5.387160728986127,5.09171302504056,5.9258768018847405,5.9665970485123445,3.771012510290289,4.607756778044172
0.298,5.347316508939439,5.096829487178109,5.882048159833384,5.850405605437433,3.743121556257607,4.389012078115214
0.299,5.307536640450233,4.99008363014952,5.838290304495257,5.441871032226139,3.715275648315163,4.252596316236914
0.3,5.267825358143346,5.038411374784658,5.794607893957681,5.399561036684961,3.6874777507003422,4.3405923940350615
0.301,5.228186874426374,4.8431136139127995,5.751005561869012,5.720867836003802,3.6597308120984615,4.374770973708345
0.302,5.188625379058888,4.739325260013554,5.707487916964777,6.008250265751791,3.6320377653412215,4.15833223627755
0.303,5.149145038724393,4.885673569692633,5.664059542596833,6.170303403135515,3.604401527107075,3.9957034415442
0.304,5.109749996604938,4.893307961536177,5.620724996265432,6.105802013306855,3.5768249976234565,4.071802236513201
0.305,5.070444371958542,4.865808509207719,5.5774888091543975,5.880884906094751,3.549311060370979,3.9149387134276825
0.306,5.03123225969939,5.2865164151132475,5.534355485669329,6.477701700127604,3.521862581789573,4.001851076424375
0.307,4.9921177299809045,4.712059350945589,5.491329502978996,6.39322072250708,3.494482410986633,3.933389551883927
0.308,4.953104827781667,4.449670211538292,5.448415310559834,5.973760352959662,3.467173379447167,3.81171199958484
0.309,4.914197572494326,4.190742397161374,5.40561732974376,5.3898530123057515,3.4399383007460282,4.018920137033995
0.31,4.875399957517412,4.229918121148371,5.362939953269153,5.2606518295749245,3.412779970262188,3.7187774051551212
0.311,4.836715949850232,4.477191814685958,5.320387544835255,5.506832062337606,3.3857011648951625,3.8520467890810544
0.312,4.798149489690758,3.943496862484647,5.277964438659834,5.352939432708,3.3587046427835303,3.8202003188461857
0.313,4.759704490036671,4.349640178384027,5.235674939040338,5.267044270887414,3.3317931430256693,3.6556891141098564
0.314,4.721384836289494,4.276394321069554,5.193523319918444,5.464267030388555,3.3049693854026456,3.5632888199873327
0.315,4.683194385861908,4.006988950787956,5.1515138244481,5.743534729163541,3.2782360701033353,3.4276245151369755
0.316,4.645136967788326,4.3616517625593625,5.109650664567159,5.589095761506344,3.251595877451828,3.289050387889113
0.317,4.6072163823386525,4.238884191873128,5.067938020572518,5.666678094733339,3.2250514676370567,3.3792666099072473
0.318,4.569436400635408,4.437585632647217,5.02638004069895,5.410396149244682,3.1986054804447854,3.4298909036975203
0.319,4.5318007642741245,4.934734923877485,4.984980840701537,5.436276890801616,3.172260534991887,3.3896115885194833
0.32,4.494313184947167,5.014298120084347,4.943744503441884,5.952187336339778,3.1460192294630165,3.5040873555608405
0.321,4.456977344070912,4.87067006438946,4.902675078478004,5.848076955053843,3.1198841408496385,3.272172158737067
0.322,4.419796892416423,4.760214348822409,4.861776581658066,5.824071808011673,3.0938578246914963,2.983015658335055
0.323,4.382775449743562,4.648037514967367,4.821052994717919,5.9996652740771585,3.0679428148204932,3.077681756133915
0.324,4.345916604438667,4.75261907871923,4.780508264882534,5.966151901094266,3.042141623107067,2.793613109018088
0.325,4.309223913155743,5.095504671863429,4.740146304471318,5.672539833081324,3.01645673920902,2.839565598752119
0.326,4.2727009004612935,5.133897547608437,4.699970990507423,5.228449951297651,2.9908906303229053,2.9861223967917785
0.327,4.236351058482729,5.347853913562457,4.659986164331002,5.258229439101548,2.96544574093791,3.1825930511530935
0.328,4.200177846560496,5.511540269920555,4.620195631216546,4.9890088161333574,2.9401244925923473,3.287837762141177
0.329,4.164184690903849,5.69851880844957,4.580603159994235,5.012220573423392,2.9149292836326945,3.0342325459262374
0.33,4.128374984250415,5.469266491247413,4.541212482675458,5.14871251689242,2.8898624889752904,2.9361547765707927
0.331,4.092752085529465,5.3160235227200285,4.502027294082412,5.149532735578625,2.8649264598706257,2.7560324138199945
0.332,4.057319319529055,5.26746223733592,4.463051251481962,5.162727325468921,2.8401235236703384,2.981300823429633
0.333,4.022079976566935,4.6974447539482265,4.4242879742236285,4.589557156096744,2.8154559835968542,3.0049558896228836
0.334,3.987037312165387,4.81232233081661,4.385741043381926,4.906714671743821,2.7909261185157708,3.4387271058394866
0.335,3.9521945467299187,4.631232196799594,4.347414001402911,4.933376588123245,2.7665361827109427,3.383934453144157
0.336,3.917554865231928,4.540063821428813,4.309310351755121,4.757091134235164,2.7422884056623493,3.304018342616914
0.337,3.883121416895297,4.58242316552495,4.271433558584827,4.713794448077136,2.718184991826708,3.387821786860055
0.338,3.848897314887025,5.143139129145345,4.233787046375728,5.0335789947689715,2.694228120420917,3.241324835968357
0.339,3.8148856360118426,5.027808354244016,4.196374199613027,4.789805035134794,2.6704199452082897,3.3592196615369656
0.34,3.781089420410936,4.922914321124438,4.15919836245203,4.7389989334683715,2.646762594287655,3.390872837689409
0.341,3.7475116712647107,4.8407954478069355,4.122262838391182,4.5561004440960104,2.6232581698852973,3.254169182109395
0.342,3.7141553544997175,5.231291232645234,4.08557088994969,4.1842942723759435,2.599908748149802,3.119975461203184
0.343,3.6810233984996916,4.877419791904143,4.0491257383496615,4.3398377774451475,2.576716378949784,3.176096129421225
0.344,3.6481186938207983,4.56485800428308,4.012930563202879,4.716141785014566,2.5536830856745585,3.0637799532923626
0.345,3.615444092911062,4.460946571294925,3.9769885022021687,5.019415062393961,2.5308108650377434,3.02898377868415
0.346,3.5830024098340374,4.5079950078149995,3.9413026508174416,5.0602376139236185,2.508101686883826,2.905188254967303
0.347,3.5507964199967583,4.228536736749706,3.9058760619964343,4.977260641218639,2.4855574939977307,2.7394896912681848
0.348,3.5188288598819355,4.034089894547045,3.8707117458701292,4.9686225684138225,2.4631802019173548,2.697282845296495
0.349,3.48710242678452,4.266908579442561,3.835812669462972,4.994386398957299,2.4409716987491636,2.592542771898487
0.35,3.4556197785525606,3.951619041270784,3.801181756407817,5.07961404703269,2.418933844986792,2.445053706943615
0.351,3.4243835333324704,3.684493297722993,3.7668218866657175,5.606027149877906,2.397068473332729,2.6866016786453297
0.352,3.3933962693186492,3.813798932942409,3.7327358962505146,5.759027322967586,2.3753773885230545,2.5652987163742114
0.353,3.3626605245075565,3.9868298429770626,3.6989265769583124,5.188164012630979,2.353862367155289,2.6107103905042788
0.354,3.3321787964562013,3.392676695021347,3.6653966761018215,5.1140680843730975,2.3325251575193406,2.4802174508253376
0.355,3.30195354204512,3.722461444955268,3.632148896249632,5.0557398446674675,2.311367479431584,2.58209131529662
0.356,3.271987177245819,3.6221138638961783,3.599185894970401,5.0491484260098884,2.2903910240720733,2.3970524645689117
0.357,3.242282076892762,3.965514860819487,3.5665102845820384,4.609793661810961,2.2695974538249333,2.0911235968375634
0.358,3.2128405744598574,3.927958472872593,3.5341246319058435,4.778062698098888,2.2489884021219,2.135225984647266
0.359,3.18366496184154,3.7908509113225586,3.5020314580256944,4.321183227158402,2.228565473289078,2.2090431592845357
0.36,3.154757489138409,3.7491712072695407,3.4702332380522503,4.349186770737192,2.2083302423968862,2.283367911348157
0.361,3.126120364447458,4.233471885725094,3.438732400892204,4.783673965983189,2.1882842551132207,2.23028027926782
0.362,3.0977557536569647,4.075064552947764,3.407531329022661,4.391821360898315,2.168429027559875,2.1974826800187914
0.363,3.069665780245983,4.100518520043063,3.3766323582705815,4.2747639791702925,2.148766046172188,2.115190339568742
0.364,3.041852525088518,3.8665925559019945,3.34603777759737,4.128272857136598,2.1292967675619625,2.2829782833634455
0.365,3.014318026262373,3.8010637518311037,3.3157498288886105,4.038459572572335,2.110022618383661,2.506646023322254
0.366,2.987064278862709,3.7839691009110945,3.28577070674898,4.261867160696994,2.090944995203896,2.676185187822249
0.367,2.9600932348203015,3.6181314790885013,3.2561025583023318,4.236296405499454,2.072065264374211,2.4833922059472338
0.368,2.933406802724554,3.499907398353536,3.22674748299701,4.279357025018001,2.053384761907188,2.2662739515245027
0.369,2.9070068476512523,3.7910353256614275,3.197707532416378,4.12970619930645,2.0349047933558766,2.1267681626242982
0.37,2.880895190995096,3.5241503564755012,3.168984710094606,3.9697106657997896,2.0166266336965673,2.2430524457938326
0.371,2.8550736103070076,3.4211585667069824,3.1405809713377084,4.156963349451926,1.9985515272149053,1.9802908392480338
0.372,2.829543839136263,3.291731846633374,3.112498223049889,4.380572828942682,1.980680687395384,1.9841325151797111
0.373,2.804307566877406,2.905914793419428,3.084738323565147,4.16880296209562,1.963015296814184,1.844725329813934
0.374,2.779366438622046,2.96562824619729,3.0573030824842506,3.9267679568352625,1.945556507035432,1.737114711996708
0.375,2.7547220550154448,3.095835155207083,3.0301942605169896,3.861101757691822,1.9283054385108112,1.524179030899318
0.376,2.7303759721180167,3.067240919748255,3.0034135693298185,3.4283334349652637,1.9112631804826117,1.7052250193861462
0.377,2.7063297012716676,3.117946192785452,2.9769626713988346,3.4458737807672812,1.8944307908901672,1.8741685161731572
0.378,2.6825847089710386,3.344031912443101,2.950843179868143,3.9861897112806552,1.8778092962797268,1.9123545989710058
0.379,2.659142416739649,3.3031177711948714,2.9250566584136144,3.6463307761684316,1.8613996917177542,1.7598978566507328
0.38,2.63600420101094,3.4465802495096827,2.8996046211120343,3.5752468703647575,1.845202940707658,1.7651675457635725
0.381,2.613171393014259,3.417753526658182,2.874488532315685,3.2431783357857156,1.8292199751099811,1.634922752512002
0.382,2.59064527866576,3.331526801086253,2.8497098065323363,3.5339901023090423,1.813451695066032,1.7353459121789268
0.383,2.568427098464264,3.643122778150282,2.825269808310691,3.7614313950166163,1.7978989689249847,1.616657700101072
0.384,2.5465180473920634,3.7180626766413374,2.8011698521312702,3.586527785600271,1.7825626331744442,1.8569760856961932
0.385,2.524919274820694,3.5958772138735893,2.7774112023027637,3.29305283072703,1.7674434923744855,1.5795789453993923
0.386,2.503631884421682,3.6916940556107076,2.7539950728638507,3.344467934247492,1.7525423190951772,1.5343918249790582
0.387,2.4826569340822626,3.9565247135728123,2.730922627490489,3.444385642527328,1.7378598538575838,1.532794838638475
0.388,2.4619954358261067,3.853576016652722,2.7081949794087175,3.166454362587988,1.7233968050782746,1.6677489122726894
0.389,2.4416483557390185,4.195203119534517,2.6858131913129206,2.996272181347397,1.7091538490173128,1.4598291791783546
0.39,2.4216166138996558,3.955618653719973,2.6637782752896215,2.776793394297287,1.695131629729759,1.492502429645321
0.391,2.401901084315253,3.7272323344090075,2.6420911927467787,2.529023162174334,1.681330759020677,1.5096449138416053
0.392,2.382502594862352,3.2561687822221375,2.6207528543485874,2.4087946090712,1.6677518164036462,1.4741601031053828
0.393,2.3634219272325687,2.7997294325122875,2.5997641199558257,1.991458931903567,1.654395349062798,1.6511952897709066
0.394,2.3446598168833717,2.5768986798131377,2.579125798571709,1.9003360131022802,1.64126187181836,1.6780404285348305
0.395,2.326216952993895,2.333127386841575,2.5588386482932846,1.6102497016434316,1.6283518670957264,1.8836133741328975
0.396,2.308093978425778,2.14813341576308,2.538903376268356,1.4688473018081616,1.6156657848980447,1.7771620612243029
0.397,2.2902914896890554,2.0385665066011907,2.519320638657961,1.663958843898456,1.6032040427823386,1.9893391932482523
0.398,2.2728100369130715,2.401717742160524,2.500091040604379,1.6202714289843305,1.59096702583915,1.9954608401845344
0.399,2.2556501238224396,2.403263732443135,2.4812151362046837,1.6783380186122236,1.5789550866757076,2.1600250156794663
0.4,2.2388122077180492,2.2279784090851362,2.4626934284898545,1.8026169507830454,1.5671685454026343,1.9875749800049634
0.401,2.222296699463114,2.079960389988859,2.444526369409426,1.9955960189482735,1.5556076896241797,2.0420070566747976
0.402,2.2061039634742547,2.4358201724567734,2.4267143598216805,1.7410335858302344,1.5442727744319782,1.9142190244029265
0.403,2.1902343177176444,2.3939287517818646,2.409257749489409,1.6168172733060686,1.533164022402351,1.865191154430807
0.404,2.174688033710181,2.41927264220379,2.3921568370811994,1.4364170013202073,1.5222816235971266,1.6028165902832285
0.405,2.159465336525713,2.616119544466168,2.3754118701782847,1.843351088837578,1.511625735567999,1.7032175454460554
0.406,2.1445664048063042,2.6797042594379823,2.3590230452869347,1.7977697176566838,1.501196483364413,1.4942884958795415
0.407,2.129991370778531,2.723550477120634,2.3429905078563844,1.6030948938177265,1.4909939595449715,1.7503045734540148
0.408,2.1157403202748313,2.6974775858464044,2.3273143523023148,1.8010963082248397,1.4810182241923817,1.864146229182099
0.409,2.1018132927598687,2.422306830697476,2.3119946220358556,1.85388166647789,1.471269304931908,1.9007020947896114
0.41,2.088210281361948,2.3155307084412726,2.297031309498143,2.0878010819558366,1.4617471969533635,1.881813359766387
0.411,2.074931232909436,2.2666636697274787,2.2824243562003796,2.1890898576664126,1.4524518630366052,1.8478402230629436
0.412,2.061976047972218,2.7205424466841124,2.26817365276944,2.682850299233234,1.4433832335805523,1.7656631478524651
0.413,2.0493445809081665,2.735828577826509,2.2542790389989835,2.627186939093756,1.4345412066357164,1.7134457113418744
0.414,2.037036639914625,2.8516143169447217,2.2407403039060876,2.991517584619623,1.4259256479402374,1.5596570893928905
0.415,2.0250519870848827,2.9472482423680675,2.227557185793371,2.9726270332495037,1.4175363909594179,1.598927832030986
0.416,2.0133903384696703,2.8613549168670467,2.2147293723166377,2.739851782446762,1.409373236928769,1.5390212943818473
0.417,2.0020513641436244,2.730950676552603,2.202256500557987,2.7829200928336997,1.401435954900537,1.5749940068845834
0.418,1.9910346882767485,2.9278553792358526,2.1901381571044234,3.043508954943451,1.3937242817937239,1.624867623064398
0.419,1.9803398892108435,3.0096326322486506,2.178373878131928,3.0114205748089207,1.3862379224475903,1.6065220646458067
0.42,1.969966499540913,2.8388982978927295,2.1669631494950043,2.75964748841574,1.378976549678639,1.388269240554133
0.421,1.9599140062015126,2.846375054657547,2.155905406821664,2.954572366567709,1.3719398043410587,1.4841699740787635
0.422,1.9501818505580548,2.511611292768775,2.1452000356138603,2.901577689477673,1.3651272953906384,1.625231170940837
0.423,1.9407694285030574,1.9910146828621003,2.134846371353363,2.9037270344524537,1.3585385999521402,1.8128621944449197
0.424,1.9316760905572998,1.8002208029520914,2.12484369961303,3.0352639540637742,1.3521732633901098,1.492454966695838
0.425,1.9229011419759177,1.9160268956714652,2.11519125617351,2.883562188881128,1.3460307993831422,1.6250965053984894
0.426,1.9144438428593826,1.8347290751914032,2.105888227145321,2.7471896640917786,1.3401106900015678,1.498636500955096
0.427,1.9063034082693822,1.8888276669009778,2.0969337490963205,2.6760075756886494,1.3344123857885675,1.447956054454523
0.428,1.898479008349577,1.9304307722933418,2.088326909184535,3.146928497978915,1.3289353058447038,1.5435706565105745
0.429,1.8909697684512272,1.9328326976561507,2.08006674529635,3.5033687665045723,1.323678837915859,1.3304324650871457
0.43,1.883774769263657,2.1265646204178426,2.072152246190023,3.6657534155528806,1.3186423384845598,1.2043040960702436
0.431,1.8768930469495766,1.8252511115095391,2.0645823516445345,3.3425438477841385,1.3138251328647035,1.3054151335835023
0.432,1.8703235932852076,2.02566369773873,2.0573559526137286,3.4004512802673252,1.3092265152996452,1.2946226803756171
0.433,1.864065355805229,2.1982171646347335,2.050471891385752,3.1449993030578867,1.3048457490636602,1.3476991529409803
0.434,1.858117237952511,2.126219658810802,2.0439289617477625,2.8441209559044665,1.3006820665667576,1.430101567143745
0.435,1.85247809923262,2.0517717213357978,2.037725909155882,3.086037674201613,1.2967346694628339,1.3874158432218413
0.436,1.8471467553730863,2.0856624998375914,2.031861430910395,2.9897413090558977,1.2930027287611603,1.2639263936055076
0.437,1.842121978487417,1.9802876201631219,2.026334176336159,2.9897669046310194,1.2894853849411918,0.9608763339236792
0.438,1.8374024972438239,2.4177957640084413,2.0211427469682066,2.9772158674615925,1.2861817480706765,1.2375356347101372
0.439,1.8329869970386614,2.1494121548631573,2.0162856967425276,2.9047803670545513,1.283090897927063,1.2501530687553157
0.44,1.8288741201745573,2.337165598940505,2.011761532192013,3.029007796363306,1.2802118841221901,1.521049463908267
0.441,1.8250624660431978,2.327671716085736,2.007568712647518,2.9672674851706233,1.2775437262302383,1.4392456758190164
0.442,1.821550591312775,2.263618931906965,2.0037056504440525,3.2399577205819905,1.2750854139189425,1.7226449791997591
0.443,1.8183370101200547,2.0496023789757394,2.00017071113206,2.9591596295531333,1.2728359070840383,1.6620618553440996
0.444,1.8154201942670474,1.8002743243641302,1.9969622136937524,2.794061411560387,1.270794135986933,1.6888205737930315
0.445,1.8127985734222793,1.5719808170581544,1.9940784307645074,2.6621272607454145,1.2689590013955954,1.635675522547983
0.446,1.8104705353266182,1.889295823982457,1.9915175888592802,2.831642161844376,1.2673293747286327,1.2995947507055876
0.447,1.8084344260036413,1.7184249228223845,1.9892778686040056,2.766306861764496,1.265904098202549,1.0246883386995926
0.448,1.806688549974532,2.1233482657347533,1.9873574049719853,2.0818297653594957,1.2646819849821722,1.2296218213223022
0.449,1.8052311704774624,1.6718472861052667,1.9857542875252088,1.9971271598831644,1.2636618193342235,1.0166433564935236
0.45,1.8040605096914613,1.538043025327867,1.9844665606606076,2.20638908595328,1.2628423567840228,1.0358849737268194
0.451,1.803174748964727,1.8630481059435078,1.9834922238611998,2.5052514053776154,1.2622223242753088,1.0815641536029772
0.452,1.8025720290473677,2.2766530793397286,1.9828292319521046,2.434394215827973,1.2618004203331572,1.1469131373329706
0.453,1.8022504503285388,1.7846282037783903,1.9824754953613928,2.185472221592231,1.2615753152299771,1.3898386923524515
0.454,1.8022080730779644,1.7377031739098958,1.982428880385761,2.2761937658135323,1.261545651154575,1.2926446186759397
0.455,1.8024429176918,1.881701583443753,1.9826872094609802,2.4686147907350406,1.26171004238426,1.1352383898100287
0.456,1.802952964942829,1.6911450208239638,1.983248261437112,1.9485282209327581,1.2620670754599803,1.1172922743645504
0.457,1.80373615623495,2.059737082143217,1.9841097718584453,2.0612144883868067,1.262615309364465,1.0236096289331644
0.458,1.8047903938619356,2.180934743356046,1.9852694332481293,1.9900605950945554,1.2633532757033548,1.037976192849044
0.459,1.8061135412704337,1.7005752686980382,1.9867248953974772,1.906823821387716,1.2642794788893035,0.8704419730283623
0.46,1.8077034233271956,1.6658523514891366,1.9884737656599154,1.8562796989106292,1.2653923963290368,0.8890459892622731
0.461,1.8095578265904706,1.7437451877078316,1.990513609249518,2.209454773621565,1.2666904786133293,0.9045621339545302
0.462,1.8116744995855782,1.853377165426689,1.9928419495441363,2.3090061960957042,1.2681721497099048,0.930392049208018
0.463,1.814051153084601,1.6136867707019051,1.9954562683930614,2.4259507143180135,1.2698358071592206,0.8648263903527689
0.464,1.816685460390171,1.4636966708922707,1.9983540064291883,1.8411776368674284,1.2716798222731196,0.8955098833697716
0.465,1.8195750576233425,1.3171536022701757,2.001532563385677,2.1120742582413534,1.2737025403363396,0.8641405738785587
0.466,1.8227175440154886,1.408696564185171,2.0049892984170374,1.845165605868013,1.275902280810842,1.123331856900345
0.467,1.826110482204212,1.4240323339811223,2.0087215304246335,1.9240297278579208,1.2782773375429484,0.9573688669300515
0.468,1.8297513985332339,1.5909571159920772,2.0127265383865574,2.1781021047980804,1.2808259789732637,1.2185819825537731
0.469,1.833637783356227,1.613445412666026,2.01700156169185,2.2227177146262913,1.2835464483493588,1.0013183326065007
0.47,1.837767091344562,1.6381540627652176,2.0215438004790185,2.487731472016767,1.2864369639411934,0.9065753899509991
0.471,1.842136741798937,1.45110070219464,2.026350415978831,2.4591084485264516,1.2894957192592558,1.0792847703651303
0.472,1.846744118964848,1.4908373919890483,2.031418530861333,2.654418981202971,1.2927208832753934,0.9398329991315229
0.473,1.851586572351887,1.4789431202283367,2.036745229587076,2.5558937588309467,1.2961106006463208,0.9840226343442935
0.474,1.8566614170568054,1.6097127658857908,2.0423275587624863,2.161749954045868,1.2996629919397638,1.0631651884640871
0.475,1.8619659340903398,1.7449899879316544,2.048162527499374,2.234483316173387,1.3033761538632378,1.1059989245284285
0.476,1.867497370707739,1.84909012800456,2.054247107778513,2.185473153731606,1.307248159495417,1.194582771088394
0.477,1.8732529407429737,1.6391631545700824,2.060578234817271,1.4862957659991165,1.3112770585200815,1.2621676284520182
0.478,1.8792298249465933,1.618803208438398,2.0671528074412526,1.2946047334746877,1.3154608774626153,1.2394493525449501
0.479,1.8854251713271757,2.0383155166055777,2.073967688459893,1.0887247201785797,1.319797619929023,1.270516675641265
0.48,1.8918360954963678,2.0202826773522142,2.0810197050460046,1.0178958109263645,1.3242852668474574,1.245957447154653
0.481,1.8984596810174428,2.292395328441779,2.0883056491191874,1.161311625037828,1.32892177671221,1.0219345302746556
0.482,1.9052929797573674,1.9476928911537241,2.095822277733104,0.9856584847070289,1.3337050858301571,1.1659031756708558
0.483,1.9123330122423248,1.5959392773296746,2.1035663134665574,1.095135327125452,1.3386331085696273,1.007503711118729
0.484,1.9195767680166638,1.6156404158461186,2.1115344448183304,1.6024024315062744,1.3437037376116645,0.9956048266113942
0.485,1.9270212060052332,1.649376063032233,2.1197233266057567,1.7121801169446658,1.3489148442036631,0.8521503434247893
0.486,1.9346632548790637,1.5989694685483147,2.12812958036697,1.6045184444950475,1.3542642784153445,0.9268667387495552
0.487,1.9424998134243556,1.4329104666375772,2.1367497947667915,1.582969108788657,1.359749869397049,1.2017009181433846
0.488,1.9505277509147518,1.4036851447421497,2.1455805260062273,1.6403389157777513,1.3653694256403262,0.9577630688100973
0.489,1.9587439074868187,1.3795653463122672,2.154618298235501,1.9335023609798192,1.371120735240773,1.0903062254706941
0.49,1.967145094518746,1.398770038136329,2.163859603970621,1.656891816813609,1.377001566163122,1.035692088540252
0.491,1.9757280950121707,1.3889631235434927,2.173300904513388,1.6986715374858794,1.3830096665085194,1.1999910320382803
0.492,1.9844896639771443,1.5613773614838355,2.182938630374859,1.519766594526533,1.389142764784001,1.3878345007673285
0.493,1.9934265288201418,1.622293824641477,2.192769181702156,1.5074631494871744,1.3953985701740992,1.3958074143384849
0.494,2.0025353897351255,1.644270864921788,2.2027889287086384,1.2828641905491995,1.4017747728145877,1.095469855437321
0.495,2.0118129200975825,1.7791646185451195,2.212994212107341,1.1394967089903458,1.4082690440683077,1.2276002078178052
0.496,2.0212557668615254,2.0083222428124534,2.223381343547678,1.0281859152460968,1.4148790368030677,1.003971170111253
0.497,2.0308605509593827,1.8120750937795664,2.233946606055321,1.3002288877761596,1.4216023856715678,0.9490622222347829
0.498,2.0406238677047766,1.9189639125833857,2.2446862544752544,1.339751398626945,1.4284367073933435,1.0399455762245038
0.499,2.0505422871980974,1.9895599388474623,2.255596515917907,1.3751436157429766,1.4353796010386681,1.1175656863884678
0.5,2.0606123547348876,2.461058091735445,2.2666735902083763,1.7127341665224638,1.4424286483144213,0.8886200403951365
0.501,2.0708305912169314,2.6739270145325347,2.2779136503386246,1.7640367950192406,1.449581413851852,0.855565076049071
0.502,2.0811934935660705,2.6967356991058926,2.2893128429226777,1.56945580077491,1.4568354454962493,0.8617826113223906
0.503,2.0916975351406473,2.7680885429922446,2.3008672886547124,1.9179221844596492,1.464188274598453,1.0158408841688038
0.504,2.1023391661545654,2.4058703784308104,2.312573082770022,2.1684587622301317,1.4716374163081958,1.03671484764872
0.505,2.1131148140989167,2.2539327052355813,2.3244262955088084,2.5679311728741157,1.4791803698692416,0.9248414629395239
0.506,2.1240208841661135,2.2831548950893197,2.336422972582725,2.8836725690533873,1.4868146189162794,0.9040363260822992
0.507,2.1350537596765173,2.300686386236668,2.348559135644169,2.6863586933360235,1.4945376317735621,1.1462736587663358
0.508,2.146209802507475,2.1640060008672743,2.3608307827582227,2.7565543949270412,1.5023468617552325,0.9387277678360545
0.509,2.1574853535247573,1.9711182233336177,2.373233888877233,2.9094762177704436,1.5102397474673301,0.9022771854759964
0.51,2.1688767330163254,2.5023565401086056,2.3857644063179584,2.829815784958972,1.5182137131114277,0.862880571213638
0.511,2.180380241128406,2.2328795913739987,2.398418265241247,3.155585829980067,1.5262661687898842,0.6916184048767055
0.512,2.191992158303792,2.4444497162051366,2.4111913741341713,2.9705815895969407,1.5343945108126542,0.746056768312549
0.513,2.203708745722372,2.611578783644636,2.4240796202946093,2.680302157832452,1.5425961220056603,0.9358057701160913
0.514,2.215526245743802,2.380188957584414,2.437078870318182,2.6323026900611115,1.5508683720206613,0.9647222925361283
0.515,2.227440882352285,2.5335443233915425,2.4501849705875136,2.67061293325957,1.5592086176465996,0.7182499322428876
0.516,2.239448861603425,2.534209145860824,2.4633937477637677,3.0503983007559987,1.5676142031223974,0.6664458097554933
0.517,2.2515463720730913,2.554030961629662,2.4767010092804007,3.290699563993763,1.5760824604511638,0.9051457895474571
