time,gyro_x,gyro_y,gyro_z,setpoint_roll,setpoint_pitch,setpoint_yaw,throttle
0.0,0.02612109895999226,0.18109990513001045,0.1850671831591811,0.0,0.1783068598768347,0.1932653061713073,0.38867105042254785
0.001,0.022557838493732933,0.17595477658054412,0.18444752426897523,0.006785695469794662,0.18244377717738547,0.19448798360832317,0.37269308517905547
0.002,8.808017356109685e-05,0.18387325475262906,0.18562750315434767,0.013570522990037852,0.18656756783340503,0.1957051136472884,0.39433672074197984
0.003,0.013369090224081795,0.17054194685308216,0.18532274701694323,0.020353614722196406,0.19067793514234255,0.19691666157189464,0.39677645778721665
0.004,-0.0008850758338730825,0.16219244667482657,0.1829678706463747,0.027134103049759564,0.19477458336744344,0.19812259282505268,0.3622355964947201
0.005,-0.01114973350748023,0.1658764055691463,0.17944736880748047,0.033911120689214716,0.19885721775902732,0.1993228730098782,0.3701801649240737
0.006,-0.007760583309970354,0.15751000884957117,0.17303709441766513,0.040683800800980455,0.20292554457569478,0.2005174678906727,0.3874986666821035
0.007,0.025464305966008398,0.1961692940115296,0.18947832251736638,0.047451277100282956,0.20697927110546196,0.20170634339390028,0.38232789607349615
0.008,0.0327115226317161,0.19716418819583786,0.18179750966613764,0.05421268396796135,0.21101810568682092,0.20288946560915913,0.38607938103898987
0.009,0.04453824327117059,0.19113572735058068,0.17681452285933266,0.060967156561187896,0.21504175772972411,0.2040668007901491,0.37620261786555176
0.01,0.04540135744710144,0.18435125692734383,0.18074107524383332,0.067713830924089,0.2190499377364923,0.20523831535563422,0.3971500329922465
0.011,0.037604115144986676,0.1625495623353289,0.1626243538763772,0.07445184409825262,0.22304235732264358,0.2064039758904003,0.3960888349566771
0.012,0.033852492438929474,0.17279994329933102,0.16792199385644208,0.08118033423310818,0.22701872923764224,0.20756374914620826,0.38770573659021734
0.013,0.03002187163346364,0.17540789001911794,0.16259480477780255,0.08789844069616477,0.23097876738556622,0.20871760204274242,0.4005982611515258
0.014,0.0423765597146433,0.18478733334840441,0.1767367404649541,0.09460530418309357,0.2349221868456914,0.20986550166855403,0.392839439094014
0.015,0.06276591535747622,0.2047542521000512,0.19919930385105378,0.10130006682764033,0.23884870389299154,0.2110074152819999,0.3770757395323252
0.016,0.10792651883904164,0.2343694427745265,0.20171982981343053,0.10798187231135387,0.24275803601855162,0.21214331031217656,0.3919701422869262
0.017,0.1054351638424203,0.22635697149214723,0.1993344675452283,0.11464986597311683,0.24664990194989436,0.2132731543598491,0.37619638706032277
0.018,0.11112137758862677,0.2364313695747596,0.20625623741534335,0.12130319491846409,0.2505240216712175,0.21439691519837514,0.3984021887898816
0.019,0.09994399290442148,0.23058351266478297,0.1992689685384739,0.12794100812867554,0.2543801164435405,0.2155145607746245,0.38741944256816024
0.02,0.10916909940118336,0.2341116587559982,0.20017313247303428,0.1345624565696287,0.25821790882475965,0.216626059209893,0.3859579347954409
0.021,0.10740672567579525,0.22859165598559103,0.19461941534594496,0.14116669330039763,0.26203712268960955,0.21773137880081186,0.3801628195256458
0.022,0.0868958697772432,0.22144722449380258,0.17799174401614878,0.14775287358158398,0.26583748324953044,0.21883048802025215,0.40316212217596514
0.023,0.123866830533803,0.24947180297137522,0.20143083724869637,0.15432015498336663,0.2696187170724385,0.21992335551822387,0.386794885443686
0.024,0.1452695504860681,0.2542251665839912,0.19669074208040305,0.16086769749325572,0.2733805521023993,0.2210099501227702,0.38366687945283906
0.025,0.13992639749818525,0.26739786390936726,0.19009702018891816,0.16739466362353755,0.2771227176792018,0.22209024084085657,0.384738745687293
0.026,0.14979135258830237,0.2380230160179851,0.19664863567655524,0.1739002185183966,0.2808449445578323,0.22316419685925482,0.3955095542886611
0.027,0.12916356584014393,0.23728415725382562,0.1847335656888952,0.1803835300607009,0.2845469649278461,0.22423178754542192,0.393664629308238
0.028,0.14592874880510417,0.24684388510956842,0.19565246028054897,0.1868437689784369,0.28822851243263614,0.22529298244837379,0.394389508964336
0.029,0.15271959748037975,0.24354369299007395,0.18080798215377492,0.19328010895078082,0.2918893221885974,0.22634775129955387,0.3947639472765706
0.03,0.14920839590312682,0.24489930539676544,0.18866681918632944,0.19969172671379196,0.295529130804185,0.22739606401369641,0.4154512045027228
0.031,0.1751322799854107,0.27831840210299763,0.21522619775372348,0.20607780216571572,0.29914767639886425,0.22843789068968462,0.3850317514945277
0.032,0.20332038149824738,0.28159263566995013,0.21817384934175318,0.2124375184718814,0.30274469862195375,0.22947320161140367,0.3839190775987923
0.033,0.20666840722599106,0.30407292267450164,0.21933279035695089,0.21877006216918268,0.3063199386713566,0.23050196724858799,0.380457936433426
0.034,0.21283183489911736,0.29264900467568766,0.2171126364752176,0.2250746232701266,0.3098731393121811,0.23152415825766384,0.39777214114692133
0.035,0.21579540523793797,0.29692385389751946,0.21351200691855327,0.23135039536643792,0.313404044895249,0.23253974548258619,0.40408519448179125
0.036,0.20595414163960318,0.27272818530706255,0.2105410450952375,0.23759657573220588,0.3169124013754882,0.23354869995567032,0.38932725627058595
0.037,0.20948363315994248,0.28012562143048825,0.2073440437615684,0.24381236542655987,0.32039795633021234,0.23455099289841808,0.3807698066430677
0.038,0.20657452398451095,0.2686362347199811,0.20718773747060393,0.24999696939586072,0.3238604589772811,0.23554659572233871,0.3811149281040804
0.039,0.21535907170394958,0.29902252242662164,0.22175215458861,0.2561495965753951,0.3272996601931447,0.23653548002976438,0.3989727941043492
0.04,0.23434200222600454,0.3130784124548986,0.2151546875140753,0.26226945999055973,0.33071531253076747,0.23751761761466006,0.4002416682060517
0.041,0.23462975711777775,0.30660709876950065,0.2069922695055369,0.26835577685752204,0.33410717023743164,0.23849298046342798,0.3979973663262933
0.042,0.2485099759645679,0.2946587577911139,0.20329943989914173,0.27440776868334515,0.3374749892724189,0.23946154075570703,0.38365025493885563
0.043,0.24206803011844127,0.29661031871884674,0.20931663929369287,0.28042466136556393,0.34081852732456913,0.2404232708651657,0.39457912289830716
0.044,0.24886298938002602,0.2959532980110296,0.20690381844698505,0.2864056852911996,0.34413754382971434,0.24137814336029068,0.3933501915127313
0.045,0.2408106496075941,0.29908011328524625,0.19599398826143505,0.29235007543519936,0.34743179998798657,0.24232613100516884,0.3947309588425515
0.046,0.24473439284974957,0.3030674806851099,0.20094791865476663,0.2982570714582905,0.35070105878100016,0.24326720676026434,0.40272053390406565
0.047,0.2678199831711227,0.32802830966449126,0.2240577731773005,0.30412591780423376,0.353945084988904,0.24420134378318967,0.3951031869599126
0.048,0.2984409332250118,0.3420388394548241,0.2378061003268261,0.3099558637964663,0.35716364520730626,0.24512851542947142,0.40072361376739835
0.049,0.30555450490767644,0.3490024880720103,0.234036845580901,0.31574616373411873,0.36035650786406714,0.24604869525331038,0.3935441692212802
0.05,0.30347144822444405,0.36421113665342253,0.23520758808747863,0.32149607698739796,0.36352344323596003,0.24696185700833562,0.39635918120052194
0.051,0.31964958384887027,0.35191598528512663,0.22780899614834305,0.327204868092319,0.3666642234652005,0.24786797464835308,0.4006216937180994
0.052,0.3040832789681617,0.3178887688639493,0.23197893365062291,0.3328718068447784,0.3697786225758397,0.24876702232808878,0.375716810235569
0.053,0.30227310290708304,0.3297217790590855,0.2231967423152352,0.3384961683939525,0.37286641649002406,0.2496589744039259,0.38952302892841745
0.054,0.28227858273551487,0.3272786647452213,0.21671310058996335,0.3440772333350133,0.37592738304411616,0.250543805434636,0.3878709734202138
0.055,0.2983368312251351,0.3412845864010328,0.2315036690504065,0.3496142878011457,0.3789613020046805,0.2514214901821049,0.3860052310470939
0.056,0.3314033611130772,0.35734573310005996,0.2220232516151867,0.3551066235548577,0.38196795508432807,0.2522920036120525,0.3905263362839786
0.057,0.34081308631545904,0.35246873927883293,0.22208816863315914,0.3605535380785704,0.3849471259574226,0.2531553208947469,0.411923575135752
0.058,0.3321899341105407,0.35530142067947407,0.2205677741225215,0.36595433466447547,0.38789860027564443,0.25401141740571237,0.38375050005559797
0.059,0.3293587388238993,0.3403951430159336,0.2205145956792447,0.3713083225036507,0.390822165683413,0.2548602687264321,0.4059159655939349
0.06,0.3358878823271141,0.35516554358755836,0.21107494777272678,0.37661481677442027,0.39371761183316567,0.2557018506450443,0.3742582977375396
0.061,0.33942470431530297,0.34691556574344434,0.2192429939522259,0.3818731387299493,0.3965847304004917,0.2565361391570331,0.3905901819696173
0.062,0.3404775162943548,0.3400692597602854,0.2263072284716099,0.3870826157850616,0.39942331509912116,0.25736311046591315,0.39671786402892667
0.063,0.3581520458743482,0.381610035732393,0.24424237931806103,0.3922425816022693,0.40223316169576695,0.2581827409839082,0.40195547763920214
0.064,0.3946821584361273,0.38897475523771263,0.25713585682287976,0.39735237617700286,0.40501406802481943,0.25899500733262415,0.4036114684439591
0.065,0.4002117293031157,0.3929848195226158,0.2519466724960587,0.402411345922032,0.4077658340028916,0.25979988634371565,0.4047528134520777
0.066,0.3899742777840656,0.3904186917330573,0.2459706349901203,0.4074188437510644,0.4104882616432153,0.2605973550595471,0.3912038001369851
0.067,0.3874877821839427,0.40141797986107736,0.24436041957513693,0.4123742291615143,0.41318115506988584,0.2613873907338475,0.3899960910087316
0.068,0.3811473150047138,0.3768104769890987,0.23592708938074275,0.41727686831642813,0.4158443205319554,0.262169970832359,0.40599579166640754
0.069,0.3734050031908732,0.3595348020487596,0.2317274896482352,0.4221261341255579,0.4184775664173728,0.2629450730334798,0.39356015472868017
0.07,0.37224213505908965,0.3605357654066595,0.23076571732154993,0.4269214063255712,0.42108070326677016,0.263712675228901,0.3807032531599364
0.071,0.38549662635534226,0.3866822420986434,0.23654197958377146,0.43166207155938857,0.42365354378709424,0.2644727555242368,0.38256768167297217
0.072,0.41334058727791684,0.40841294722337723,0.24287975097770362,0.43634752345463745,0.42619590286508174,0.2652252922396495,0.3852892967098282
0.073,0.39998038746753956,0.41308787305470146,0.2393921458747747,0.4409771627012117,0.4287075975805783,0.26597026391046735,0.402444205582683
0.074,0.4285913161878244,0.40487318249991255,0.23617838292662155,0.4455503971279292,0.43118844721969934,0.2667076492877971,0.39834289452200167
0.075,0.41056596552638575,0.3936745469264068,0.2370612558264429,0.45006664177827566,0.43363827328783205,0.26743742733913023,0.40507507540760657
0.076,0.4280992521580352,0.38608615443504435,0.2433950930557509,0.4545253189852255,0.4360568995224782,0.26815957724894235,0.3918176412185345
0.077,0.40837543013230665,0.4023842667374776,0.2379460608559547,0.45892585844513056,0.43844415190593594,0.2688740784192873,0.3990025273410585
0.078,0.4051797728730319,0.38725517999886644,0.2362996743848418,0.46326769729066675,0.4407998586778199,0.2695809104703849,0.4047624700187657
0.079,0.4193128816172127,0.4113302403786137,0.25709472647331183,0.46755028016282996,0.44312385034741975,0.2702800532412015,0.39369851713868337
0.08,0.46901693270261635,0.4377864276532835,0.2667166312631963,0.4717730592819713,0.4454159597058945,0.27097148679002575,0.4030472247830517
0.081,0.46457223412855797,0.42930126116824496,0.2633941424248442,0.47593549451786243,0.4476760218383028,0.2716551913950371,0.3897780128612117
0.082,0.46397502629752596,0.43058135547398396,0.2641663258620567,0.48003705345878334,0.44990387413546895,0.27233114755486815,0.3935196360332607
0.083,0.4573416887516714,0.4244897512177866,0.24417616357289967,0.48407721147962257,0.45209935630568215,0.27299933598916143,0.39345054123026735
0.084,0.4636568923148495,0.423941369437892,0.2539540652319851,0.48805545180898097,0.4542623103862295,0.2736597376391187,0.3838363896173797
0.085,0.4556430397300157,0.40791346793939975,0.24872033813070316,0.4919712655952713,0.45639258075476075,0.274312333668045,0.40418516009191596
0.086,0.4470044117174331,0.39176145120745454,0.23851696634003272,0.4958241519718052,0.45849001414048574,0.27495710546188584,0.39286364266180696
0.087,0.44645002992005156,0.4080451957487772,0.24823398369462168,0.4996136181208578,0.4605544596352021,0.2755940346297579,0.39880133596632783
0.088,0.48163701066330644,0.4405765129848599,0.25007724963158057,0.5033391793367038,0.4625857687041524,0.2762231030044739,0.4045752575333483
0.089,0.4756289806339414,0.4353571897285599,0.24594614082646593,0.5070003590876154,0.46458379519671167,0.27684429264306076,0.4043195180231905
0.09,0.4819525692040335,0.42901789383958694,0.2476663130333501,0.510596689076815,0.4665483953569021,0.27745758582727104,0.40710056661430183
0.091,0.48005118291278137,0.4262643390025078,0.2461939191451445,0.5141277093023743,0.46847942783373725,0.2780629650640888,0.3980888759117532
0.092,0.48538363736083967,0.43128033196742743,0.24842389929925074,0.5175929681160526,0.4703767536913906,0.27866041308622824,0.39434583333603757
0.093,0.48921145058734267,0.4374150514375041,0.24987184859703623,0.5209920222810663,0.4722402364191934,0.27924991285262624,0.39862346075190325
0.094,0.4802658104594585,0.41952556086075127,0.25342316634915013,0.5243244370287835,0.4740697419414551,0.2798314475489285,0.3794866870370818
0.095,0.4892963318382615,0.44951832692958793,0.26886053822407674,0.5275897861143337,0.47586513862711116,0.28040500058796936,0.3825239262089844
0.096,0.5335917395430977,0.4799651759618219,0.27053124720296234,0.530787651871129,0.47762629729919265,0.2809705556102443,0.38417141074710237
0.097,0.5314729173282822,0.46546687729404557,0.27450702404562627,0.5339176252642865,0.47935309124412145,0.2815280964843772,0.38823132887739303
0.098,0.5267506621726571,0.4647480089455458,0.2746429594939037,0.5369793059429488,0.48104539622082637,0.28207760730758025,0.4051500206506865
0.099,0.5188063276948239,0.45656555900508705,0.2602189114309783,0.5399723022914908,0.4827030904696825,0.2826190724061071,0.3896413747074209
0.1,0.5108802202476868,0.4397246383875305,0.2613048326673,0.5428962314796117,0.4843260547212719,0.2831524763357008,0.39612352039757626
0.101,0.516142676499564,0.4401366719832456,0.24348740917011327,0.5457507195113019,0.4859141722049642,0.2836778038820336,0.41640651243861493
0.102,0.49167793495893,0.42850094264919697,0.24325258752734377,0.5485354012726805,0.487467328657319,0.28419504006114116,0.3966948610886853
0.103,0.5039698212395387,0.44982039042410743,0.2503035044934709,0.551249920578697,0.4889854123303065,0.2847041701198499,0.40997442540868195
0.104,0.531191165598866,0.460101381674272,0.26618468791789157,0.5538939302186895,0.4904683139993478,0.285205179536198,0.3900749901543605
0.105,0.5507760604457222,0.46414419935588,0.26276899807764337,0.5564670920007967,0.49191592697117337,0.28569805401984927,0.3989672691415767
0.106,0.5437595602681871,0.47056536262429327,0.25377100659620383,0.5589690767952155,0.4933281470914996,0.286182779512501,0.39018632640506357
0.107,0.5310201036415153,0.47238885999139046,0.2591330404954622,0.5613995645762992,0.4947048727525228,0.2866593421882848,0.3976722190000913
0.108,0.5326822662751457,0.46673409476197103,0.26380702485720464,0.5637582444634921,0.4960460049002293,0.2871277284541611,0.41197829193863805
0.109,0.5317004681139275,0.4489963188281161,0.2568257941786937,0.5660448147610933,0.4973514470415229,0.28758792495030694,0.3813206810329011
0.11,0.5247151884287415,0.4558494639957467,0.2606166108137449,0.5682589829968466,0.4986211052511668,0.28803991855049654,0.4074154950121197
0.111,0.5373355430933187,0.472580076616426,0.2782795092499448,0.5704004659593499,0.49985488817854207,0.28848369636247634,0.4052090769647349
0.112,0.5755023315392077,0.5009167581279379,0.279865569555933,0.5724689897342811,0.5010527070542197,0.28891924572833233,0.39538024189692683
0.113,0.583741741772053,0.4894598286873065,0.278882628814016,0.574464289739433,0.5022144756963476,0.2893465542248513,0.3853110918351013
0.114,0.562220536212086,0.47635061671169476,0.2826177553990137,0.5763861107585568,0.5033401105168517,0.2897656096638748,0.4036830379093352
0.115,0.5558466598341752,0.47593518156274417,0.26396608851273967,0.5782342069740058,0.5044295305274494,0.29017640009264756,0.396617221956165
0.116,0.5493921979298466,0.47337915951622817,0.2637514539366018,0.5800083419981777,0.5054826573454771,0.2905789137941574,0.4059168524811563
0.117,0.5409586887293826,0.4617427526532285,0.25614438375465004,0.581708288903751,0.5064994151995297,0.2909731392874704,0.40354051991563566
0.118,0.5376309695797467,0.45052095721330804,0.24807437297131746,0.5833338302527105,0.5074797309349116,0.2913590653280576,0.42265314974685014
0.119,0.5461284036440671,0.4688541263041274,0.26119667714881123,0.5848847581241597,0.5084235340189011,0.29173668090811644,0.40071299697288987
0.12,0.5746358702374494,0.4910688706376769,0.2748804798190312,0.5863608741409161,0.5093307565458244,0.2921059752568839,0.39145670852535175
0.121,0.5700044603037512,0.4881754201020548,0.2656199588595163,0.5877619894948845,0.5102013332419421,0.29246693784094463,0.40604335238600464
0.122,0.5696540688028413,0.480970045253056,0.26604777396818785,0.5890879249712079,0.5110352014701446,0.29281955836453066,0.40668532361218446
0.123,0.5613304478649884,0.4805602249244369,0.27037394400491066,0.5903385109711906,0.5118323012344594,0.2931638267698154,0.42050888516652274
0.124,0.57232457305317,0.49010463569098894,0.2638131647537939,0.5915135875339912,0.5125925751843682,0.29349973323720063,0.41437319220771357
0.125,0.5677338733709473,0.4771606229990864,0.2612127400553888,0.5926130043570826,0.5133159686189318,0.29382726818559624,0.4087874850065151
0.126,0.5617456236443068,0.4726143065043361,0.27679277781581507,0.5936366208154776,0.5140024294907273,0.2941464222726938,0.422217793991141
0.127,0.5718713445018855,0.49656669875603193,0.2837451961819023,0.5945843059797161,0.5146519084095917,0.2944571863952328,0.3905460815171692
0.128,0.6001280135462417,0.5142087490156798,0.29359850337418714,0.5954559386326114,0.5152643586461765,0.29475955168926066,0.3972872504343119
0.129,0.6001527829495237,0.5055188049216107,0.2796043871466234,0.5962514072847557,0.5158397361353088,0.2950535095303852,0.3939983398874398
0.13,0.5984045011148726,0.5021799973641241,0.27903546781690475,0.5969706101887801,0.5163779994791624,0.29533905153402074,0.40059246751519734
0.131,0.5748341084602067,0.48716629091901764,0.26530493150326223,0.5976134553523691,0.5168791099502363,0.2956161695556273,0.38890283687597305
0.132,0.5763397788221704,0.47923779730034466,0.2635707395886608,0.5981798605500276,0.517343031494141,0.295884855690943,0.4131977189399119
0.133,0.5614324992991184,0.46533171734515905,0.2543369466472557,0.5986697533335973,0.5177697307321923,0.2961451022762092,0.40306202349546594
0.134,0.5386615778328062,0.46163594057133644,0.2506123255833823,0.5990830710415246,0.5181591769638133,0.2963969018883895,0.38823175987329495
0.135,0.5480504246088772,0.4851531078841295,0.26470410820624174,0.5994197608068748,0.518511342168743,0.2966402473453811,0.3938471771568446
0.136,0.5872438717432995,0.49961445481152567,0.2621833989388935,0.5996797795640945,0.5188262010090525,0.29687513170621993,0.40994893411527533
0.137,0.5975271900388649,0.4836032826235398,0.2640235486241618,0.5998630940545199,0.519103730830968,0.2971015482712785,0.41639687957889776
0.138,0.599118622496908,0.49953605120577843,0.2738025750671041,0.5999696808306311,0.5193439116665003,0.29731949058245694,0.430452675199766
0.139,0.5880186394219472,0.4928564989149783,0.27221013037947356,0.5999995262590511,0.5195467262348825,0.2975289524233673,0.44161074865713934
0.14,0.5936449873596009,0.4833246692581627,0.2666947907779597,0.5999526265222896,0.5197121599438121,0.29772992781951096,0.41176975757354634
0.141,0.5753768619950914,0.48977559188246994,0.27345022621484394,0.5998289876192316,0.5198402008905019,0.2979224110384488,0.39507478289996745
0.142,0.5700385468119816,0.4721997318985487,0.2699416945132751,0.5996286253643694,0.5199308398625355,0.2981063965899648,0.38151703150798666
0.143,0.5834846431390959,0.5139449968491551,0.29249945157163204,0.5993515653857808,0.5199840703385311,0.29828187922622273,0.4104664214449906
0.144,0.6065448844990172,0.5221914628239055,0.29251766281592173,0.5989978431218499,0.51999988848861,0.2984488539419158,0.3976508381703535
0.145,0.5999352910441909,0.4980974906171462,0.2838152026073519,0.5985675038167351,0.5199782931746723,0.2986073159744093,0.40257404191969354
0.146,0.5844812493236486,0.5059832439039293,0.2788886464205675,0.5980606025145816,0.5199192859504789,0.2987572608038766,0.40036531540494114
0.147,0.591964597420824,0.4895666940285079,0.2824014467198625,0.597477204052481,0.5198228710615397,0.298898684153428,0.4061730844460135
0.148,0.5688173769880726,0.47903143169321666,0.2612681217649526,0.5968173830521776,0.519689055444808,0.2990315819892327,0.42080638599288933
0.149,0.5550286794735206,0.46669137944079225,0.25954335892939073,0.5960812239105241,0.5195178487281817,0.299155950520634,0.4100512041378477
0.15,0.5374925553925839,0.4640008235524988,0.2615701385873887,0.5952688207886867,0.5193092632298102,0.2992717862002571,0.4064149512673344
0.151,0.5642277136960128,0.4860236420503021,0.2670000794184659,0.5943802776001001,0.5190633139572082,0.29937908572411065,0.39604262205303237
0.152,0.5987250418180642,0.49196266802100813,0.2683287797357295,0.5934157079971771,0.5187800186061763,0.2994778460316808,0.3885261192311294
0.153,0.5989751956242844,0.5070945579007192,0.27003753749543097,0.5923752353567712,0.5184593975595272,0.2995680643060185,0.4029384167585138
0.154,0.5757914549908492,0.49598794482876635,0.2771392745535954,0.5912589927643949,0.5181014738856199,0.29964973797382,0.4082804676902635
0.155,0.5794263856400228,0.489109204354923,0.27315475911036424,0.5900671229971978,0.517706273336699,0.29972286470549986,0.4302927133423426
0.156,0.5709793576093429,0.48440435098968837,0.2748582809297931,0.5887997785057041,0.5172738243470433,0.29978744241525784,0.4107924940767329
0.157,0.5745410136218407,0.49045298492209205,0.2794504889760561,0.5874571213943123,0.516804158030918,0.29984346926113825,0.42117366866517403
0.158,0.559112925997974,0.4750002096312214,0.27531831710110544,0.5860393234005609,0.5162973081803379,0.2998909436450823,0.40354079125225134
0.159,0.576754869394722,0.5102511474967713,0.29263529647013714,0.5845465658731619,0.5157533112626351,0.29992986421297396,0.39546450624137447
0.16,0.5991131481552712,0.5159142410183174,0.28710672419217137,0.5829790397488044,0.5151722064178357,0.29996022985467846,0.39825387231095954
0.161,0.5870062579470612,0.5048675298824018,0.28699602091690946,0.5813369455277321,0.514554035455843,0.2999820397040738,0.4012839516323067
0.162,0.5887167302620914,0.4898859369460544,0.27782609635133076,0.5796204932480982,0.5138988428534301,0.29999529313907575,0.4356796409884997
0.163,0.5701132654322676,0.4819266571140631,0.2742849277650063,0.5778299024590987,0.5132066757510398,0.29999998978165543,0.40043265259864647
0.164,0.5589153542582876,0.47651385694645665,0.2594136287201371,0.575965402192891,0.5124775839493921,0.2999961294978501,0.42050240041575
0.165,0.5238322185891305,0.4658140825335458,0.2579023595908408,0.5740272309352983,0.511711619905902,0.29998371239776694,0.39975658964098104
0.166,0.5266151583399368,0.4562227633829619,0.2549565653230966,0.5720156365953051,0.5109088387309045,0.29996273883557995,0.42192172623921687
0.167,0.5651232560129753,0.48805962490828203,0.2739921331333135,0.5699308764733476,0.5100692981836904,0.29993320940951995,0.4155133443983679
0.168,0.5780583965072198,0.5042991269904672,0.2840041987488872,0.5677732172284031,0.5091930586683496,0.2998951249618575,0.4091653090813541
0.169,0.5548697054474883,0.4819286408573564,0.27375638708840705,0.5655429348438814,0.5082801832294255,0.2998484865788785,0.41070679282970224
0.17,0.5619646890830078,0.4904665827762447,0.2694472790503123,0.5632403145923244,0.507330737547379,0.2997932955908538,0.4034894182443435
0.171,0.5501000095342659,0.47952029388184314,0.27316818110076035,0.5608656509989173,0.5063447899338631,0.2997295535720009,0.41685061252374167
0.172,0.563134644914874,0.47695493672935585,0.2704086102768407,0.5584192478038159,0.5053224113268076,0.29965726234043893,0.40618876784284863
0.173,0.5414546579071902,0.47631260964449756,0.26981303878055957,0.5559014179232964,0.5042636752853149,0.2995764239581372,0.3970920718414915
0.174,0.5271630478953828,0.4729687708962574,0.28449180855027817,0.5533124834097296,0.5031686579843686,0.29948704073085614,0.3966148093276909
0.175,0.5570167691474429,0.4946668334369199,0.28769442887058433,0.5506527754103887,0.5020374382093516,0.29938911520808137,0.4141717821724045
0.176,0.5509768043311593,0.5136299326216117,0.2917048764551803,0.5479226341250918,0.5008700973503782,0.2992826501829514,0.43120043681860976
0.177,0.5492817649136179,0.4992677807523719,0.2826769894294606,0.5451224087626877,0.499666719396438,0.2991676486921775,0.414321803242621
0.178,0.5459087552110682,0.4707398920557179,0.2731418786812386,0.5422524574963893,0.4984273909293529,0.2990441140159575,0.4111287535749931
0.179,0.5344949924377354,0.45976850386128165,0.2683265251382034,0.5393131474179597,0.4971522011175479,0.2989120496778819,0.41613278415706795
0.18,0.5064042478359166,0.4644862354491742,0.25787192422492095,0.5363048544907583,0.4958412417096352,0.2987714594448335,0.4285252956752657
0.181,0.4970986114294527,0.4450068485262884,0.2603072214479037,0.5332279635016516,0.4944946070278132,0.2986223473268802,0.4156362162980137
0.182,0.4997903465515534,0.4613327563573879,0.25988907481354573,0.5300828680117955,0.4931123939610799,0.29846471757716003,0.4082227981469504
0.183,0.5144480628734847,0.48405406448701377,0.27558084479545086,0.526869970306296,0.49169470195826226,0.29829857469176047,0.4265796351159827
0.184,0.5343571733154219,0.4853114937545396,0.27476735702449423,0.5235896813427526,0.49024163302086043,0.29812392340958976,0.41859944049270015
0.185,0.5291289206379777,0.4724214620093359,0.2800504469118419,0.5202424206986941,0.4887532916957091,0.29794076871224195,0.43203357464321457
0.186,0.5343381177031322,0.477970651106958,0.27864974290345645,0.51682861651791,0.48722978506745546,0.2977491158238548,0.4159534022808797
0.187,0.5130222581023155,0.4598575722943732,0.2635572983292167,0.513348705455688,0.48567122275085467,0.2975489702109606,0.3992109936500549
0.188,0.5083169174626669,0.47422672965904045,0.27775843056814925,0.5098031326229618,0.48407771688288287,0.2973403375823306,0.3976366912524749
0.189,0.49767086049595827,0.45792955653499523,0.26725170176782914,0.5061923515293774,0.4824493821146695,0.2971232238888116,0.4340156629738959
0.19,0.4840278977686301,0.4594559286290992,0.2822417180998447,0.5025168240252851,0.48078633560324774,0.2968976353231571,0.43503838902596303
0.191,0.5168705683544835,0.4934645244050648,0.2927687509784911,0.4987770202426651,0.4790886970031258,0.2966635783198496,0.4123499887671585
0.192,0.5149722939067408,0.4969147924709323,0.28465179933160145,0.49497341853499355,0.47735658845767703,0.29642105955491777,0.41005573669827744
0.193,0.5025459908711746,0.4671775932680912,0.2789216986591865,0.49110650541605705,0.4755901345903529,0.296170085945746,0.43234102747440856
0.194,0.497771242792052,0.46224582016399224,0.27411286165260795,0.4871767754977224,0.47378946249571546,0.29591066465087695,0.40166880530369703
0.195,0.47963127799085475,0.44302703755401185,0.26032034177083613,0.4831847314266732,0.4719547017302938,0.2956428030698071,0.4043662328015111
0.196,0.4588876188728688,0.43623961637347924,0.25429428340995147,0.479130883820115,0.4700859843032623,0.2953665088427763,0.422972428041009
0.197,0.4432856475691962,0.4125691480055061,0.25380274487523696,0.47501575120046413,0.4681834446669423,0.2950817898505493,0.4106667403561649
0.198,0.45648988648464317,0.43686302706286634,0.25827373103540413,0.4708398599290243,0.4662472197071289,0.2947886542141912,0.4154899805205722
0.199,0.47061383194488154,0.4612757454787687,0.273907796279089,0.46660374413865907,0.4642774487332422,0.2944871102948359,0.4137395149096899
0.2,0.4785756435476147,0.470401763979147,0.28052692469436874,0.4623079456654735,0.46227427346830396,0.2941771666934473,0.4199010566434555
0.201,0.4725553684206886,0.4440285799825564,0.2687697523378601,0.457953013979507,0.46023783803874063,0.2938588322505744,0.4328892222697364
0.202,0.46564054087287177,0.44740019330853376,0.2724116275797319,0.4535395061144517,0.45816828896401357,0.2935321160460988,0.41723568211825274
0.203,0.44767833408063,0.4529912025579101,0.2722685711315458,0.44906798659640407,0.45606577514607755,0.29319702739897585,0.4240250973967388
0.204,0.4560029962113913,0.4360957285899249,0.2819637265834204,0.4445390273716554,0.45393044785866726,0.29285357586696886,0.39184488056275274
0.205,0.4242035434723878,0.42678941148403265,0.27008853009600947,0.43995320773353624,0.45176246073641274,0.29250177124637633,0.41601138402062643
0.206,0.44383420115535394,0.4396098774572306,0.2818353329693689,0.43531111424831875,0.4495619697637863,0.29214162357175283,0.406626245755152
0.207,0.4557233119206168,0.4559137872572556,0.2842773697563249,0.43061334068019114,0.44732913326387946,0.29177314311562247,0.40226820142997005
0.208,0.4475406347869732,0.43867417237585227,0.27969647235234785,0.4258604879153081,0.4450641118870113,0.29139634038818607,0.4065050238251282
0.209,0.44525206718574795,0.4343934884526781,0.2728366003453615,0.42105316388493436,0.4427670685991699,0.2910112261370213,0.41318220984527104
0.21,0.42730969102345445,0.41706627974989324,0.2580772832206161,0.41619198348768316,0.4404381686702879,0.2906178113467762,0.428331305294935
0.211,0.4090959009520589,0.4149099365437665,0.26258766950894846,0.41127756851086616,0.4380775796623506,0.2902161072388559,0.40157249048976285
0.212,0.39721147955796154,0.3971497925691411,0.2532166891819527,0.406310547550962,0.4356854714173404,0.2898061252711023,0.4180054539081876
0.213,0.3707936987882637,0.38884753457869703,0.25455170626568463,0.4012915559332121,0.43326201604501685,0.28938787713746755,0.41197646018539197
0.214,0.38666408126863105,0.4105380444926325,0.2633846493717926,0.39622123563035816,0.43080738791053325,0.2889613747676803,0.4140029780508276
0.215,0.40784548733187415,0.43266454676151617,0.27460989217309484,0.3911002351805274,0.4283217636218917,0.2885266303269057,0.4301166552095827
0.216,0.413044385598682,0.42321455097740895,0.26979876110734985,0.3859292096042792,0.4258053220172362,0.288083656215398,0.42468939691328694
0.217,0.399438585658189,0.4171003317149368,0.27864489163287254,0.38070882032082276,0.4232582441519852,0.2876324650681471,0.4344291834780287
0.218,0.4016775940004352,0.4160207747276464,0.27018652679536737,0.3754397350634147,0.4206807132858051,0.2871730697545184,0.4166746766289958
0.219,0.38202795327762235,0.4177935992374577,0.27019528967181805,0.3701226277939518,0.41807291486942477,0.28670548337788515,0.4103257160186991
0.22,0.37082019893343304,0.4024138542206006,0.2657628164173497,0.36475817861676313,0.4154350365312924,0.28622971927525515,0.4161389480381114
0.221,0.3574741986804159,0.3908573013552644,0.26655546488192083,0.3593470736916215,0.4127672680640761,0.2857457910168903,0.42188338563677374
0.222,0.3698707476542449,0.4159137468624126,0.2817328461151892,0.3538900051459753,0.4100698014110086,0.28525371240591924,0.421240418478484
0.223,0.38191395164379693,0.41141030750474694,0.28425917408562246,0.3483876709864202,0.4073428306520769,0.284753497477944,0.40625693899623677
0.224,0.3687584243157144,0.4082133306402875,0.26652134137050426,0.34284077500941906,0.4045865519900584,0.2842451605006394,0.42050347449487757
0.225,0.36126935685402256,0.39492759199869426,0.26258027484338803,0.3372500267112783,0.4018011637364041,0.28372871597334637,0.42230428181148694
0.226,0.3323189459737958,0.37482257969412286,0.25298324176327347,0.3316161411973989,0.39898686629697105,0.2832041786266579,0.4499231184327703
0.227,0.32317310636984337,0.3677705659916536,0.2504077616031886,0.32593983909080704,0.39614386215760256,0.28267156342199956,0.4423833967642797
0.228,0.30564480231496666,0.35670819306345847,0.23625829957168054,0.32022184643998036,0.39327235586956,0.2821308855512021,0.4097701158986829
0.229,0.29837763830520925,0.365111202892399,0.24443900805818874,0.314462894625981,0.39037255403480536,0.28158216043606843,0.41670815358923213
0.23,0.316299625562267,0.3919370079793682,0.25675423569731154,0.30866372026890376,0.3874446652911363,0.28102540372793394,0.4027431107901802
0.231,0.34164422138638817,0.3868197037821348,0.2658842206570025,0.30282506513365803,0.38448890029717525,0.28046063130721965,0.4133635345070891
0.232,0.32337827872624875,0.3833475615339064,0.26084397363721445,0.29694767603508804,0.3815054717172126,0.2798878592829796,0.42438682547427553
0.233,0.31811608531780766,0.3801835981454706,0.2636539080420325,0.29103230474244896,0.37849459420590553,0.2793071039924411,0.4352172984486255
0.234,0.30504544092559754,0.37884697910706167,0.257707741141942,0.2850797078832503,0.37545648439283413,0.27871838200053894,0.4121454812382073
0.235,0.2898963436350197,0.37019778240938744,0.26167941095449365,0.2790906468464751,0.3723913608669146,0.2781217100994429,0.413192104946056
0.236,0.27242770202425504,0.356670474433084,0.25451362712030906,0.2730658876851924,0.36929944416067273,0.27751710530807866,0.3954217113645385
0.237,0.2654839740492166,0.3613261153804971,0.2682416312948898,0.2670062010185722,0.36618095673437623,0.27690458487164243,0.4193844486444419
0.238,0.29782052407849813,0.3770071822502156,0.2774163089522515,0.26091236193331707,0.3630361229600294,0.2762841662611091,0.40873466910957423
0.239,0.29260050291408496,0.3861132207254331,0.26937722256481356,0.2547851498845208,0.35986516910522903,0.27565586717273377,0.4152775135920512
0.24,0.2745660043857094,0.362931710291862,0.2584908833264516,0.24862534859597057,0.3566683233168855,0.27501970552754734,0.41125554427498484
0.241,0.2699792020705706,0.34406376818516016,0.24200971244745254,0.2424337459599005,0.35344581560480776,0.27437569947084495,0.42079375199489644
0.242,0.2548488140711598,0.33508795574192285,0.24314371519629874,0.23621113393621407,0.35019787782515366,0.27372386737166865,0.40097913303937377
0.243,0.23970993253757775,0.33507627796629014,0.23713497899214342,0.22995830845118628,0.3469247436637489,0.27306422782228323,0.40461424385393124
0.244,0.20531789700864334,0.30964889892159286,0.23722129703018746,0.22367606929565592,0.343626648619273,0.27239679963764635,0.44791660709565756
0.245,0.2030456481173711,0.3255013764504652,0.24703261409094648,0.21736522002272748,0.3403038299863159,0.27172160185487143,0.407063367534964
0.246,0.24411039781977714,0.34151586855649774,0.25919107078571196,0.21102656784498783,0.3369565268383045,0.2710386537326849,0.4094977500505183
0.247,0.24275128850608083,0.343812352809068,0.26587969446562976,0.20466092353125756,0.3335849800103019,0.27034797475087663,0.4448488194529193
0.248,0.2329574113103456,0.34781458593348585,0.25783119286932116,0.1982691013028873,0.3301894320816793,0.2696495846097448,0.45781328482101996
0.249,0.2269512992336731,0.3276632243957631,0.2527785767013888,0.19185191872961002,0.32677012735866223,0.26894350322953353,0.40904024239393155
0.25,0.2172146150814509,0.33173086986555544,0.2601854419605002,0.1854101966249685,0.3233273118567542,0.2682297507498647,0.4188265589973894
0.251,0.19716305105070278,0.3217851473439863,0.2548960210282575,0.17894475894132475,0.31986123328303484,0.26750834752916375,0.42749065893516525
0.252,0.17789604244275697,0.2987693658303608,0.2486283129247328,0.1724564326644698,0.31637214101833855,0.26677931414407896,0.44428275112454996
0.253,0.18589701086295318,0.3175547597428693,0.2685129962129477,0.1659460477078459,0.3128602860993115,0.2660426713888943,0.41184242265789867
0.254,0.19306252858563674,0.3304885647548264,0.2669423530278013,0.1594144368063915,0.30932592120034896,0.26529844027493676,0.4208876427114518
0.255,0.18974104427304872,0.3227770063082008,0.25245536555420617,0.15286243541002933,0.30576930061541724,0.26454664202997646,0.43330523801243004
0.256,0.16850237701526927,0.32010994518336294,0.2426016341366383,0.1462908815768032,0.30219068023975626,0.26378729809762164,0.42934053112031406
0.257,0.1533848170732461,0.2916620718942573,0.24410455742788717,0.13970061586568394,0.29859031755146875,0.2630204301367067,0.4197555573059871
0.258,0.13927445493968338,0.2856081938226281,0.2335975441293853,0.13309248122905526,0.2949684715929949,0.26224606002067474,0.42280958724454587
0.259,0.13076908808208415,0.2713431612580231,0.22831686190157235,0.12646732290489107,0.29132540295247356,0.2614642098369535,0.40806268641722715
0.26,0.10477403388396139,0.26039814780041953,0.23034239060744055,0.11982598830864423,0.28766137374499484,0.26067490188632525,0.4218492650468538
0.261,0.11615947488951515,0.2803952317446642,0.24604353650509456,0.11316932692485288,0.2839766475937402,0.25987815868229086,0.42165655442632893
0.262,0.1440508270204168,0.2944546890804666,0.25311296687639084,0.1064981901984848,0.280271489611015,0.25907400295042754,0.42778503770592524
0.263,0.1308582829930976,0.29445506643831293,0.2512341966722851,0.09981343142603095,0.27654616637917445,0.2582624576277408,0.41848080743776017
0.264,0.13497721132264623,0.28683289820920294,0.25054910755621357,0.09311590564635953,0.2728009459314423,0.25744354586200996,0.43094887159366396
0.265,0.12778686678733825,0.2740632210090244,0.24925988737626148,0.0864064695313513,0.26903609773262743,0.25661729101112823,0.43758861454003495
0.266,0.10886928754772257,0.27945443099157097,0.24232642164639837,0.0796859812763215,0.2652518926597353,0.25578371664243615,0.4274467321220534
0.267,0.0913687672499806,0.2611535907885809,0.2494405009697176,0.07295530049025142,0.26144860298247863,0.25494284653204957,0.42994815253267044
0.268,0.0753883181604991,0.2510847045193141,0.23600239474171428,0.0662152880858351,0.25762650234368856,0.2540947046641814,0.4265103751399633
0.269,0.07684912129974028,0.28188279065218524,0.2536231409444961,0.05946680616936179,0.25378586573962497,0.2532393152304575,0.42601889883589716
0.27,0.10275036816776416,0.26589171259100464,0.24421301998777412,0.05271071793044589,0.2499269695001923,0.2523767026292269,0.4175045045960355
0.271,0.10115002920296576,0.2688086918690606,0.2381569183199763,0.04594788753161567,0.246050091269057,0.2515068914648655,0.4301063866657471
0.272,0.06832584244689498,0.24291586589617029,0.2289105729416461,0.03917917999778138,0.24215550998367152,0.25062990654707434,0.4252862104366158
0.273,0.048151096658896345,0.2331774583487028,0.2229116635010976,0.032405461105589284,0.23824350585520526,0.24974577289017236,0.45171680289890637
0.274,0.04086513257710788,0.21965965331986392,0.22103346509750688,0.025627597272681994,0.23431436034838346,0.24885451571238235,0.44562411499534815
0.275,0.02606457259349428,0.20304546294709816,0.21055052861701465,0.018846455446876947,0.23036835616123574,0.2479561604351121,0.4315190270875014
0.276,0.01214637812316641,0.21945104791709064,0.2211538332437101,0.012062902995274348,0.22640577720475707,0.24705073268222918,0.41787713346649835
0.277,0.018852242379824545,0.24951397710620754,0.24212333259748253,0.005277807593315524,0.22242690858248018,0.24613825827932978,0.4138297729974775
0.278,0.047230633822710436,0.2423654431370259,0.23359444298871543,-0.0015079628862022286,0.21843203656996266,0.24521876325300246,0.4416172558468498
0.279,0.04963619744380028,0.23725569646897623,0.23296079012433343,-0.008293540484133305,0.21442144859419,0.24429227383008556,0.4306212998477818
0.28,0.030591482507893165,0.22952430416954994,0.2400379632006364,-0.015078057266002542,0.21039543321289458,0.24335881643691928,0.43337473762837647
0.281,0.004857807532388119,0.22932299671948264,0.23302675188759833,-0.02186064543302344,0.20635428009379575,0.24241841769859196,0.40682263140881153
0.282,0.003916161277787462,0.1984385957731782,0.23301987092329493,-0.028640437433094836,0.20229827999375757,0.24147110443818043,0.43903151023695836
0.283,-0.02895453571062496,0.19848666703918497,0.23163464839927833,-0.03541656607177123,0.19822772473786876,0.24051690367598497,0.43349981638132945
0.284,-0.017614644592613717,0.19843847344431106,0.23113231834165077,-0.04218816462318192,0.19414290719844748,0.23955584262875879,0.41486606655085856
0.285,-0.010049987306475966,0.20644124301481878,0.23861440929341798,-0.04895436694089434,0.190044121273968,0.23858794870893163,0.42267733800996105
0.286,-0.010096663008506453,0.20858581489373665,0.22804113597230397,-0.055714307568700404,0.18593166186791615,0.23761324952382779,0.43164458149952944
0.287,-0.03127396736482179,0.20872677994424124,0.22091717853620818,-0.06246712185131779,0.1818058248675709,0.23663177287487872,0.42925385430572405
0.288,-0.0447349965007616,0.17862683182196282,0.22067470065732728,-0.0692119460449847,0.17766690712271535,0.23564354675683025,0.4252624144222914
0.289,-0.05014967744266094,0.1747068195814232,0.20096579255079997,-0.07594791742794214,0.17351520642427923,0.23464859935694393,0.4276707635279291
0.29,-0.07203114413089438,0.1671295440497152,0.1992042804881161,-0.08267417441078267,0.1693510214829121,0.23364695905419278,0.42603298638337633
0.291,-0.09784517414010588,0.14637827788288243,0.19648647855686663,-0.08938985664665447,0.1651746519074927,0.23263865441845222,0.43103149524666373
0.292,-0.09055297852637613,0.16700960204812015,0.2246053057941525,-0.09609410514130898,0.16098639818357177,0.231623714209685,0.44700261687748444
0.293,-0.07453391312198385,0.17089671369231416,0.22069564151696555,-0.1027860623629717,0.1567865616517524,0.23060216737712103,0.3986887178492363
0.294,-0.07088116148651338,0.17416867153457788,0.22229414946531187,-0.10946487235202983,0.15257544448600902,0.2295740430584315,0.4267902596620449
0.295,-0.0692520275575879,0.17954182555971795,0.2166615318443587,-0.116129680830516,0.14835334967194577,0.2285393705788977,0.4318943932635102
0.296,-0.07495842782865805,0.1649506753091817,0.22052828834157825,-0.12277963531137734,0.144120580984998,0.2274981794505748,0.43347189104755796
0.297,-0.09659658287730401,0.15875611939370993,0.2240466604075711,-0.12941388520751765,0.1398774429685752,0.2264504993714499,0.4256006446714187
0.298,-0.0983895916710824,0.14608530532376013,0.21742911460458697,-0.13603158194059278,0.13562424091214953,0.225396360224595,0.409126552163515
0.299,-0.13494244605828615,0.14695255874101282,0.21321056108838166,-0.14263187904955343,0.13136128082929083,0.22433579207731477,0.434286690612202
0.3,-0.12174367638267021,0.146350355692577,0.21510882452798236,-0.14921393229891275,0.12708886943564843,0.22326882518028887,0.4512224158987724
0.301,-0.10967035927842829,0.1706104571738808,0.2235633250772306,-0.15577689978673312,0.12280731412688453,0.22219548996670893,0.4122312821762126
0.302,-0.11496042957208424,0.14166468952328742,0.21172523290134407,-0.16231994205231215,0.11851692295655647,0.22111581705141073,0.4411468980096985
0.303,-0.12059349777857084,0.14062150172339777,0.20044028617647758,-0.16884222218355602,0.1142180046139529,0.22002983723000064,0.4269819390001806
0.304,-0.16209178714743713,0.10567216252568762,0.19947071191168986,-0.1753429059240299,0.10991086840188405,0.2189375814779779,0.4303315663008124
0.305,-0.16679940589220876,0.10539514737443652,0.1969890899150218,-0.1818211617796643,0.10559582421442688,0.2178390809498503,0.4185758299547653
0.306,-0.17542016910311606,0.08752818194310205,0.1854967938154103,-0.1882761611251123,0.10127318251462977,0.21673436697824625,0.4273402284253658
0.307,-0.20377003184933307,0.09015413294274588,0.1974270001658216,-0.19470707830973727,0.09694325431217424,0.21562347107302052,0.44709726473707173
0.308,-0.16714746048306475,0.12390856771871114,0.20923088596706751,-0.20111309076321984,0.09260635114099824,0.21450642492035568,0.4386315562268996
0.309,-0.14821688567223626,0.1266831887639206,0.2188518067755905,-0.2074933791007738,0.08826278503688187,0.21338326038185856,0.45257033284437076
0.31,-0.16418309368789819,0.12285337750921703,0.2197860502600386,-0.21384712722795035,0.08391286851499578,0.2122540094936511,0.44605437295639244
0.311,-0.16933857952518871,0.10328624958128071,0.203709347165816,-0.2201735224450254,0.07955691454741746,0.21111870446545705,0.43733724351662684
0.312,-0.17544686833460027,0.09207083468954531,0.2098291253024569,-0.2264717555509504,0.07519523654061226,0.20997737767968247,0.45313812705473555
0.313,-0.18558414446025545,0.08923677076646484,0.20962023923981601,-0.23274102094685536,0.07082814831288431,0.20883006169049276,0.43762147622614117
0.314,-0.2211563335350729,0.07175682939959867,0.19318988457550992,-0.2389805167390937,0.06645596407179788,0.20767678922288385,0.4424319981516229
0.315,-0.22853181970128925,0.07654877810900221,0.20176773176747512,-0.24518944484180935,0.06207899839156952,0.2065175931717491,0.4290798063435791
0.316,-0.20961196532711074,0.08995586532296644,0.20778953579796644,-0.2513670110790208,0.05769756619043623,0.20535250660094032,0.4335796612983846
0.317,-0.2018871336680237,0.09492107495249369,0.20162614109063015,-0.2575124252862022,0.05331198270799633,0.20418156274232555,0.424554415235707
0.318,-0.23356788031233122,0.06770013250647901,0.18946665455011727,-0.2636249014113518,0.04892256348252869,0.2030047949948405,0.4449408337418954
0.319,-0.2393710286368317,0.06748916687639608,0.18441463759751933,-0.26970365761553616,0.044529624328290204,0.2018222369235363,0.4190684441841259
0.32,-0.25536346200997895,0.04363507347382713,0.18183630248625107,-0.2757479163728927,0.040133481312792346,0.20063392225862184,0.44273848854768966
0.321,-0.27160899729010785,0.03765964057309617,0.1657861785248181,-0.2817569045700832,0.035734450734061896,0.19943988489450212,0.4312046040873783
0.322,-0.2870289457121496,0.025331472784074473,0.16921509633238474,-0.2877298536051815,0.03133284909788261,0.1982401588888111,0.44768944971859875
0.323,-0.26198708782207364,0.0353713114922103,0.19100028086445014,-0.2936659994859834,0.02692899309502323,0.19703477846144032,0.44278691568134115
0.324,-0.25047463347904797,0.0645544425807578,0.20129978959608658,-0.2995645829277295,0.02252319957845189,0.19582377799356274,0.45576618024719967
0.325,-0.2577704135320556,0.06582561394480653,0.1896009656509518,-0.3054248494502228,0.018115785540539105,0.1946071920266525,0.44282959642658026
0.326,-0.2581886531524722,0.046241144325571255,0.19336900378698793,-0.31124604947433443,0.013707068090249548,0.19338505526149918,0.4153376260005089
0.327,-0.2718101770190881,0.042611281600204234,0.1961608511591485,-0.3170274384178811,0.0092973644303278,0.19215740255721855,0.43354041500633655
0.328,-0.27593044483162565,0.03311772827818009,0.18819220675554946,-0.3227682767908627,0.0048869918344749816,0.19092426893025788,0.4204214457795003
0.329,-0.2986389206582163,0.018293399759651798,0.17953634298694265,-0.3284678302900513,0.00047626762452147457,0.18968568955339724,0.42840778790797895
0.33,-0.32289863431299676,0.005727267889768275,0.1852045626105753,-0.33412536989291275,-0.003934490852403827,0.18844169975474628,0.45290343597713806
0.331,-0.3152257241429498,0.02843491401232135,0.19978915030027816,-0.33974017195085743,-0.00834496624670725,0.18719233501673657,0.44256058402527093
0.332,-0.30163324481278225,0.03497577569379835,0.18661830881228123,-0.3453115182817987,-0.012754841229161935,0.18593763097510982,0.426664431343041
0.333,-0.31719200921487584,0.005069395788850309,0.18049220890323955,-0.3508386962620167,-0.017163798513740277,0.18467762341790075,0.4230283408746001
0.334,-0.3181746699249681,0.0011348910702204827,0.17590600781134438,-0.3563209989173084,-0.0215715208804421,0.18341234828441724,0.4357276216863529
0.335,-0.34485005440043515,-0.016241802910904705,0.16467115718820247,-0.3617577250134148,-0.02597769119811809,0.18214184166421424,0.42087673651295077
0.336,-0.34179128198513753,-0.027741610017615763,0.15182138159320982,-0.3671481791457169,-0.03038199244728797,0.1808661397960651,0.4275629310639025
0.337,-0.3674183846590929,-0.031240635501943864,0.1569702621618385,-0.3724916718281819,-0.03478410774294835,0.17958527906692756,0.4395018184116185
0.338,-0.376200472937983,-0.041340801999054155,0.1587365303522983,-0.377787519581556,-0.039183720357373227,0.17829929601090616,0.4497624737396227
0.339,-0.351777239989232,-0.018511373551355778,0.1723469799273799,-0.3830350450207869,-0.043580513742901936,0.17700822730821006,0.4433448256391999
0.34,-0.33700677016887054,-0.005588647261728746,0.16666674581415858,-0.3882335769416666,-0.047974171554714264,0.1757121097841066,0.40868510656818596
0.341,-0.34886612922232185,-0.024264498129579135,0.18167475210658496,-0.39338245040668546,-0.05236437767359204,0.17441098040787112,0.439973808071179
0.342,-0.35665348599841346,-0.034717862464835145,0.17078233556075678,-0.3984810068300822,-0.05675081622866218,0.1731048762917325,0.4373265707255973
0.343,-0.35604108599978357,-0.026554979016373995,0.17351642127638925,-0.4035285940620838,-0.06113317162012424,0.17179383468981468,0.4415695455877861
0.344,-0.3717673637886112,-0.040462370236750624,0.1713311854149048,-0.40852456647232066,-0.06551112854195702,0.17047789299707383,0.45613800637216945
0.345,-0.39601905649930574,-0.053490534841451345,0.1652212725258859,-0.41346828503240896,-0.06988437200460518,0.16915708874823185,0.4121251925323275
0.346,-0.3930505581315456,-0.05302783440411575,0.17195144369300028,-0.4183591173976862,-0.07425258735764202,0.1678314596167057,0.42993130596600093
0.347,-0.37580342770502945,-0.043002763755547825,0.17607621858425682,-0.4231964379880962,-0.07861546031240775,0.1665010434135331,0.4442558516289347
0.348,-0.37564487148198744,-0.04995725205986942,0.16839423878106932,-0.42797962806820344,-0.08297267696462293,0.1651658780862937,0.41832620504206564
0.349,-0.4009451462897885,-0.06279219553408949,0.15121902512520038,-0.43270807582633736,-0.08732392381697333,0.1638260017180268,0.4551570218054375
0.35,-0.39635097720733004,-0.08247464289715276,0.1439407547011946,-0.4373811764528468,-0.09166888780166559,0.16248145252614513,0.44200614120791315
0.351,-0.42666976845169685,-0.08437609554213563,0.1421017053042098,-0.44199833221746015,-0.0960072563029529,0.1611322688613449,0.447885031466045
0.352,-0.42600938092673324,-0.10024388852182017,0.13782621913320392,-0.44655895254574185,-0.10033871717962618,0.15977848920651191,0.43101479455211017
0.353,-0.4542414346148673,-0.105967195194841,0.14078261899710892,-0.45106245409463025,-0.10466295878747311,0.15842015217562352,0.44777131061879993
0.354,-0.4303932815762453,-0.08319183872375988,0.15992206628444636,-0.45550826082705376,-0.10897967000170045,0.15705729651264763,0.45096776577468944
0.355,-0.4072617800503235,-0.06618946110530637,0.16258925507740754,-0.45989580408560976,-0.11328854023931889,0.1556899610904374,0.44108053694329824
0.356,-0.4086824308141279,-0.07344864478757097,0.15433032140639696,-0.4642245226653016,-0.11758925948149014,0.15431818490962287,0.44123863776855554
0.357,-0.42519809957769616,-0.08453597587779309,0.14744931925077215,-0.46849386288532147,-0.12188151829583102,0.15294200709749786,0.4418097049582687
0.358,-0.4252239219955841,-0.0925069884137184,0.1496902769663159,-0.4727032786598712,-0.12616500785867785,0.15156146690690464,0.4283451345374787
0.359,-0.42898448991122884,-0.0988866239540551,0.14620073905745684,-0.47685223156801015,-0.1304394199773056,0.15017660371511374,0.43707455769626347
0.36,-0.4579666317044033,-0.13059498145212517,0.1432712639191814,-0.4809401909225258,-0.13470444711210197,0.14878745702270113,0.4371541880524743
0.361,-0.47218147388817483,-0.11757714311343252,0.14767454361395202,-0.48496663383781213,-0.1389597823986954,0.1473940664524213,0.44372467375552144
0.362,-0.4556013642082176,-0.100835707443272,0.15542974501337004,-0.48893104529675147,-0.14320511967003222,0.14599647174807753,0.45126125956690394
0.363,-0.44351854107683963,-0.09596156800115421,0.16099023808605653,-0.49283291821659,-0.14744015347840617,0.14459471277338795,0.42670028904100504
0.364,-0.44652395854663957,-0.12590579347192482,0.14279429923844209,-0.49667175351379667,-0.1516645791174345,0.14318882951084833,0.4380418992025203
0.365,-0.47597403323419885,-0.13433393710917163,0.13944294880125052,-0.5004470601679026,-0.15587809264398142,0.14177886206059198,0.4574586917215334
0.366,-0.48924919899031444,-0.15225116371173122,0.1287540275764758,-0.5041583552843051,-0.16008039090002713,0.14036485063924575,0.4308973159496632
0.367,-0.4839866442549017,-0.14966337182004222,0.12634439712731757,-0.5078051641560348,-0.16427117153447854,0.13894683557878337,0.430092455917131
0.368,-0.5083010598284503,-0.17831296830898513,0.11559595557919707,-0.5113870203244751,-0.1684501330249239,0.13752485732537428,0.44252614366013643
0.369,-0.4976619299980136,-0.16532558643227455,0.12349708906518515,-0.5149034656390246,-0.17261697469932694,0.13609895643823086,0.4503700366028521
0.37,-0.48289866709061113,-0.130619823159663,0.13865439958742407,-0.518354050315701,-0.1767713967576596,0.13466917358845082,0.44051340358895236
0.371,-0.4712464923522593,-0.13796574351428045,0.14119579387352357,-0.521738332994671,-0.18091310029347318,0.13323554955785752,0.4564626261800449
0.372,-0.4818836442625827,-0.1476989617801305,0.13610243588282359,-0.5250558807967041,-0.18504178731540322,0.13179812523783652,0.45093536654664523
0.373,-0.48400436751036624,-0.14441500840561136,0.1316530759491728,-0.5283062693785417,-0.18915716076861036,0.13035694162816963,0.4508943506291708
0.374,-0.5061294310433663,-0.15370030483898284,0.13531423063148387,-0.5314890829871745,-0.19325892455615304,0.12891203983586527,0.4475805102437868
0.375,-0.5035746766395772,-0.16720556164225456,0.12329648640456937,-0.5346039145130207,-0.19734678356029123,0.1274634610739856,0.4690014830854287
0.376,-0.5245701722947547,-0.1786830250800866,0.11874241106568194,-0.5376503655419993,-0.20142044366371992,0.12601124666047142,0.43874617044147657
0.377,-0.5134695273333676,-0.16807946987375313,0.13188987506962102,-0.5406280464064902,-0.20547961177073099,0.12455543801696364,0.41730423912416414
0.378,-0.5006887041780427,-0.16226728260869608,0.13109785943893248,-0.5435365762351766,-0.20952399582830034,0.12309607666762139,0.4607358859040843
0.379,-0.5103379906717216,-0.17726279755744997,0.11997555760125735,-0.5463755830017606,-0.21355330484710128,0.12163320423793866,0.4361306982684988
0.38,-0.5120952655834962,-0.18563015451112774,0.11434662373295673,-0.5491447035725505,-0.2175672489224409,0.12016686245355565,0.443055845504787
0.381,-0.5387362562499153,-0.20652963002451902,0.10870628477938321,-0.5518435837529072,-0.22156553925511813,0.11869709313906941,0.4576140079037156
0.382,-0.537151244050578,-0.21394474718299547,0.10603270423461517,-0.5544718783325493,-0.2255478881722035,0.11722393821684085,0.42281033540691026
0.383,-0.542695141866081,-0.22152759963136906,0.09431605165042171,-0.5570292511297089,-0.2295140091477355,0.11574743970579876,0.42715566416760115
0.384,-0.558402558663778,-0.22232743091257118,0.09397626693052372,-0.5595153750341311,-0.2334636168233368,0.11426763972024125,0.42309800687329485
0.385,-0.5488671144688255,-0.20025167671211466,0.11337437210194405,-0.5619299320489154,-0.23739642702874517,0.11278458046863536,0.43292154848644987
0.386,-0.5218836058312091,-0.18025010340913175,0.12381338207275147,-0.5642726133311897,-0.2413121568022592,0.11129830425241179,0.4478645954748188
0.387,-0.5202807792979334,-0.20466133687929725,0.1222134031207251,-0.5665431192316144,-0.24521052441109767,0.10980885346475917,0.44901691286173206
0.388,-0.5266458579678647,-0.21821400124827278,0.118116653273781,-0.5687411593327093,-0.24909124937166907,0.1083162705894148,0.446179581676507
0.389,-0.5457923516415538,-0.21338270574295362,0.11735120589503888,-0.5708664524860013,-0.25295405246975255,0.10682059819945251,0.4260486638474203
0.39,-0.5410798101262922,-0.22946397221528742,0.11814785157610463,-0.5729187268479857,-0.2567986557805872,0.10532187895606936,0.41541810621887715
0.391,-0.5607396441115169,-0.24150809342397656,0.10268423658088201,-0.5748977199148971,-0.260624782688868,0.10382015560736733,0.4439290134841062
0.392,-0.5538323996026631,-0.24865235507341657,0.11634884503092868,-0.5768031785562859,-0.264432157908649,0.10231547098713506,0.43775281097520335
0.393,-0.5422353962824372,-0.22366911788928995,0.11446170401170597,-0.5786348590473961,-0.26822050750314863,0.10080786801362576,0.4490640353993099
0.394,-0.5325745799266092,-0.23605873567765645,0.11069542277715777,-0.5803925271003395,-0.27198955890445997,0.0992973896883331,0.4521120621755745
0.395,-0.5576150587973154,-0.24277453565618629,0.10084196227555621,-0.5820759578940634,-0.2757390409331613,0.09778407909476441,0.44548465805219
0.396,-0.5674642617611039,-0.2568511118234701,0.07961913716567917,-0.5836849361031076,-0.2794686838178274,0.09626797939721285,0.4530844297049566
0.397,-0.5688644067004137,-0.26583945065658254,0.07866012661906915,-0.5852192559251452,-0.28317821921443986,0.09474913383952462,0.4468503705112577
0.398,-0.5751039424362087,-0.267939877408139,0.07345593470196816,-0.5866787211073078,-0.286867380225693,0.09322758574386662,0.45059754128111135
0.399,-0.6048048875284281,-0.2844893047519157,0.06811566440103138,-0.5880631449712872,-0.2905359014201978,0.09170337850949052,0.43591754582421466
0.4,-0.5833112731286733,-0.2797455979287267,0.09443734735400956,-0.5893723504372133,-0.29418351885157884,0.09017655561149476,0.4423550774723743
0.401,-0.5607237250865419,-0.2440059587754372,0.10940165572416567,-0.5906061700463041,-0.2978099700774653,0.0886471605995844,0.4470084462751097
0.402,-0.5515417927014565,-0.25264005283044944,0.09686138193868844,-0.591764445982286,-0.30141499417837375,0.08711523709682985,0.45463012263656233
0.403,-0.549156948853915,-0.26110212383512743,0.09901276861364651,-0.5928470300915784,-0.3049983317764802,0.08558082879842116,0.4401954637429554
0.404,-0.5624657323953292,-0.2688945944062945,0.09989463930916308,-0.5938537839022445,-0.3085597250542827,0.08404397947042265,0.45131087074065995
0.405,-0.5682063531020516,-0.27492372269470244,0.09192302434606656,-0.594784578641704,-0.31209891777315074,0.08250473294852438,0.4420032329376397
0.406,-0.5854620257287756,-0.2935187575565203,0.08552502139390822,-0.5956392952532024,-0.31561565529176144,0.08096313313679152,0.4439191560303999
0.407,-0.5975541318617316,-0.2987262377399906,0.08311086494196814,-0.5964178244110411,-0.319109684584421,0.07941922400641332,0.45542018289178204
0.408,-0.5572492339253509,-0.2652701951046583,0.09996646874318933,-0.5971200665345601,-0.32258075425926963,0.07787304959444619,0.42168545095796056
0.409,-0.554040703298791,-0.27559877967152147,0.0965627589620478,-0.5977459318008752,-0.32602861457636817,0.07632465400256112,0.430180657093352
0.41,-0.5704980486647735,-0.2931692369000017,0.0841628552328752,-0.5982953401563683,-0.3294530174656676,0.07477408139578302,0.4280881783996959
0.411,-0.5732570693813613,-0.297711521396692,0.07703660257289043,-0.5987682213269253,-0.3328537165448564,0.07322137600123226,0.4180070163113537
0.412,-0.5967987533845917,-0.32257359289820625,0.06365380561940291,-0.5991645148269259,-0.33623046713708915,0.07166658210686282,0.4380071714126394
0.413,-0.6008151595497991,-0.33544744199145143,0.052203590149074275,-0.5994841699669798,-0.33958302628858894,0.07010974406019924,0.45527541472336974
0.414,-0.6013573777975902,-0.34077139081944324,0.05821122424688402,-0.5997271458604106,-0.3429111527861287,0.06855090626707129,0.44299939057211163
0.415,-0.6101740289807472,-0.3227611222193941,0.0570369975175727,-0.5998934114284854,-0.346214607174386,0.06699011319034849,0.4489271999268048
0.416,-0.5616903587469366,-0.3023728706850669,0.08171346174097055,-0.5999829454043898,-0.3494931517731716,0.06542740934867029,0.4597599765344114
0.417,-0.5613921968584343,-0.2996955343195929,0.08180721743890075,-0.5999957363359484,-0.3527465506945304,0.06386283931517732,0.4627571757699386
