time,roll_setpoint,roll_gyro,pitch_setpoint,pitch_gyro,yaw_setpoint,yaw_gyro
0.0,3.221088436188455,-3.114801188221345,3.543197279807301,-3.4641191254120196,2.2547619053319186,1.297657109748623
0.001,3.299582398918418,2.642218130819341,3.62954063881026,3.148208072410267,2.3097076792428926,4.676054509885189
0.002,3.3777459409858164,3.687652976072365,3.7155205350843983,5.114892184347095,2.364422158690071,5.582953979675814
0.003,3.455574210797501,1.8603351197564377,3.8011316318772517,2.4623987917785146,2.4189019475582505,3.5116298510958877
0.004,3.533062390490227,-0.645070288519304,3.88636862953925,0.07343429858542394,2.473143673343159,1.6573977210892628
0.005,3.6102056963405573,-1.76602957653022,3.9712262659746136,-1.5720315316161946,2.52714398743839,0.740746517648505
0.006,3.686999379171322,-2.9106756103671088,4.055699317088455,-3.250050260592279,2.580899565419925,-0.5623385531761402
0.007,3.763438724754603,-5.19989764612993,4.139782597230063,-5.628695091862169,2.634407107328222,-2.112609238706761
0.008,3.839519054211185,-5.6522728903134585,4.223470959632304,-6.460021009082423,2.6876633379478294,-2.691919420545144
0.009,3.9152357244064526,-2.6254607910643495,4.3067592968470985,-2.7478877901531664,2.740665007084517,-0.7123627593285885
0.01,3.9905841283426917,2.401727171497075,4.389642541176961,3.1592381869159896,2.793408889839884,2.634081670628315
0.011,4.0655596955477415,4.935960603813501,4.472115665102516,5.486617352361859,2.845891786883419,4.233971056382876
0.012,4.140157892459986,2.8096059900789854,4.5541736817059855,3.0763537615174705,2.8981105247219903,2.629346948737207
0.013,4.214374222809629,-1.1913536683249206,4.635811645090592,-1.6205901134473326,2.95006195596674,-0.19328137169859677
0.014,4.28820422799622,-3.293394310012073,4.7170246507958415,-4.166399573363532,3.0017429595973537,-1.9532918246153295
0.015,4.3616434874624,-3.425666231269351,4.797807836208641,-4.174959319570318,3.05315044122368,-1.9745449008926914
0.016,4.4346876190638245,-3.274321036488557,4.878156380970207,-4.4617571000105904,3.104281333344677,-2.106133341282245
0.017,4.507332279435237,-3.3115347310072054,4.958065507378761,-4.4660916862738445,3.1551325956046656,-2.1564655591553024
0.018,4.5795731643526425,-0.7098004133801428,5.0375304807879075,-1.6318335752156163,3.2057012150468496,-0.616809915108812
0.019,4.651406009091567,4.767119721927619,5.116546610000724,4.166110346345109,3.2559842063640967,2.9875159839735606
0.02,4.722826588781357,9.163547281118923,5.195109247659493,8.852686101784752,3.30597861214695,6.184897687513384
0.021,4.793830718755473,9.07853677734865,5.27321379063102,9.006307470561275,3.3556815031288307,6.2016014175367005
0.022,4.864414254897774,4.7300758298287455,5.350855680387552,4.809595097761633,3.4050899784284416,3.5491257076051204
0.023,4.934573093984735,0.9926644805327269,5.428030403383209,0.8728425526064376,3.454201165789314,0.9752486578630792
0.024,5.004303174023567,-0.01634332299748653,5.504733491425925,-0.44901039189248504,3.5030122218164967,0.33373726651264324
0.025,5.073600474586228,0.4519822381833407,5.580960522044851,-0.06023460511272205,3.5515203322103592,0.6894412205051708
0.026,5.142461017139256,0.4002475170843245,5.656707118853182,-0.39290134459940784,3.599722711997479,0.6050434104431437
0.027,5.210880865369442,1.39048249875747,5.731968951906387,0.8458941755904346,3.6476166057586092,1.1515494132114028
0.028,5.278856125505255,4.099790621527827,5.8067417380557815,3.975856899588889,3.6951992878536783,3.367393287284459
0.029,5.346382946634043,7.958936378322711,5.881021241297448,8.808204293591547,3.7424680626438303,6.291575258459609
0.03,5.413457521014937,8.836417770222626,5.954803273116432,9.807877727110665,3.7894202647104556,7.000686028389753
0.031,5.480076084387463,5.234163480548927,6.028083692826209,5.912049739936611,3.8360532590712237,4.475622441344904
0.032,5.546234916275796,0.017041832465933826,6.100858407903376,0.27272231772819167,3.8823644413930567,0.8795088892743186
0.033,5.611930340288663,-2.452033247762456,6.17312337431753,-2.2957143819430716,3.928351238202064,-0.9844201342903105
0.034,5.6771587244148485,-1.418490292239921,6.2448745968563335,-0.998560883483286,3.974011107090394,-0.060340641494843084
0.035,5.741916481314269,0.18677263884881246,6.316108129445697,0.9136622254605946,4.019341536919988,1.3191625834686485
0.036,5.806200068604601,1.6956001604251811,6.386820075465061,2.067649501746609,4.064340048023221,2.2361716262197495
0.037,5.8700059891434355,4.151648538993657,6.457006588057779,4.6451170087846645,4.109004192400405,3.9171260573030016
0.038,5.933330791305923,7.867375947767514,6.526663870436516,9.248936893057454,4.153331553914145,6.523049838641608
0.039,5.996171069257885,10.818295059155549,6.5957881761836745,12.247483261093784,4.19731974848052,8.269228243428582
0.04,6.058523463224383,8.865107942625166,6.664375809546822,10.150946543023093,4.240966424257068,6.964807777092741
0.041,6.120384659753688,3.6194960937403007,6.732423125729057,5.067879122326904,4.284269261827581,3.2704940492164893
0.042,6.181751391976656,-0.3495783290048142,6.7999265311743216,0.5454124161982676,4.3272259743836585,0.3933779481368047
0.043,6.242620439861469,-0.3353127327735157,6.866882483847616,0.2666285170117124,4.3698343079030275,0.14509868869532383
0.044,6.302988630463721,1.7450969535799414,6.933287493510094,3.307994092887551,4.4120920413246045,1.5096063270956144
0.045,6.3628528381718334,3.672601144664386,6.999138121989017,4.810373864736992,4.453996986720283,2.5909666634648705
0.046,6.422209984947755,4.707859988531498,7.064430983442531,5.677477775952407,4.495546989463429,3.2073701010004396
0.047,6.481057040562951,7.014874247867455,7.129162744619247,7.973275206575534,4.5367399283940655,4.742288463780563
0.048,6.5393910228296495,9.405094338611278,7.193330125112615,10.237209219686335,4.577573715980754,6.081157294938527
0.049,6.597208997827305,9.272071456211945,7.2569298976100365,9.938935327718262,4.618046298479113,5.927572252396859
0.05,6.654508080124296,4.670270972490224,7.319958888136727,5.299167680879246,4.658155656087007,2.749557401487627
0.051,6.711285432994797,-0.7255308751759051,7.382413976294277,0.14977655234873133,4.697899803096357,-0.8091154072327198
0.052,6.76753826863083,-1.7417873731661242,7.444292095493913,-1.1206894775187495,4.73727678804158,-1.6476756380996616
0.053,6.82326384834947,1.2856088573317024,7.505590233184417,1.952548312817889,4.776284693844628,0.47411557951641337
0.054,6.878459482795181,5.459590731347282,7.566305431074699,5.925880055171016,4.814921637956626,3.2758207185587156
0.055,6.933122532137267,7.781694199966485,7.626434785350994,8.008440943967724,4.8531857724960865,4.409346680183887
0.056,6.987250406262419,9.264344724525525,7.685975446888661,9.213865726307313,4.891075284383692,5.6860328773968405
0.057,7.0408405649623464,11.11439042880504,7.744924621458582,11.333020590147665,4.928588395473642,7.124749105362238
0.058,7.093890518116458,11.690439359231437,7.803279569928105,11.853390415559815,4.96572336268152,7.617683880570875
0.059,7.1463978258696095,8.769968565722769,7.861037608456571,8.999364111982015,5.002478478108726,5.873227280480935
0.06,7.198360098804855,3.1314598587398192,7.918196108685342,2.88322176630869,5.038852069163398,2.4172580402180115
0.061,7.249774998111233,-0.2785071984083505,7.974752497922357,-0.639828344521173,5.074842498677863,0.5329622226296307
0.062,7.30064023574654,1.1602197418021003,8.030704259321194,0.8579513837323027,5.110448165022578,1.5936325559438713
0.063,7.350953574595092,5.271682936739932,8.086048932054602,5.583734790418717,5.145667502216564,4.384202576626224
0.064,7.400712828620459,8.095591687159446,8.140784111482505,8.113623992554777,5.180498980034321,6.257930291661986
0.065,7.449915863013141,8.098885027104771,8.194907449314455,8.872951319485061,5.214941104109198,6.338103335520023
0.066,7.498560594333212,8.132428629516053,8.248416653766535,8.87223666872472,5.248992416033248,6.430415753171589
0.067,7.546644990647877,8.72682970594472,8.301309489712665,9.094049570281113,5.282651493453514,6.630415250643129
0.068,7.594167071663945,7.206693855700772,8.35358377883034,7.762632808827182,5.315916950164761,5.710969874152415
0.069,7.641124908855225,2.8689218105611802,8.405237399740749,3.4210901971396956,5.348787436198657,2.8585965390118275
0.07,7.687516625584808,-1.370438520318845,8.45626828814329,-1.2255039899700062,5.381261637909366,-0.32811992749456476
0.071,7.733340397222232,-1.2164663060609655,8.506674436944456,-0.9105834652298999,5.413338278055562,-0.3300217681666018
0.072,7.77859445125553,3.4039842386760286,8.556453896381084,4.3730910851075,5.445016115878871,2.5128037350901598
0.073,7.8232770673981396,8.495856620492763,8.605604774137953,9.519663491539244,5.476293947178697,6.100031706173421
0.074,7.867386577690672,10.644288693076088,8.65412523545974,11.741499023841047,5.50717060438347,7.384323012519795
0.075,7.910921366597526,10.050772685051408,8.702013503257279,11.563402578545436,5.5376449566182675,7.099659025123568
0.076,7.953879871098349,9.50607178294085,8.749267858208185,11.065913310942253,5.567715909768844,6.75408968775222
0.077,7.996260580774324,8.602355957959418,8.795886638851757,10.269251076473877,5.597382406542026,6.604445422998516
0.078,8.038062037889294,6.179512857487325,8.841868241678224,7.097952389432347,5.626643426522505,4.69462005898141
0.079,8.07928283746568,2.0639367123430454,8.887211121212248,2.3859821781918864,5.655497986225976,1.7708781208483133
0.08,8.119921627355257,0.19439551396296295,8.931913790090784,0.28308548309454196,5.68394513914868,0.32705433177077836
0.081,8.159977108304703,3.305557197183527,8.975974819135175,3.584186915746907,5.711983975813292,2.159458147258643
0.082,8.199448034015951,8.464781250347626,9.019392837417547,9.374243919694003,5.739613623811166,5.7214784910244685
0.083,8.238333211201375,11.666362320614741,9.062166532321514,12.431686926977546,5.766833247840962,7.679603617595368
0.084,8.27663149963373,10.876597800423763,9.104294649597104,11.259469372798701,5.79364204974361,7.111053355526668
0.085,8.314341812190914,8.52644314094732,9.145775993410007,8.707261598956801,5.820039268533639,5.347351601528159
0.086,8.351463114895509,6.8944039379535305,9.186609426385061,7.481505723828569,5.846024180426856,4.257360227200579
0.087,8.387994426949106,5.447308787886872,9.226793869644018,5.6016635999458995,5.871596098864374,3.3644070542031024
0.088,8.423934820761426,2.949378206664961,9.26632830283757,2.674731275586506,5.896754374532998,1.3396008107505981
0.089,8.459283421974213,0.48618941140409433,9.305211764171634,0.21052468819668668,5.921498395381949,-0.13197971284866838
0.09,8.494039409479925,2.0494315079191816,9.343443350427918,2.2382210680382766,5.9458275866359465,1.127441218196617
0.091,8.528202015435198,7.387523869597947,9.38102221697872,8.242649796903212,5.969741410804638,4.98258399175773
0.092,8.5617705252691,12.362003145539866,9.417947577796012,13.512501868886918,5.9932393676883695,8.501925654436626
0.093,8.594744277686168,13.30614332651033,9.454218705454785,14.8125379174809,6.016320994380317,9.144432602619723
0.094,8.627122664664231,10.836408654699806,9.489834931130655,12.074784101571693,6.038985865264961,7.281574509803958
0.095,8.65890513144703,8.384221609142784,9.524795644591734,9.350123726896483,6.061233592012921,5.83408252027096
0.096,8.690091176531613,6.845871473311618,9.559100294184775,7.63585281223552,6.083063823572129,4.855283308102883
0.097,8.720680351650541,5.461347982775081,9.592748386815597,5.865195018483653,6.104476246155379,3.9158254364271006
0.098,8.750672261748878,3.4429962958551057,9.625739487923767,3.2688541764130576,6.125470583224215,2.4579101165952895
0.099,8.780066564955995,3.0384601538241114,9.658073221451595,2.8987865327820934,6.146046595469196,1.915949316795583
0.1,8.80886297255217,6.360300918059616,9.689749269807388,6.3708109524351615,6.166204080786518,4.2204170084874235
0.101,8.837061248930006,11.57375013775312,9.720767373823007,12.006617858701711,6.185942874251004,7.829306489384121
0.102,8.864661211550661,13.79944829117272,9.751127332705728,14.405520137826123,6.205262848085463,9.532038103341748
0.103,8.891662730894913,11.252578496224928,9.780829003984405,11.466631092905175,6.224163911626438,7.817855471925558
0.104,8.918065730409031,7.009735202212951,9.809872303449936,7.0995399314054675,6.242646011286322,5.140392705183384
0.105,8.943870186445512,4.5859424769200015,9.838257205090065,4.488794812779204,6.260709130511858,3.533942732340423
0.106,8.969076128198637,4.218571380109118,9.865983741018502,4.375097641065861,6.278353289739045,3.3896387888623574
0.107,8.9936836376349,3.3048837948266154,9.893052001398392,3.505407474746323,6.29557854634443,3.0942175973051853
0.108,9.017692849418289,2.8324422171549033,9.919462134360119,3.253442304818252,6.312384994592802,2.4265444229558906
0.109,9.04110395083043,5.460096363126942,9.945214345913472,5.895976752267033,6.3287727655813,4.127940978370367
0.11,9.063917181685632,11.055672292381848,9.970308899854196,11.500543979908679,6.344742027179942,7.702736538667462
0.111,9.086132834240804,15.308975641847676,9.994746117664885,16.33098073419343,6.360292983968562,10.370708671622616
0.112,9.107751253100284,14.6128396999129,10.018526378410314,15.847358248204387,6.375425877170199,9.894724141355859
0.113,9.128772835115576,9.81449799745118,10.041650118627135,10.933599983021935,6.390140984580903,7.08137328715501
0.114,9.149198029280011,5.642550953843916,10.064117832208014,7.6167926391134,6.404438620496007,4.459026584881611
0.115,9.169027336618353,4.743224136663963,10.085930070280188,6.761890933978583,6.418319135632847,3.703890718704535
0.116,9.18826131007134,5.409605973846282,10.107087441078475,7.170668683625279,6.431782917049937,3.9227566923449446
0.117,9.206900554375213,5.104936419490783,10.127590609812735,6.9067121402995415,6.444830388062649,3.875870480123979
0.118,9.224945725936184,6.032684051692785,10.147440298529803,7.865911279774815,6.4574620081553284,4.420975998489827
0.119,9.242397532699936,9.327640331067684,10.16663728596993,11.322567730015228,6.469678272889955,6.4824317162535365
0.12,9.259256734016097,13.130787809810753,10.185182407417708,15.304841620415305,6.481479713811267,9.407691348991625
0.121,9.275524140497758,13.606687502578815,10.203076554547534,15.82386440258551,6.492866898348431,9.554190389313646
0.122,9.291200613876011,9.267124688521053,10.220320675263613,11.233488555640118,6.5038404297132075,6.594326079237668
0.123,9.306287066849553,4.358761310307875,10.236915773534509,5.3583489469695325,6.514400946794686,3.194479237556834
0.124,9.32078446292935,2.2776413260950266,10.252862909222285,3.3757946747551264,6.524549124050544,1.9949329114734136
0.125,9.334693816278396,3.694166435911197,10.268163197906237,4.695352153816766,6.534285671394876,2.759663382972342
0.126,9.34801619154658,5.407173979398485,10.28281781070124,6.54779855896914,6.543611334082606,3.886117403726594
0.127,9.360752703700658,6.672082627950501,10.296827974070725,8.327060451198983,6.5525268925904605,4.715271294178603
0.128,9.372904517849397,8.71286640375701,10.310194969634338,10.97321588705048,6.561033162494578,6.277527586341932
0.129,9.384472849063851,12.745514565167005,10.322920133970237,15.477303343896859,6.569130994344695,8.959200685699821
0.13,9.395458962192835,15.241589171179061,10.33500485841212,17.73189430991623,6.576821273534985,10.501087920448121
0.131,9.405864171673603,13.30656671521772,10.346450588840964,15.055510221948023,6.584104920171521,8.857028455518023
0.132,9.415689841337734,7.780026374387895,10.357258825471508,9.120056534534482,6.590982888936414,5.105361409534355
0.133,9.42493738421227,4.029768414228313,10.367431122633498,4.901184101173913,6.5974561689485895,2.490690379480154
0.134,9.433608262316135,4.357359986679045,10.37696908854775,5.191952177258042,6.6035257836212935,2.8012403940590613
0.135,9.441703986451794,6.444844841270001,10.385874385096974,7.949500835005345,6.609192790516255,4.456691515784932
0.136,9.449226115992277,7.943591858675616,10.394148727591505,10.445883436606252,6.614458281194593,5.596096060903869
0.137,9.4561762586635,8.695748685082433,10.401793884529852,11.008532380993069,6.61932338106445,6.246051525337925
0.138,9.462556070321966,10.466697947002617,10.408811677354164,12.920166339665364,6.623789249225376,7.497395547156327
0.139,9.468367254727813,12.56560132987658,10.415203980200594,15.263372611367073,6.627857078309469,8.986548848411909
0.14,9.473611563313298,11.653672130045859,10.42097271964463,14.697894948421736,6.631528094319308,8.496991032663473
0.141,9.478290794946707,7.042498211075304,10.426119874441378,9.391522785268194,6.634803556462694,5.302919198858239
0.142,9.482406795691702,2.3087234805198866,10.430647475260873,3.877108237752692,6.637684756984191,1.7683715995301075
0.143,9.485961458562159,1.5740562370328508,10.434557604418375,2.7143048943687456,6.640173020993511,1.1379963234065462
0.144,9.488956723272521,4.925796015329158,10.437852395599775,6.245987921091913,6.642269706290764,3.480624013972417
0.145,9.49139457598367,8.561818910612384,10.440534033582036,10.214377499646382,6.6439762031885685,6.104299212753795
0.146,9.493277049044373,10.42427658000118,10.44260475394881,12.476042484669916,6.645293934331061,7.3687864864548125
0.147,9.494606220728304,11.513150746895672,10.444066842801135,14.112651262370136,6.646224354509813,8.114141266358587
0.148,9.495384214966695,13.508768296523762,10.444922636463366,15.924784539340102,6.646768950476686,9.056264925024456
0.149,9.495613201076615,14.275423410691243,10.445174521184278,16.65639110159116,6.6469292407536305,9.680936741286574
0.15,9.495295393484954,11.479784351453356,10.44482493283345,13.044298594495679,6.646706775439467,7.901071765435689
0.151,9.494433051448059,6.2413392195340585,10.443876356592865,7.219074686587753,6.646103136013641,4.3070547882799115
0.152,9.493028478767169,3.1378904773400143,10.442331326643886,3.7239282422367728,6.645119935137018,2.08581761220744
0.153,9.491084023499546,4.676077887280089,10.440192425849501,5.261608967532663,6.643758816449682,3.2813598926958476
0.154,9.488602077665455,8.511971567463172,10.437462285432002,9.965881901252876,6.642021454365818,6.064425315943111
0.155,9.485585076950926,10.670941622596258,10.43414358464602,12.486004935219889,6.639909553865648,7.7947447576208315
0.156,9.482035500406411,11.17330526082442,10.430239050447053,12.574149449759055,6.6374248502844875,8.013924009457108
0.157,9.477955870141287,11.2229899916254,10.425751457155416,12.436454710271477,6.6345691090989005,8.039617410129464
0.158,9.473348751014328,11.869117296146676,10.42068362611576,13.041686087406095,6.631344125710029,8.012820744935802
0.159,9.46821675032008,10.15283341125447,10.415038425352089,11.53875593749386,6.627751725224056,6.90303763095422
0.16,9.462562517471255,5.859918764503813,10.408818769218382,6.396854384571299,6.623793762229878,3.535224283003515
0.161,9.456388743677138,2.128598473767388,10.402027618044853,1.9451554800988742,6.619472120573996,1.132057329299025
0.162,9.449698161618043,2.8546647845703266,10.394667977779848,3.0645717505790797,6.61478871313263,1.4000978390114378
0.163,9.442493545115852,7.485580339415122,10.386742899627437,8.795543174736405,6.609745481581096,4.8044151040511975
0.164,9.434777708800691,12.19600317872823,10.378255479680762,14.035330360902407,6.604344396160483,8.221609916074438
0.165,9.426553507773752,13.911418987015495,10.369208858551128,15.720846905893023,6.598587455441626,9.376063519688126
0.166,9.417823837266303,13.619957037087367,10.359606220992934,14.994817006486052,6.592476686086411,9.057523524191478
0.167,9.408591632294945,12.869497351922092,10.34945079552444,14.321065944220356,6.586014142606461,8.890647960745332
0.168,9.398859867313115,12.075833000979248,10.338745854044427,13.114127325347065,6.57920190711918,8.233711715290507
0.169,9.388631555858904,9.166807489715206,10.327494711444794,10.092926950020777,6.572042089101233,6.238069263633898
0.17,9.377909750199194,4.9478588828643115,10.315700725219115,5.304630855800266,6.564536825139435,3.252353979795533
0.171,9.3666975409702,3.5701199600248232,10.303367295067222,3.7241069541087395,6.55668827867914,2.3265139930356007
0.172,9.354998056814399,7.0968470281612195,10.290497862495839,7.129755002882172,6.548498639770079,4.472151521783997
0.173,9.342814464013909,12.111910293590077,10.2770959104153,12.87428937416257,6.539970124809736,7.96288861906697
0.174,9.330149966120391,14.303301333627498,10.26316496273243,15.35071477490068,6.531104976284274,9.62633185985167
0.175,9.31700780358143,12.725342509883639,10.248708583939573,13.686175158105721,6.521905462507,8.807186346503702
0.176,9.303391253363527,10.424396917839978,10.23373037869988,10.979968726891887,6.512373877354468,7.20371908097418
0.177,9.289303628571663,9.217880829589607,10.21823399142883,9.489138923821216,6.502512540000163,6.222784304422456
0.178,9.274748278065541,7.565972192436476,10.202223105872095,7.748591279568012,6.492323794645879,5.0635387933582665
0.179,9.259728586072473,4.744156078522998,10.18570144467972,4.362852243148276,6.481810010250731,3.037900741507233
0.18,9.244247971797048,3.106240769961471,10.168672768976753,2.099478733482896,6.470973580257933,1.6588600964634317
0.181,9.22830988902751,5.208117259293811,10.151140877930262,4.417966707260825,6.459816922319257,3.2319021257775615
0.182,9.211917825738986,10.74102313660572,10.133109608312886,10.778295057826956,6.44834247801729,7.187043278914818
0.183,9.195075303693534,15.087330393853527,10.114582834062888,15.953806310178262,6.436552712585473,10.383013479095851
0.184,9.177785878037115,15.568952535051732,10.095564465840827,16.525153008274224,6.42445011462598,10.569134662171017
0.185,9.160053136893463,12.90479073798515,10.07605845058281,13.54113760441648,6.412037195825424,8.880852130641403
0.186,9.141880700954951,10.570194938373465,10.056068771050448,10.867440977912691,6.399316490668466,6.931197774741814
0.187,9.123272223070467,8.97603105139278,10.035599445377514,9.575536538502812,6.386290556149326,5.848100797255604
0.188,9.104231387830358,7.219365801752849,10.014654526613395,7.417698164233627,6.37296197148125,4.559836248976463
0.189,9.084761911148467,5.047041260480737,9.993238102263314,5.367983392705121,6.3593333378039265,3.0960399835059422
0.19,9.064867539841323,4.622653563910687,9.971354293825456,5.259434241492132,6.345407277888926,2.9231290420188745
0.191,9.044552051204521,8.389524913673782,9.949007256324974,9.337081894655675,6.331186435843164,5.443503503231703
0.192,9.023819252586343,13.475003244962545,9.926201177844977,14.73607928262427,6.31667347681044,9.0275257982367
0.193,9.002672980958634,14.787122348354922,9.902940279054498,16.57987934201119,6.301871086671043,9.871841758240286
0.194,8.98111710248504,12.027800846983311,9.879228812733546,13.371652601061754,6.2867819717395275,7.936494757681196
0.195,8.959155512086577,7.9510463908365026,9.855071063295235,9.007245408843932,6.271408858460603,5.2998596735058845
0.196,8.936792133004632,5.904943154114396,9.830471346305096,6.728725653090751,6.255754493103242,3.9825343276820986
0.197,8.914030916361419,5.582791065811534,9.805434007997562,5.896691316612868,6.239821641452993,3.664297086726254
0.198,8.890875840717941,4.713757750599164,9.779963424789736,4.5443619975339145,6.2236130885025585,3.275394896590038
0.199,8.8673309116295,4.308565908828572,9.75406400279245,4.629651532178067,6.207131638140649,3.542151352050321
0.2,8.843400161198787,7.051197860327256,9.727740177318665,7.937949481170523,6.190380112839151,5.451683028057497
0.201,8.819087647626652,12.39792202475093,9.700996412389319,13.465421297511776,6.173361353338656,9.102487384387025
0.202,8.794397454760514,16.09106316431959,9.673837200236566,17.17840085472581,6.156078218332359,11.894656379012758
0.203,8.769333691640556,14.884642932314636,9.646267060804613,15.576497236371385,6.138533584148389,10.86283360563893
0.204,8.74390049204365,10.192599858731207,9.618290541248015,10.517581573835283,6.120730344430555,7.603125198312186
0.205,8.718102014025147,6.766604995291251,9.589912215427663,6.5038424520471985,6.102671409817603,5.348212478142768
0.206,8.691942439458552,5.963934869207166,9.561136683404408,5.754716563910429,6.084359707620986,4.87405552563194
0.207,8.665425973573068,6.455884766999752,9.531968570930376,6.064601612054017,6.0657981815011475,4.759950844614989
0.208,8.63855684448918,6.388768907314172,9.502412528938098,5.896319478362328,6.046989791142426,4.580949290844991
0.209,8.611339302752206,7.303731477744966,9.472473233027427,6.772070578460487,6.027937511926544,5.240190612974308
0.21,8.583777620863946,10.580023523253887,9.442155382950341,10.326825679598473,6.008644334604762,7.535926499971075
0.211,8.555876092812435,14.180242679920184,9.411463702093679,14.155144790109023,5.9891132649687036,10.076716186595496
0.212,8.52763903359985,14.147428794962956,9.380402936959836,14.17020695229542,5.969347323519895,9.887093552396
0.213,8.499070778768669,9.808786980903601,9.348977856645536,9.598138412067511,5.949349545138068,6.904221951450797
0.214,8.470175683926028,5.0238193457549505,9.317193252318631,3.864103363617975,5.929122978748219,3.7076192225715743
0.215,8.440958124266466,2.999467474694641,9.285053936693114,2.0929040864426893,5.908670686986525,2.5337398593423686
0.216,8.411422494092951,4.199445489217757,9.252564743502248,3.392999401833455,5.887995745865066,3.5354977532803957
0.217,8.381573206336393,6.0801311839163965,9.219730526970032,5.005919867073309,5.867101244435474,4.495718180816628
0.218,8.351414692073535,7.211122327244496,9.186556161280889,6.73841715200585,5.8459902844514735,5.194744567951029
0.219,8.32095140004344,9.58609334217281,9.153046540047784,9.909840909949095,5.8246659800304075,6.851068364663892
0.22,8.29018779616245,13.684554936032857,9.119206575778694,14.33917563049188,5.8031314573137145,9.598759674954506
0.221,8.25912836303783,15.722193789186134,9.085041199341614,16.262711963734848,5.7813898541264805,10.969885565829832
0.222,8.227777599480001,13.044246224257456,9.050555359428003,13.538382471556615,5.759444319636001,8.841650288373074
0.223,8.196140020013551,7.662089088135019,9.015754022014907,7.711365247233681,5.737298014009486,4.969165412562471
0.224,8.164220154386934,4.0278366988103755,8.980642169825629,4.2709334323687305,5.714954108070853,2.5112182678152934
0.225,8.13202254708104,4.514662992673902,8.945224801789143,4.680991773932591,5.6924157829567275,2.926415823824883
0.226,8.099551756816574,6.818101705871772,8.909506932498232,7.28917123264247,5.669686229771601,4.559106326646319
0.227,8.066812356060401,8.160730253021585,8.873493591666442,8.646726873934464,5.64676864924228,5.6896515608813
0.228,8.033808930530784,9.01527642147814,8.837189823583863,9.258702766163633,5.6236662513715485,6.145418161980231
0.229,8.000546078701703,10.821352075337558,8.800600686571874,11.085385406457192,5.6003822550911915,7.806242368388128
0.23,7.967028411306167,12.652876232096915,8.763731252436784,13.289132245663506,5.5769198879143165,8.853129370894335
0.231,7.933260550838723,11.307753987195362,8.726586605922595,11.790395191242514,5.553282385587106,8.125447622829203
0.232,7.899247131057032,6.002036590416591,8.689171844162736,6.529185399628939,5.529472991739922,4.841211108191267
0.233,7.86499279648276,1.4337595708653046,8.651492076131037,1.5060656782886825,5.505494957537931,1.3588519085015358
0.234,7.830502201901646,1.0263405904759555,8.61355242209181,0.9954163863135301,5.4813515413311515,1.270005913671044
0.235,7.795780011862973,4.681224055443394,8.575358013049271,4.347310816922398,5.457046008304081,3.5462783691420214
0.236,7.760830900178323,7.927879780666959,8.536913990196156,8.05770590825215,5.432581630124826,5.953040273480413
0.237,7.725659549419841,9.515464625962087,8.498225504361825,10.13123989749117,5.4079616845938885,7.292843373072342
0.238,7.690270650417884,11.044165858733479,8.459297715459673,11.700639182036422,5.383189455292518,8.18787170415304
0.239,7.654668901758282,12.585657123353297,8.420135791934111,13.770285462823125,5.358268231230797,9.325478761845279
0.24,7.61885900927909,12.85549283908755,8.380744910207,14.261757440898524,5.333201306495362,9.423214737211449
0.241,7.582845685567045,9.418404812104907,8.34113025412375,10.456094081581139,5.307991979896931,7.03883492604978
0.242,7.54663364945363,4.450654123097527,8.301297014398994,4.677479280075788,5.2826435546175405,3.220391447706116
0.243,7.510227625510939,1.8197769255371483,8.261250388062033,1.9260666835562077,5.257159337857657,1.4524763189914411
0.244,7.47363234354725,3.9145158316788695,8.220995577901975,4.449580552315974,5.231542640483075,2.839723367069957
0.245,7.436852538102515,8.010848266921709,8.180537791912768,8.876356503731797,5.20579677667176,5.604872232694618
0.246,7.3998929479436475,10.07145279479605,8.139882242738013,11.301995100576208,5.179925063560553,7.109235036176675
0.247,7.3627583155598275,10.054818224043416,8.09903414711581,11.427672559229457,5.153930820891879,6.886241135504476
0.248,7.3254533866577285,9.79833801665947,8.057998725323502,11.347591131301641,5.127817370660409,6.836910070196132
0.249,7.287982909656843,10.017169983699523,8.016781200622528,11.315234844023461,5.1015880367597894,6.960567564972422
0.25,7.2503516351848445,8.210551402517424,7.97538679870333,8.99318406366383,5.075246144629391,5.83909243556485
0.251,7.212564315573152,3.5896828495257993,7.933820747130468,3.7086009279485017,5.048795020901206,2.9266724041552408
0.252,7.174625704352627,0.011339836684446603,7.89208827478789,-0.04279281088022202,5.022237993046838,0.41891265138318445
0.253,7.136540555749578,1.1334776211479447,7.850194611324537,1.2507946625978912,4.995578389024704,1.1398262568976438
0.254,7.098313624182009,5.832477824430658,7.808144986600211,6.768720458207612,4.968819536927406,4.493411707110712
0.255,7.059949663756272,10.465648565518396,7.7659446301319,11.78916945002318,4.94196476462939,7.728114768389634
0.256,7.0214534277640634,11.529769006698405,7.7235987705404705,13.11748891466987,4.915017399434844,8.407280770055838
0.257,6.982829668179929,10.55830158144585,7.681112634997922,12.775781332402858,4.88798076772595,7.807460636531006
0.258,6.944083135159224,10.138202401839834,7.638491448675147,12.365954086378625,4.860858194611457,7.253240396294581
0.259,6.905218576536675,9.364761333345903,7.595740434190343,11.674811686441098,4.833653003575672,6.596597037127957
0.26,6.866240737325496,6.455755774702875,7.552864811058046,7.981358066445717,4.806368516127847,4.458266709196639
0.261,6.827154359217225,2.4701234589438927,7.509869795138948,3.3821339533697454,4.779008051452057,1.4494238638551393
0.262,6.7879641800821995,1.1633355452949408,7.46676059809042,2.0026116648565786,4.75157492605754,0.5246751943942911
0.263,6.748674933470865,4.99247938316733,7.423542426817953,6.04187324215475,4.7240724534296055,3.0553174814959627
0.264,6.709291348115822,9.9129147871333,7.380220482927404,10.917834420091072,4.696503943681075,6.500634182672501
0.265,6.6698181474348015,11.747682171547744,7.336799962178282,13.261240133747913,4.668872703204361,7.826563677028286
0.266,6.630260049034488,10.4529593230113,7.293286053937938,11.62549217799337,4.6411820343241414,6.7380659145236
0.267,6.59062176421538,8.250741050477178,7.249683940636919,9.356491979295074,4.613435234950766,5.311702688477504
0.268,6.550907997477579,7.29278380184949,7.205998797225337,7.704663115300198,4.5856355982343056,4.485204039294545
0.269,6.5111234460277165,5.832657523284702,7.162235790630489,5.407829888592245,4.557786412219401,3.2896150550091945
0.27,6.471272799286959,2.736204204341332,7.118400079215656,2.6064408282210225,4.529890959500871,1.1081749170988129
0.271,6.431360738400166,0.6584391877482636,7.074496812240183,0.627398458716387,4.501952516880116,-0.2725073573130725
0.272,6.391391935746305,2.955238324132261,7.030531129320936,3.483614433637859,4.473974355022413,1.228278710913381
0.273,6.351371054450077,8.166380069280443,6.986508159895085,9.634147728235128,4.445959738115054,5.158770624977037
0.274,6.311302747894917,12.540273137507267,6.942433022684409,14.623070694962172,4.417911923526441,8.359077270836824
0.275,6.271191659237288,12.686215428531494,6.898310825161017,14.655045621882564,4.389834161466101,8.256613005315309
0.276,6.23104242092246,9.831869739861066,6.854146663014706,11.70893410294828,4.361729694645722,6.174559573938559
0.277,6.1908596542016845,7.57958896421407,6.809945619621853,8.964556212401899,4.333601757941179,4.471426163572395
0.278,6.150647968650945,6.452786687272894,6.7657127655160405,7.790601162152859,4.305453578055661,3.5954727142049236
0.279,6.110411961691203,4.887123875071873,6.721453157860324,5.78712895076942,4.277288373183842,2.5286678199839487
0.28,6.070156218110315,2.644947166288957,6.677171839921346,2.844618641907445,4.24910935267722,0.8963461083283311
0.281,6.029885309586552,2.7676533068819404,6.632873840545208,3.334680447209415,4.220919716710586,1.0240196250506912
0.282,5.989603794213879,6.611180723964108,6.588564173635268,7.787094008235969,4.192722655949716,3.719622108794246
0.283,5.94931621602894,11.615018352050964,6.5442478376318345,12.82270183671129,4.164521351220258,7.218360557474618
0.284,5.9090271045398755,12.443531276237195,6.499929814993863,13.831486218139354,4.136318973177913,7.965981575497119
0.285,5.868740974256994,9.517539053121403,6.455615071682694,9.970558855488466,4.108118681979896,5.535994698691423
0.286,5.82846232422531,5.406309483957775,6.411308556647842,5.6042503714389875,4.079923626957717,2.6686371078501736
0.287,5.788195637559081,3.3327029030284363,6.36701520131499,3.6642839120542017,4.051736946291356,1.5015371028200546
0.288,5.7479453809782655,2.904662493436659,6.322739919076093,3.1256572960371596,4.023561766684786,1.3755146990086708
0.289,5.707716004347111,2.1742940923938265,6.278487604781822,2.32691645525637,3.9954012030429773,0.80728886011791
0.29,5.667511940214732,1.8373837895479301,6.234263134236206,2.208453806274753,3.9672583581503122,0.9677344395133152
0.291,5.627337603357918,5.056945873709287,6.19007136369371,5.3760347215917355,3.9391363223505422,3.207553980752834
0.292,5.5871973903260335,9.974084458757442,6.145917129358637,11.216872447544013,3.9110381732282233,7.2038656679176025
0.293,5.547095678988222,13.589748511731148,6.101805246887045,14.828339319115218,3.882966975291755,9.319675390684548
0.294,5.507036828082819,11.565551525693445,6.057740510891101,12.836628905138223,3.8549257796579726,8.371651240844757
0.295,5.467025176769138,7.005024790711039,6.013727694446052,7.848617150024493,3.826917623738396,5.219061926598218
0.296,5.427065044181566,3.8180371130017887,5.969771548599723,4.400247170535652,3.798945530927096,2.7532883602705494
0.297,5.387160728986127,3.3996804745313427,5.9258768018847405,3.9232595273093236,3.771012510290289,2.41039172897176
0.298,5.347316508939439,3.2372092680933995,5.882048159833384,3.9355178685629233,3.743121556257607,2.3867748859447193
0.299,5.307536640450233,3.120453888742824,5.838290304495257,3.2899854953279783,3.715275648315163,2.2518418421030004
0.3,5.267825358143346,3.949430359498921,5.794607893957681,4.547327208019546,3.6874777507003422,3.0576214356691467
0.301,5.228186874426374,7.544926804772897,5.751005561869012,8.36436743711899,3.6597308120984615,5.422587634310482
0.302,5.188625379058888,10.68481288294501,5.707487916964777,12.243692009561045,3.6320377653412215,8.13233683961177
0.303,5.149145038724393,10.41414005828533,5.664059542596833,11.676008344771342,3.604401527107075,7.80223748708151
0.304,5.109749996604938,6.066630874213984,5.620724996265432,6.944186595617216,3.5768249976234565,4.5314666646652455
0.305,5.070444371958542,1.2276911329755773,5.5774888091543975,1.5656521838397879,3.549311060370979,1.2689347930077313
0.306,5.03123225969939,-0.09771881008074068,5.534355485669329,0.478332180593001,3.521862581789573,0.390809713148891
0.307,4.9921177299809045,1.4638591789488409,5.491329502978996,2.1734710739630483,3.494482410986633,1.4764771617953012
0.308,4.953104827781667,3.083594192459938,5.448415310559834,4.056000616279665,3.467173379447167,2.617213200168312
0.309,4.914197572494326,4.045131130554003,5.40561732974376,5.370827891912889,3.4399383007460282,3.7698844387490187
0.31,4.875399957517412,6.534341743657681,5.362939953269153,8.102714138472077,3.412779970262188,5.623919115891967
0.311,4.836715949850232,10.350097445990038,5.320387544835255,12.452135243181337,3.3857011648951625,8.274353384804698
0.312,4.798149489690758,11.994559168349188,5.277964438659834,14.205256840204118,3.3587046427835303,9.494100375700679
0.313,4.759704490036671,8.820154089096864,5.235674939040338,10.606158951544085,3.3317931430256693,7.229870754786204
0.314,4.721384836289494,3.3736064001745607,5.193523319918444,4.660020253249998,3.3049693854026456,3.1355811616969302
0.315,4.683194385861908,0.4123464116931048,5.1515138244481,1.215451535477703,3.2782360701033353,0.7750009781175242
0.316,4.645136967788326,1.1493125377247124,5.109650664567159,1.6509128118834813,3.251595877451828,1.2243778313522733
0.317,4.6072163823386525,3.2411767791609947,5.067938020572518,4.292601757009752,3.2250514676370567,3.038744947201039
0.318,4.569436400635408,4.691481408718872,5.02638004069895,5.918193138183855,3.1986054804447854,3.7993566405158914
0.319,4.5318007642741245,5.936729064743408,4.984980840701537,6.607920619634032,3.172260534991887,4.280970984950902
0.32,4.494313184947167,8.063889040901536,4.943744503441884,9.3071637664541,3.1460192294630165,5.838885114908512
0.321,4.456977344070912,9.707121229966848,4.902675078478004,11.4824808144593,3.1198841408496385,7.322247455010028
0.322,4.419796892416423,7.9991815627314935,4.861776581658066,9.183932051406408,3.0938578246914963,5.898816642804384
0.323,4.382775449743562,2.7516923160977487,4.821052994717919,3.4002825241375163,3.0679428148204932,2.557315523436226
0.324,4.345916604438667,-1.6703384772161893,4.780508264882534,-1.761356870560359,3.042141623107067,-0.775127003195947
0.325,4.309223913155743,-2.154968459048791,4.740146304471318,-2.0990978650647234,3.01645673920902,-1.1143193040871648
0.326,4.2727009004612935,1.405275929748277,4.699970990507423,1.8381304752493235,2.9908906303229053,1.1162111237003707
0.327,4.236351058482729,4.777414914024347,4.659986164331002,5.589734217098652,2.96544574093791,3.496541273199166
0.328,4.200177846560496,6.629557476178242,4.620195631216546,7.195568394253203,2.9401244925923473,4.592163447303016
0.329,4.164184690903849,7.6978027608273685,4.580603159994235,8.517990166534133,2.9149292836326945,5.530982803620054
0.33,4.128374984250415,9.248537204868793,4.541212482675458,10.47425683575645,2.8898624889752904,6.68608198216171
0.331,4.092752085529465,9.328759349802237,4.502027294082412,10.545318380715512,2.8649264598706257,6.4863022103628865
0.332,4.057319319529055,5.889162910415903,4.463051251481962,6.265357087857582,2.8401235236703384,3.994517383945146
0.333,4.022079976566935,0.6111369954230774,4.4242879742236285,0.5279193706400775,2.8154559835968542,0.2567965193728412
0.334,3.987037312165387,-1.6258872538390658,4.385741043381926,-1.7457861926736413,2.7909261185157708,-1.1020567274656372
0.335,3.9521945467299187,0.6821700315685333,4.347414001402911,1.1627205347093645,2.7665361827109427,0.7143472136512399
0.336,3.917554865231928,4.725398988348893,4.309310351755121,5.625458018365455,2.7422884056623493,3.46483819954791
0.337,3.883121416895297,6.545933156367246,4.271433558584827,7.832850238943608,2.718184991826708,4.784376856512523
0.338,3.848897314887025,6.292925154756407,4.233787046375728,7.73086508775637,2.694228120420917,4.473490400812725
0.339,3.8148856360118426,6.452791873181024,4.196374199613027,7.617177673174316,2.6704199452082897,4.619134107806662
0.34,3.781089420410936,6.283728531502669,4.15919836245203,7.610359844349605,2.646762594287655,4.6375517166353255
0.341,3.7475116712647107,4.2380609549347215,4.122262838391182,5.16459086759515,2.6232581698852973,3.154333850344562
0.342,3.7141553544997175,-0.30075538149694614,4.08557088994969,0.2265035587870674,2.599908748149802,-0.16185418035187915
0.343,3.6810233984996916,-3.3130119058306375,4.0491257383496615,-3.525886581277983,2.576716378949784,-2.4114219033303685
0.344,3.6481186938207983,-1.989036910793332,4.012930563202879,-1.7017873927835332,2.5536830856745585,-1.4984480083520606
0.345,3.615444092911062,3.311292143468526,3.9769885022021687,3.5706457690889857,2.5308108650377434,1.9653376603371426
0.346,3.5830024098340374,7.563496504505075,3.9413026508174416,8.40363166400402,2.508101686883826,5.159988588632608
0.347,3.5507964199967583,8.249288697065314,3.9058760619964343,9.428380993521255,2.4855574939977307,5.810189158769935
0.348,3.5188288598819355,7.419481014116348,3.8707117458701292,8.389787032659275,2.4631802019173548,5.30506186282847
0.349,3.48710242678452,6.852084499320657,3.835812669462972,7.647253031327091,2.4409716987491636,4.784975517181478
0.35,3.4556197785525606,5.88073693423752,3.801181756407817,6.602211316292131,2.418933844986792,3.9137120580449416
0.351,3.4243835333324704,2.397581127068352,3.7668218866657175,2.994857297106285,2.397068473332729,1.4684419287548238
0.352,3.3933962693186492,-1.7954897054945214,3.7327358962505146,-1.3365040385273677,2.3753773885230545,-1.316606086085733
0.353,3.3626605245075565,-2.56023025383652,3.6989265769583124,-2.194446674868591,2.353862367155289,-1.879233877191247
0.354,3.3321787964562013,1.4623314261469087,3.6653966761018215,1.875737676833762,2.3325251575193406,0.7668335263637804
0.355,3.30195354204512,6.350598713687081,3.632148896249632,7.225179639012511,2.311367479431584,4.270167982910409
0.356,3.271987177245819,8.003788929796041,3.599185894970401,9.075639613215035,2.2903910240720733,5.685268717337733
0.357,3.242282076892762,6.472838527416496,3.5665102845820384,7.067741943830548,2.2695974538249333,4.587235348691331
0.358,3.2128405744598574,4.125891066228487,3.5341246319058435,4.336314749048615,2.2489884021219,2.927542387378627
0.359,3.18366496184154,3.2328954705041024,3.5020314580256944,2.826363436649677,2.228565473289078,1.8632978440437262
0.36,3.154757489138409,1.7433883555051897,3.4702332380522503,0.9290274741946498,2.2083302423968862,0.48535808061627184
0.361,3.126120364447458,-1.3485889583955704,3.438732400892204,-2.087277581907363,2.1882842551132207,-1.5190594839203713
0.362,3.0977557536569647,-2.822060508242369,3.407531329022661,-4.106099367008266,2.168429027559875,-2.364499813537089
0.363,3.069665780245983,-0.012236812791668328,3.3766323582705815,-0.9993085813699398,2.148766046172188,-0.20807778106277652
0.364,3.041852525088518,5.656211301889037,3.34603777759737,5.498854827291481,2.1292967675619625,4.144690412847767
0.365,3.014318026262373,9.840308678280806,3.3157498288886105,10.001282688611369,2.110022618383661,6.912860043090262
0.366,2.987064278862709,9.074727243150646,3.28577070674898,9.577512702273346,2.090944995203896,6.505333297179866
0.367,2.9600932348203015,6.083870455478612,3.2561025583023318,6.2969535279201745,2.072065264374211,4.4415146426508985
0.368,2.933406802724554,3.989660729681213,3.22674748299701,3.752386956089225,2.053384761907188,2.6323013898156793
0.369,2.9070068476512523,3.0571098489978588,3.197707532416378,2.5493707067805707,2.0349047933558766,1.7773685590636257
0.37,2.880895190995096,1.3725700061722619,3.168984710094606,0.5320183611952278,2.0166266336965673,0.39505312001490367
0.371,2.8550736103070076,-0.9447522075315415,3.1405809713377084,-1.7812428402181313,1.9985515272149053,-1.2413789309364613
0.372,2.829543839136263,-0.5627055269951287,3.112498223049889,-0.6704256381974689,1.980680687395384,-0.6240327178901452
0.373,2.804307566877406,3.5958644085709297,3.084738323565147,4.272765968924926,1.963015296814184,2.266943931360345
0.374,2.779366438622046,8.41148112635457,3.0573030824842506,9.335909522288976,1.945556507035432,5.395673211326788
0.375,2.7547220550154448,9.022490773352983,3.0301942605169896,10.118618743811446,1.9283054385108112,5.6006855557742075
0.376,2.7303759721180167,6.06180207580104,3.0034135693298185,6.363126217492518,1.9112631804826117,3.225026972595658
0.377,2.7063297012716676,2.257372485935118,2.9769626713988346,2.0142579741224633,1.8944307908901672,0.8506694376494854
0.378,2.6825847089710386,0.8616227069078701,2.950843179868143,-0.08486103544000745,1.8778092962797268,-0.2581198352537144
0.379,2.659142416739649,0.2736139882951667,2.9250566584136144,-0.3909713502523511,1.8613996917177542,-0.41480649426110405
0.38,2.63600420101094,-0.7450008270775372,2.8996046211120343,-1.2597890751927006,1.845202940707658,-1.0421118346529301
0.381,2.613171393014259,-0.0960528679991759,2.874488532315685,-0.827585434430917,1.8292199751099811,-0.7772414102023086
0.382,2.59064527866576,2.9209355154830834,2.8497098065323363,3.0388535193665485,1.813451695066032,1.487226695217167
0.383,2.568427098464264,8.220485302685205,2.825269808310691,8.499783481297266,1.7978989689249847,5.068231025995766
0.384,2.5465180473920634,11.012537433328966,2.8011698521312702,11.741890846173929,1.7825626331744442,7.137099578915587
0.385,2.524919274820694,8.690362839433806,2.7774112023027637,9.74093081108439,1.7674434923744855,5.8508221684483175
0.386,2.503631884421682,4.04679984494531,2.7539950728638507,4.501178027134193,1.7525423190951772,2.45411313483015
0.387,2.4826569340822626,0.9279723040743373,2.730922627490489,1.1799614522785205,1.7378598538575838,0.3764430167849224
0.388,2.4619954358261067,0.2853335221310176,2.7081949794087175,0.8820740872141197,1.7233968050782746,-0.19792273510916814
0.389,2.4416483557390185,0.1326275914921493,2.6858131913129206,0.6236204427921495,1.7091538490173128,-0.23411885383236197
0.39,2.4216166138996558,0.028710009578852613,2.6637782752896215,-0.07805914692901084,1.695131629729759,0.03109169352517993
0.391,2.401901084315253,1.1472071776585513,2.6420911927467787,1.3067007737656453,1.681330759020677,0.8586703687149755
0.392,2.382502594862352,4.7530539830648575,2.6207528543485874,5.04418789278047,1.6677518164036462,3.3652359931946036
0.393,2.3634219272325687,7.920693453401489,2.5997641199558257,9.029847701948093,1.654395349062798,5.784848473005164
0.394,2.3446598168833717,6.93188654012609,2.579125798571709,8.280641046033004,1.64126187181836,5.033406044589764
0.395,2.326216952993895,2.103439256820749,2.5588386482932846,3.228274738735733,1.6283518670957264,1.7452563516368307
0.396,2.308093978425778,-2.6544024644447646,2.538903376268356,-1.8273454798310493,1.6156657848980447,-1.347731136771876
0.397,2.2902914896890554,-3.646552011134087,2.519320638657961,-2.706406462652499,1.6032040427823386,-2.093856324936487
0.398,2.2728100369130715,-1.9078900486083912,2.500091040604379,-1.02454019607408,1.59096702583915,-0.7970582504240555
0.399,2.2556501238224396,-0.22432511064943483,2.4812151362046837,0.6799731052906699,1.5789550866757076,0.023054679618035978
0.4,2.2388122077180492,1.0736340052830229,2.4626934284898545,2.6025021732615885,1.5671685454026343,0.9348203389858387
0.401,2.222296699463114,3.8657419288973203,2.444526369409426,5.422492021661361,1.5556076896241797,3.161865130294481
0.402,2.2061039634742547,7.981384461694994,2.4267143598216805,9.95925544532178,1.5442727744319782,5.965047897217998
0.403,2.1902343177176444,9.288370457428053,2.409257749489409,10.782467527312043,1.533164022402351,6.723601971680639
0.404,2.174688033710181,5.913464024374802,2.3921568370811994,6.902712071010559,1.5222816235971266,4.175549160154621
0.405,2.159465336525713,0.6941284899258102,2.3754118701782847,0.9743396980022574,1.511625735567999,0.3782936388443803
0.406,2.1445664048063042,-1.9382171196170987,2.3590230452869347,-2.2753788237490697,1.501196483364413,-1.8740007524204338
0.407,2.129991370778531,-0.7162340387754522,2.3429905078563844,-1.0424635537847013,1.4909939595449715,-1.0848578496811463
0.408,2.1157403202748313,1.155443127924173,2.3273143523023148,1.5176235046418407,1.4810182241923817,0.573574141345196
0.409,2.1018132927598687,2.2521322902298357,2.3119946220358556,2.966874063500904,1.471269304931908,1.3405787310803785
0.41,2.088210281361948,3.0352725399399936,2.297031309498143,4.038965461572428,1.4617471969533635,2.1037996211244057
0.411,2.074931232909436,5.499817264393714,2.2824243562003796,6.239053055945415,1.4524518630366052,3.6457241888025425
0.412,2.061976047972218,6.990918344522289,2.26817365276944,7.984780247686638,1.4433832335805523,4.553511314158328
0.413,2.0493445809081665,4.794186169596475,2.2542790389989835,5.641212358306108,1.4345412066357164,3.1501359110031224
0.414,2.037036639914625,-0.41469477850547554,2.2407403039060876,-0.18223797109394102,1.4259256479402374,-0.7141697657524282
0.415,2.0250519870848827,-4.455521211954103,2.227557185793371,-4.855735199263288,1.4175363909594179,-3.677938126149104
0.416,2.0133903384696703,-3.981284389006535,2.2147293723166377,-4.394208936629806,1.409373236928769,-3.426307205531039
0.417,2.0020513641436244,-0.3372187545886649,2.202256500557987,-0.5164437003052451,1.401435954900537,-0.5989114361071521
0.418,1.9910346882767485,3.125329213146114,2.1901381571044234,2.9431713514204043,1.3937242817937239,1.8165546190941977
0.419,1.9803398892108435,4.56545749919345,2.178373878131928,4.411155499824842,1.3862379224475903,3.125862789017273
0.42,1.969966499540913,5.644881950425887,2.1669631494950043,6.0297629632886665,1.378976549678639,4.0171558015245665
0.421,1.9599140062015126,7.289167929978673,2.155905406821664,7.749985344600918,1.3719398043410587,5.179349844336556
0.422,1.9501818505580548,6.881667212324638,2.1452000356138603,7.496659967528363,1.3651272953906384,4.986808494834838
0.423,1.9407694285030574,3.0062820855974715,2.134846371353363,3.3287367964047836,1.3585385999521402,2.1836317399659175
0.424,1.9316760905572998,-1.9519758096901554,2.12484369961303,-1.9835633558048684,1.3521732633901098,-1.2667129302671785
0.425,1.9229011419759177,-3.868721384846634,2.11519125617351,-3.9617138625160266,1.3460307993831422,-2.415320749891289
0.426,1.9144438428593826,-1.5108596999189186,2.105888227145321,-0.31168548672776275,1.3401106900015678,-0.3630004963572675
0.427,1.9063034082693822,2.8780220965439334,2.0969337490963205,4.086778044422939,1.3344123857885675,2.3262313482465986
0.428,1.898479008349577,4.682285984844624,2.088326909184535,5.9667658018111,1.3289353058447038,3.6386399577655575
0.429,1.8909697684512272,4.180317207554367,2.08006674529635,6.215829794040971,1.323678837915859,3.4730702726161695
0.43,1.883774769263657,3.9485865416716552,2.072152246190023,5.967239830580132,1.3186423384845598,3.8217206657332525
0.431,1.8768930469495766,3.932885688023558,2.0645823516445345,5.736627195781016,1.3138251328647035,3.6311772114489886
0.432,1.8703235932852076,1.3994784121342656,2.0573559526137286,2.858666990367488,1.3092265152996452,1.8634181177304119
0.433,1.864065355805229,-2.9067117316289224,2.050471891385752,-2.56502759134892,1.3048457490636602,-1.3040796255042735
0.434,1.858117237952511,-5.861882207483189,2.0439289617477625,-5.546629085341171,1.3006820665667576,-3.0364595938310632
0.435,1.85247809923262,-3.8363619328233955,2.037725909155882,-3.3257084601979847,1.2967346694628339,-1.563205020140757
0.436,1.8471467553730863,1.3200369166909893,2.031861430910395,2.5374222717878983,1.2930027287611603,1.900008588337115
0.437,1.842121978487417,5.330405885622854,2.026334176336159,7.015420948623225,1.2894853849411918,4.779667618483819
0.438,1.8374024972438239,6.114757798208435,2.0211427469682066,7.378912296229822,1.2861817480706765,4.993350652412882
0.439,1.8329869970386614,5.6901837059769305,2.0162856967425276,6.815916059593119,1.283090897927063,4.364926190627608
0.44,1.8288741201745573,5.319874386311017,2.011761532192013,6.122557502278969,1.2802118841221901,3.9180018252442546
0.441,1.8250624660431978,4.087231474836495,2.007568712647518,4.9367981854589305,1.2775437262302383,2.9653496890564393
0.442,1.821550591312775,0.7334545222863664,2.0037056504440525,0.7652875765726406,1.2750854139189425,0.6120020864229418
0.443,1.8183370101200547,-2.8698495475198453,2.00017071113206,-3.4016315308628107,1.2728359070840383,-1.9495888870660638
0.444,1.8154201942670474,-3.482121291606868,1.9969622136937524,-3.895083446337135,1.270794135986933,-2.0219723048550606
0.445,1.8127985734222793,0.4510899121400729,1.9940784307645074,0.634359219346484,1.2689590013955954,0.7120479379106605
0.446,1.8104705353266182,5.181124501099893,1.9915175888592802,5.745086081946946,1.2673293747286327,3.752432338116562
0.447,1.8084344260036413,6.501245377737455,1.9892778686040056,7.257145444709506,1.265904098202549,4.7323566483416455
0.448,1.806688549974532,4.535046567309465,1.9873574049719853,5.169695516338875,1.2646819849821722,3.4550200191840825
0.449,1.8052311704774624,2.073367987074615,1.9857542875252088,2.7695655778339017,1.2636618193342235,1.7247452671498298
0.45,1.8040605096914613,0.8263504131436711,1.9844665606606076,1.6872469988447771,1.2628423567840228,0.8137564266666121
0.451,1.803174748964727,-0.9757039277157538,1.9834922238611998,-0.17963680231918966,1.2622223242753088,-0.6678671227296985
0.452,1.8025720290473677,-3.6070484128318943,1.9828292319521046,-3.0612898549534724,1.2618004203331572,-3.0125156643173394
0.453,1.8022504503285388,-4.72881738484082,1.9824754953613928,-4.380110109089831,1.2615753152299771,-3.731086733434238
0.454,1.8022080730779644,-1.4457197255515,1.982428880385761,-0.8692646701281892,1.261545651154575,-1.4824929497027668
0.455,1.8024429176918,4.2584057477159,1.9826872094609802,5.52963256176021,1.26171004238426,2.579629463655568
0.456,1.802952964942829,7.941473091247484,1.983248261437112,9.35398608300018,1.2620670754599803,5.20789620159605
0.457,1.80373615623495,7.06872129680338,1.9841097718584453,8.178790416796065,1.262615309364465,4.428942256940405
0.458,1.8047903938619356,4.264335319658406,1.9852694332481293,4.819627198637352,1.2633532757033548,2.2818797820022576
0.459,1.8061135412704337,2.3118892895287697,1.9867248953974772,2.406000788778716,1.2642794788893035,0.9547052920146873
0.46,1.8077034233271956,1.374294948453842,1.9884737656599154,1.2101804039020596,1.2653923963290368,0.24315702046763876
0.461,1.8095578265904706,-0.590961224394519,1.990513609249518,-0.8019293751776897,1.2666904786133293,-0.9111942334684012
0.462,1.8116744995855782,-2.497829818755849,1.9928419495441363,-3.423755216488214,1.2681721497099048,-2.2429011506644976
0.463,1.814051153084601,-1.8515667694981495,1.9954562683930614,-2.5085701002911494,1.2698358071592206,-1.4685558063311832
0.464,1.816685460390171,2.7126714998631036,1.9983540064291883,2.580808213340227,1.2716798222731196,1.7089867965144876
0.465,1.8195750576233425,7.187237801836341,2.001532563385677,7.422184402962641,1.2737025403363396,4.878880973253023
0.466,1.8227175440154886,7.326956156184936,2.0049892984170374,7.563388227559193,1.275902280810842,4.8145517300383895
0.467,1.826110482204212,3.6196958613307575,2.0087215304246335,3.502800858335994,1.2782773375429484,2.1578379008746804
0.468,1.8297513985332339,-0.10227529568804883,2.0127265383865574,-0.41951368536476186,1.2808259789732637,-0.4002996986203642
0.469,1.833637783356227,-1.2101327467046628,2.01700156169185,-1.8718057366626677,1.2835464483493588,-1.3753944732397125
0.47,1.837767091344562,-2.0037975790005715,2.0215438004790185,-2.609756881867565,1.2864369639411934,-1.824981389764793
0.471,1.842136741798937,-2.492461682821086,2.026350415978831,-3.7666829338762104,1.2894957192592558,-2.525070260611661
0.472,1.846744118964848,-1.9507935630844386,2.031418530861333,-3.1661466166448764,1.2927208832753934,-2.253716717248166
0.473,1.851586572351887,1.6338140433895934,2.036745229587076,1.1566255954191842,1.2961106006463208,0.3086319577155522
0.474,1.8566614170568054,7.0375026108010745,2.0423275587624863,6.958216372904435,1.2996629919397638,4.145094729191468
0.475,1.8619659340903398,9.53844719868537,2.048162527499374,10.185029870761095,1.3033761538632378,5.624873006261056
0.476,1.867497370707739,6.799875804339697,2.054247107778513,7.611920609340713,1.307248159495417,4.272195245385818
0.477,1.8732529407429737,2.357871236375686,2.060578234817271,2.385689539965065,1.3112770585200815,0.9386450061383383
0.478,1.8792298249465933,-0.378737130816432,2.0671528074412526,-1.0211589843492739,1.3154608774626153,-1.1643221628612967
0.479,1.8854251713271757,-0.8159066927239103,2.073967688459893,-1.0999699469771762,1.319797619929023,-1.462298076026654
0.48,1.8918360954963678,-0.40838194615508705,2.0810197050460046,-1.1462679079040592,1.3242852668474574,-1.3256129805061407
0.481,1.8984596810174428,-0.4635576892066915,2.0883056491191874,-1.389026170511638,1.32892177671221,-1.4796473864310373
0.482,1.9052929797573674,1.0999628798884025,2.095822277733104,0.17172553543984193,1.3337050858301571,-0.35320533607744065
0.483,1.9123330122423248,5.111844778256822,2.1035663134665574,4.187223465189223,1.3386331085696273,2.3631882646284965
0.484,1.9195767680166638,8.133186505062572,2.1115344448183304,7.538437746077827,1.3437037376116645,4.60765517869848
0.485,1.9270212060052332,6.952600712165986,2.1197233266057567,6.07818150791038,1.3489148442036631,3.75004291628176
0.486,1.9346632548790637,2.0412374960853232,2.12812958036697,0.4761599758055738,1.3542642784153445,0.3663076111253373
0.487,1.9424998134243556,-2.4317844660458334,2.1367497947667915,-4.282087640003242,1.359749869397049,-2.353115142568578
0.488,1.9505277509147518,-3.1634471114462697,2.1455805260062273,-4.493926878553683,1.3653694256403262,-2.8361130112293074
0.489,1.9587439074868187,-1.6382321142001137,2.154618298235501,-2.451750666472932,1.371120735240773,-1.7907457735472707
0.49,1.967145094518746,0.08271329615877665,2.163859603970621,-0.8304365417442097,1.377001566163122,-0.5904068615923257
0.491,1.9757280950121707,1.1929796669239296,2.173300904513388,0.4330638713266296,1.3830096665085194,0.5108250397430035
0.492,1.9844896639771443,4.331278295361628,2.182938630374859,4.014117674421247,1.389142764784001,2.6726924298032477
0.493,1.9934265288201418,8.355436017674654,2.192769181702156,8.617476622259904,1.3953985701740992,5.357605459535817
0.494,2.0025353897351255,8.882934064292995,2.2027889287086384,9.90246463454798,1.4017747728145877,5.866845168215761
0.495,2.0118129200975825,5.04773171357045,2.212994212107341,5.626322185262565,1.4082690440683077,3.394524742473607
0.496,2.0212557668615254,-0.11011214414814585,2.223381343547678,-0.24552676315372501,1.4148790368030677,-0.24183695110884407
0.497,2.0308605509593827,-2.638047317525609,2.233946606055321,-3.1790159466417185,1.4216023856715678,-1.9102701280619157
0.498,2.0406238677047766,-1.2763921176689776,2.2446862544752544,-1.6279369539620352,1.4284367073933435,-1.01852815740691
0.499,2.0505422871980974,0.9065862606791772,2.255596515917907,0.9944575175862291,1.4353796010386681,0.3046582596397662
0.5,2.0606123547348876,1.852338414445511,2.2666735902083763,2.3544345967666334,1.4424286483144213,1.2402719881341555
0.501,2.0708305912169314,2.9342148899210545,2.2779136503386246,3.8537695888455943,1.449581413851852,2.0674251574322176
0.502,2.0811934935660705,5.070400666799028,2.2893128429226777,6.427128077300697,1.4568354454962493,3.787276931600635
0.503,2.0916975351406473,6.14641884060852,2.3008672886547124,7.5048167213698145,1.464188274598453,4.531853922556909
0.504,2.1023391661545654,4.072240461495483,2.312573082770022,4.746325714429919,1.4716374163081958,2.831442108238032
0.505,2.1131148140989167,-1.2004136209738285,2.3244262955088084,-0.9597580070998002,1.4791803698692416,-0.9540587680045083
0.506,2.1240208841661135,-5.095229896181755,2.336422972582725,-5.555008336691797,1.4868146189162794,-3.8782961271132153
0.507,2.1350537596765173,-4.352081027592337,2.348559135644169,-4.623028452630484,1.4945376317735621,-3.4718700059353633
0.508,2.146209802507475,-0.633743421767277,2.3608307827582227,-0.5499264665650543,1.5023468617552325,-0.7305451360155641
0.509,2.1574853535247573,2.338853776350369,2.373233888877233,2.59817128108556,1.5102397474673301,1.8469887176439936
0.51,2.1688767330163254,3.7713252826147246,2.3857644063179584,4.463575864231306,1.5182137131114277,3.0628237959521334
0.511,2.180380241128406,5.115985929138711,2.398418265241247,5.938496410059196,1.5262661687898842,3.833431419953849
0.512,2.191992158303792,6.987499857295414,2.4111913741341713,8.277626214733761,1.5343945108126542,5.046328313924435
0.513,2.203708745722372,6.0196715371014005,2.4240796202946093,7.5162455885102535,1.5425961220056603,4.513779249401801
