time,gyro_x,gyro_y,gyro_z,setpoint_roll,setpoint_pitch,setpoint_yaw,throttle
0.0,0.0027998470094441775,0.17235887242381698,0.18224138195477907,0.0,0.1783068598768347,0.1932653061713073,0.3750168267920075
0.001,0.0142741077249233,0.1947751048862683,0.19777102809541375,0.006785695469794662,0.18244377717738547,0.19448798360832317,0.3720584281095602
0.002,0.01551054367740178,0.1997314018236993,0.18738369305394653,0.013570522990037852,0.18656756783340503,0.1957051136472884,0.39852396506231386
0.003,-0.003292619134317387,0.14991549820225222,0.14767428749097827,0.020353614722196406,0.19067793514234255,0.19691666157189464,0.36534097777569335
0.004,-0.0033654746801954055,0.1326083924289625,0.16869485273964313,0.027134103049759564,0.19477458336744344,0.19812259282505268,0.3854238002008689
0.005,0.0004329273962254193,0.19139537219624816,0.17661801769574534,0.033911120689214716,0.19885721775902732,0.1993228730098782,0.38503688596981017
0.006,-0.048569783736608634,0.10330346978686546,0.16982112563915325,0.040683800800980455,0.20292554457569478,0.2005174678906727,0.38540147603493446
0.007,0.051517177314524425,0.2171066765032712,0.21124770270801377,0.047451277100282956,0.20697927110546196,0.20170634339390028,0.3941012089851568
0.008,0.001888333779232765,0.15748252227856396,0.1631487247787459,0.05421268396796135,0.21101810568682092,0.20288946560915913,0.3818321336174565
0.009,0.05808561913568647,0.21279658340380117,0.1989482450146149,0.060967156561187896,0.21504175772972411,0.2040668007901491,0.39427516016974706
0.01,0.0656122803158639,0.19031432518887953,0.16912472181056606,0.067713830924089,0.2190499377364923,0.20523831535563422,0.41042778791434376
0.011,0.0286152403831452,0.1443128451773891,0.15237495301530116,0.07445184409825262,0.22304235732264358,0.2064039758904003,0.38492879123764473
0.012,0.034268256060481235,0.18156675512733828,0.17042242056719123,0.08118033423310818,0.22701872923764224,0.20756374914620826,0.3625296238285272
0.013,0.023056741990727696,0.193961130011574,0.16625709543948824,0.08789844069616477,0.23097876738556622,0.20871760204274242,0.3853608095767617
0.014,0.04241639970141271,0.18009837091723385,0.17267685013205541,0.09460530418309357,0.2349221868456914,0.20986550166855403,0.3843402922137635
0.015,0.09782662034003099,0.23346146267986273,0.19658858470938576,0.10130006682764033,0.23884870389299154,0.2110074152819999,0.3922114513595349
0.016,0.051937526793871744,0.1795252864356065,0.18994213445762714,0.10798187231135387,0.24275803601855162,0.21214331031217656,0.36361630401612555
0.017,0.15022512226403908,0.2696462246309718,0.21039433091579424,0.11464986597311683,0.24664990194989436,0.2132731543598491,0.3915969455864327
0.018,0.10119766908949068,0.1911092453702958,0.1633057848119519,0.12130319491846409,0.2505240216712175,0.21439691519837514,0.3828036806383469
0.019,0.11443793217292039,0.24772979865483252,0.17640425705750137,0.12794100812867554,0.2543801164435405,0.2155145607746245,0.39765138504901415
0.02,0.08413109057923958,0.19285463202929298,0.16665409367258313,0.1345624565696287,0.25821790882475965,0.216626059209893,0.38195482143416354
0.021,0.034084555166300816,0.17543367948342356,0.18936655950831277,0.14116669330039763,0.26203712268960955,0.21773137880081186,0.3987497957889487
0.022,0.11037996826167337,0.21310739513226537,0.20159603784156488,0.14775287358158398,0.26583748324953044,0.21883048802025215,0.37036288788910315
0.023,0.08979454621184804,0.22125054372762684,0.2084026649507279,0.15432015498336663,0.2696187170724385,0.21992335551822387,0.3888626366095958
0.024,0.10369735412366887,0.25388182403101744,0.2051457763187065,0.16086769749325572,0.2733805521023993,0.2210099501227702,0.3771448451202632
0.025,0.14709544819074316,0.31444871383787076,0.19628303132950586,0.16739466362353755,0.2771227176792018,0.22209024084085657,0.3831069971321218
0.026,0.11824096559032325,0.23526542426507227,0.18253413205483848,0.1739002185183966,0.2808449445578323,0.22316419685925482,0.42176288324148725
0.027,0.19058313313556124,0.2585190272227604,0.1878342093127142,0.1803835300607009,0.2845469649278461,0.22423178754542192,0.3778844657755525
0.028,0.13323246453946352,0.208097700184869,0.18472053319742096,0.1868437689784369,0.28822851243263614,0.22529298244837379,0.38496557291053707
0.029,0.1357294613338902,0.20603925225530587,0.1927445760919399,0.19328010895078082,0.2918893221885974,0.22634775129955387,0.37586919721288486
0.03,0.16491817941421041,0.29108366022325305,0.20451754204840905,0.19969172671379196,0.295529130804185,0.22739606401369641,0.3860674881107146
0.031,0.13582616899373673,0.2814178927911055,0.1947932726894111,0.20607780216571572,0.29914767639886425,0.22843789068968462,0.3881092014727562
0.032,0.2104062854158356,0.32714781750668787,0.21192329484653544,0.2124375184718814,0.30274469862195375,0.22947320161140367,0.3812511222324397
0.033,0.15944856221646975,0.2893871235725923,0.19511532899343895,0.21877006216918268,0.3063199386713566,0.23050196724858799,0.4091395974096302
0.034,0.1948774720361263,0.2832156154290643,0.2181205712147715,0.2250746232701266,0.3098731393121811,0.23152415825766384,0.4042424169949655
0.035,0.19469062448795071,0.29643675487769106,0.21322841718822821,0.23135039536643792,0.313404044895249,0.23253974548258619,0.3791758261586946
0.036,0.1421749226829628,0.23308209536202168,0.18233934470581736,0.23759657573220588,0.3169124013754882,0.23354869995567032,0.4004951200619444
0.037,0.20542141244268097,0.3085231737833897,0.19924695053606886,0.24381236542655987,0.32039795633021234,0.23455099289841808,0.38509061505595493
0.038,0.1350571291027895,0.24383523735633572,0.20441639648721852,0.24999696939586072,0.3238604589772811,0.23554659572233871,0.3762569678632703
0.039,0.17468394505946722,0.2786793245038581,0.2219381900465428,0.2561495965753951,0.3272996601931447,0.23653548002976438,0.38255142680534365
0.04,0.24650086739233246,0.3425331307747625,0.24189454785501624,0.26226945999055973,0.33071531253076747,0.23751761761466006,0.37625103200800614
0.041,0.22771882416351197,0.28960281908143776,0.20386932798983093,0.26835577685752204,0.33410717023743164,0.23849298046342798,0.40277377149713073
0.042,0.3011898243358051,0.27553140090048156,0.22370137372320315,0.27440776868334515,0.3374749892724189,0.23946154075570703,0.3811196477626324
0.043,0.24517883331268492,0.30661383793335967,0.21399112862559233,0.28042466136556393,0.34081852732456913,0.2404232708651657,0.4072507835886682
0.044,0.25445607753629745,0.2457894646319023,0.20012121156416998,0.2864056852911996,0.34413754382971434,0.24137814336029068,0.3936404318785742
0.045,0.2216639515461987,0.31471405077080544,0.19508633034535594,0.29235007543519936,0.34743179998798657,0.24232613100516884,0.38726379134768574
0.046,0.21351121572590345,0.22799632443915224,0.19276940813844562,0.2982570714582905,0.35070105878100016,0.24326720676026434,0.3862382203337958
0.047,0.25315006904372667,0.3181301424960363,0.24476382621299766,0.30412591780423376,0.353945084988904,0.24420134378318967,0.4134517497839808
0.048,0.31918848500157154,0.3260884502895282,0.23995197914822358,0.3099558637964663,0.35716364520730626,0.24512851542947142,0.392700330106063
0.049,0.2701388403977099,0.342963896253968,0.21330669093898905,0.31574616373411873,0.36035650786406714,0.24604869525331038,0.38668117393186663
0.05,0.298694220018875,0.36684703767030724,0.23759344930513435,0.32149607698739796,0.36352344323596003,0.24696185700833562,0.4031310501761902
0.051,0.24944619478358684,0.33803466115868525,0.21711910719796246,0.327204868092319,0.3666642234652005,0.24786797464835308,0.40007281143045403
0.052,0.32857008691988543,0.3869699926301444,0.23458257640284746,0.3328718068447784,0.3697786225758397,0.24876702232808878,0.3813455692307386
0.053,0.22869899885815548,0.3084380774776954,0.1808185832485406,0.3384961683939525,0.37286641649002406,0.2496589744039259,0.39342203925383123
0.054,0.25644709190665416,0.2675461334962363,0.1967703846485481,0.3440772333350133,0.37592738304411616,0.250543805434636,0.37181113857862214
0.055,0.28022491452103354,0.35445195922378453,0.23199311758659227,0.3496142878011457,0.3789613020046805,0.2514214901821049,0.3932703488368972
0.056,0.3489856879647851,0.39637715234367404,0.22905096254075805,0.3551066235548577,0.38196795508432807,0.2522920036120525,0.397598496370662
0.057,0.32112470485838335,0.36823214544486765,0.2497614237441187,0.3605535380785704,0.3849471259574226,0.2531553208947469,0.3993586597138349
0.058,0.35791087150695733,0.36161799196562744,0.24492550309248826,0.36595433466447547,0.38789860027564443,0.25401141740571237,0.3821468266441791
0.059,0.3225564100610535,0.33301765335303796,0.2250686282691131,0.3713083225036507,0.390822165683413,0.2548602687264321,0.38543402020226153
0.06,0.37932567873321504,0.3976599236361259,0.247192923802586,0.37661481677442027,0.39371761183316567,0.2557018506450443,0.3974214674514839
0.061,0.2818525622415818,0.26762454621409176,0.18128027847240183,0.3818731387299493,0.3965847304004917,0.2565361391570331,0.40961459505720366
0.062,0.3491246285360591,0.3317971826165019,0.20663120877673952,0.3870826157850616,0.39942331509912116,0.25736311046591315,0.39586960213530237
0.063,0.3002891439196432,0.3555384241162864,0.22843597299162874,0.3922425816022693,0.40223316169576695,0.2581827409839082,0.38822352292392587
0.064,0.38505536358947773,0.4231784426452288,0.2480678170267404,0.39735237617700286,0.40501406802481943,0.25899500733262415,0.40671943518656317
0.065,0.4097227456035227,0.4020226852275711,0.2447811270196643,0.402411345922032,0.4077658340028916,0.25979988634371565,0.39678173521806764
0.066,0.37540356679312775,0.3596003002124632,0.22187715615025105,0.4074188437510644,0.4104882616432153,0.2605973550595471,0.39753331417760585
0.067,0.3733027967463132,0.3705811492572226,0.2391077274899858,0.4123742291615143,0.41318115506988584,0.2613873907338475,0.40511688147217706
0.068,0.37721707695321516,0.3768919432232007,0.242747600764005,0.41727686831642813,0.4158443205319554,0.262169970832359,0.39454444549687284
0.069,0.35726612638335126,0.33026148512840603,0.18769194780732465,0.4221261341255579,0.4184775664173728,0.2629450730334798,0.38465469843252204
0.07,0.3554765751237394,0.38438509065007576,0.22314181523195994,0.4269214063255712,0.42108070326677016,0.263712675228901,0.39415646781965885
0.071,0.3637166992719618,0.38299506634528085,0.22651198942041706,0.43166207155938857,0.42365354378709424,0.2644727555242368,0.40951277593033064
0.072,0.4385871764134015,0.4334917543254098,0.27785038032814385,0.43634752345463745,0.42619590286508174,0.2652252922396495,0.4190348062883347
0.073,0.40817522122740846,0.43004708226532024,0.23651457743414595,0.4409771627012117,0.4287075975805783,0.26597026391046735,0.3818534309033233
0.074,0.41760621310360324,0.39703423910512226,0.22173673341993247,0.4455503971279292,0.43118844721969934,0.2667076492877971,0.4162807875113418
0.075,0.434843286536883,0.375612196474039,0.2302548235635943,0.45006664177827566,0.43363827328783205,0.26743742733913023,0.39238640118753715
0.076,0.38270814985103696,0.37604452495078433,0.21403916653915603,0.4545253189852255,0.4360568995224782,0.26815957724894235,0.3971901667232159
0.077,0.4486680435640993,0.3894696930342447,0.2319086024917322,0.45892585844513056,0.43844415190593594,0.2688740784192873,0.4174984844316154
0.078,0.3868301454934019,0.3604537006485872,0.2236378916709597,0.46326769729066675,0.4407998586778199,0.2695809104703849,0.3923389398252611
0.079,0.3757839224529952,0.39211579731897744,0.22586916346544025,0.46755028016282996,0.44312385034741975,0.2702800532412015,0.3941179124207416
0.08,0.4929388528402697,0.501969685708455,0.2658986372083573,0.4717730592819713,0.4454159597058945,0.27097148679002575,0.38985246160643694
0.081,0.4675066592993202,0.43856705009349994,0.2543704305413859,0.47593549451786243,0.4476760218383028,0.2716551913950371,0.3981755987882129
0.082,0.49980390785464596,0.4368545486308874,0.2578572893662092,0.48003705345878334,0.44990387413546895,0.27233114755486815,0.4016174191749532
0.083,0.4483573253354698,0.41038048008100636,0.22620645573610482,0.48407721147962257,0.45209935630568215,0.27299933598916143,0.3897864937428827
0.084,0.40757720412143306,0.427554672746861,0.2241564283955296,0.48805545180898097,0.4542623103862295,0.2736597376391187,0.4155907914942848
0.085,0.45526057762818256,0.4142219512614088,0.2511655535711046,0.4919712655952713,0.45639258075476075,0.274312333668045,0.3893735590783937
0.086,0.3635965506252927,0.3725456632119495,0.21149937088487655,0.4958241519718052,0.45849001414048574,0.27495710546188584,0.404477232325558
0.087,0.4429363516625876,0.40842255057095156,0.24661891633184127,0.4996136181208578,0.4605544596352021,0.2755940346297579,0.39896995070554153
0.088,0.48016848191913225,0.4224872228277155,0.2477069914826867,0.5033391793367038,0.4625857687041524,0.2762231030044739,0.4137309666322557
0.089,0.5029193321885176,0.4647656356671355,0.2719434278656473,0.5070003590876154,0.46458379519671167,0.27684429264306076,0.38931397042651283
0.09,0.527229766202712,0.4256292965782214,0.25536034039776545,0.510596689076815,0.4665483953569021,0.27745758582727104,0.4059863398231511
0.091,0.42886964920635856,0.4009335642190474,0.24330252964836596,0.5141277093023743,0.46847942783373725,0.2780629650640888,0.42832366372737557
0.092,0.4711487451257903,0.442751867707724,0.2399635352025831,0.5175929681160526,0.4703767536913906,0.27866041308622824,0.3821260405332986
0.093,0.49277551864466723,0.4159150358421528,0.2651616732920301,0.5209920222810663,0.4722402364191934,0.27924991285262624,0.3887730455991854
0.094,0.3770587681981738,0.40474439647217336,0.21639887072462335,0.5243244370287835,0.4740697419414551,0.2798314475489285,0.42474237219800914
0.095,0.511422578351578,0.42408890311473013,0.2577023849679424,0.5275897861143337,0.47586513862711116,0.28040500058796936,0.3982792885275016
0.096,0.5160517886485734,0.4463906288017656,0.2415050054772537,0.530787651871129,0.47762629729919265,0.2809705556102443,0.40140692314809806
0.097,0.5744484027364688,0.4788882181293609,0.3022196316508668,0.5339176252642865,0.47935309124412145,0.2815280964843772,0.39621110813103916
0.098,0.5109199282462268,0.4373703298935944,0.24359703333327337,0.5369793059429488,0.48104539622082637,0.28207760730758025,0.4202029354797264
0.099,0.5100473103722869,0.4470501910507453,0.2574913868827268,0.5399723022914908,0.4827030904696825,0.2826190724061071,0.38114393995795803
0.1,0.5026577661535159,0.42941015722343734,0.23836933347062242,0.5428962314796117,0.4843260547212719,0.2831524763357008,0.4155058743904515
0.101,0.5087676249556347,0.4165609869854535,0.22787587412327573,0.5457507195113019,0.4859141722049642,0.2836778038820336,0.3830856823630606
0.102,0.4752976446590833,0.3976078704338753,0.25281788748271233,0.5485354012726805,0.487467328657319,0.28419504006114116,0.3821666421119563
0.103,0.5301465927291674,0.48243270331439025,0.25365888182960494,0.551249920578697,0.4889854123303065,0.2847041701198499,0.3880805665244479
0.104,0.514227312022432,0.42859135352535127,0.2541920103234222,0.5538939302186895,0.4904683139993478,0.285205179536198,0.3997443578944435
0.105,0.6117633584171374,0.49471012765955097,0.2887415181564446,0.5564670920007967,0.49191592697117337,0.28569805401984927,0.3928606957844583
0.106,0.5308304947884792,0.4401061004768905,0.2503386438250389,0.5589690767952155,0.4933281470914996,0.286182779512501,0.39230311804152035
0.107,0.5723534722429997,0.47413892644566896,0.2787024535446526,0.5613995645762992,0.4947048727525228,0.2866593421882848,0.3906095746876451
0.108,0.5025924874282701,0.4382861218499669,0.23372583304531538,0.5637582444634921,0.4960460049002293,0.2871277284541611,0.39097110068888985
0.109,0.5056143124070465,0.4276874509463739,0.24647370111012698,0.5660448147610933,0.4973514470415229,0.28758792495030694,0.39085441470062565
0.11,0.5281105494821359,0.4441249417705494,0.25200197517999434,0.5682589829968466,0.4986211052511668,0.28803991855049654,0.4050207483963957
0.111,0.5000338525558039,0.45144440948856634,0.2611784861839116,0.5704004659593499,0.49985488817854207,0.28848369636247634,0.39472538684121733
0.112,0.5630417420465513,0.5070462991461863,0.2718359341555675,0.5724689897342811,0.5010527070542197,0.28891924572833233,0.3705276555077378
0.113,0.5720141378155916,0.4889007303491152,0.2698063413173143,0.574464289739433,0.5022144756963476,0.2893465542248513,0.40221627054503556
0.114,0.5252496012284311,0.43837798415365276,0.26962652807604265,0.5763861107585568,0.5033401105168517,0.2897656096638748,0.4118104950007132
0.115,0.5983050255423709,0.48999809996871946,0.26966641756124216,0.5782342069740058,0.5044295305274494,0.29017640009264756,0.39962535614792466
0.116,0.48218009641369747,0.4406481691143209,0.23293233688699405,0.5800083419981777,0.5054826573454771,0.2905789137941574,0.38799525806401947
0.117,0.5410508005876092,0.4707143869969636,0.24284244330908086,0.581708288903751,0.5064994151995297,0.2909731392874704,0.4122186899780937
0.118,0.5187033383503146,0.42918183267485993,0.2596051776615517,0.5833338302527105,0.5074797309349116,0.2913590653280576,0.3869612813276647
0.119,0.5325139316015496,0.46490675476244264,0.2572207656286884,0.5848847581241597,0.5084235340189011,0.29173668090811644,0.39973114974429
0.12,0.60147709292167,0.5151501895658138,0.2872173107059622,0.5863608741409161,0.5093307565458244,0.2921059752568839,0.40347636431010886
0.121,0.5375717564731273,0.4826117600528433,0.2688537798623815,0.5877619894948845,0.5102013332419421,0.29246693784094463,0.41684193642096945
0.122,0.6165672296005253,0.518093754571693,0.28623684027946816,0.5890879249712079,0.5110352014701446,0.29281955836453066,0.41097818246121315
0.123,0.5584145312606978,0.474847993592309,0.27267617645496706,0.5903385109711906,0.5118323012344594,0.2931638267698154,0.40705985227066166
0.124,0.5581348519885071,0.46966518546628555,0.23181719090644468,0.5915135875339912,0.5125925751843682,0.29349973323720063,0.415519004225206
0.125,0.5743983815336845,0.48255076693740495,0.24833022035171384,0.5926130043570826,0.5133159686189318,0.29382726818559624,0.39060900011305805
0.126,0.483111901109193,0.41655886172654,0.2419191094923907,0.5936366208154776,0.5140024294907273,0.2941464222726938,0.4236178132475233
0.127,0.5567553335980484,0.4796854517576803,0.2770485103033736,0.5945843059797161,0.5146519084095917,0.2944571863952328,0.36803080083169076
0.128,0.5917827264646739,0.5564041264372378,0.26182047034239964,0.5954559386326114,0.5152643586461765,0.29475955168926066,0.42209750025147463
0.129,0.5666299251185092,0.4833504409759785,0.2533056246318227,0.5962514072847557,0.5158397361353088,0.2950535095303852,0.3950221727734803
0.13,0.606118618007298,0.5576512820347367,0.2977818083776276,0.5969706101887801,0.5163779994791624,0.29533905153402074,0.4098323352428361
0.131,0.5292073226321908,0.46997206797192,0.2625606121692848,0.5976134553523691,0.5168791099502363,0.2956161695556273,0.42280463178492167
0.132,0.6029780475084816,0.5126196359863691,0.258823863188215,0.5981798605500276,0.517343031494141,0.295884855690943,0.4123072424526234
0.133,0.5122329203602713,0.392875358184193,0.2263786085132111,0.5986697533335973,0.5177697307321923,0.2961451022762092,0.4101977194709931
0.134,0.5316681874225302,0.43494576283214387,0.2507059267862586,0.5990830710415246,0.5181591769638133,0.2963969018883895,0.41627736681047983
0.135,0.5832765666521521,0.5105514617084365,0.2777182509328248,0.5994197608068748,0.518511342168743,0.2966402473453811,0.3882748505173667
0.136,0.5762016949051381,0.501717327219337,0.27979351297134614,0.5996797795640945,0.5188262010090525,0.29687513170621993,0.3902274111360194
0.137,0.595131232132546,0.5000351711535527,0.26657629115683146,0.5998630940545199,0.519103730830968,0.2971015482712785,0.40959564785850194
0.138,0.5845267618784517,0.5168744355730254,0.2680268009201782,0.5999696808306311,0.5193439116665003,0.29731949058245694,0.40412061095717094
0.139,0.5642155654779625,0.4739344594156615,0.24674970653635847,0.5999995262590511,0.5195467262348825,0.2975289524233673,0.4028906802823486
0.14,0.6022711791138768,0.5192748989333803,0.2851884030051278,0.5999526265222896,0.5197121599438121,0.29772992781951096,0.42165524524543097
0.141,0.49043255249145723,0.44059795179258676,0.2264097990306052,0.5998289876192316,0.5198402008905019,0.2979224110384488,0.4207670124594038
0.142,0.5651351682465695,0.5025691410947764,0.26842258116028994,0.5996286253643694,0.5199308398625355,0.2981063965899648,0.3960527654284733
0.143,0.5896859579576937,0.47718637698607325,0.2797919050942865,0.5993515653857808,0.5199840703385311,0.29828187922622273,0.41256292519548704
0.144,0.6222346137838508,0.5609345565200734,0.3033647649989672,0.5989978431218499,0.51999988848861,0.2984488539419158,0.3886342774890637
0.145,0.5982905577544233,0.4980415742004037,0.2754315627916419,0.5985675038167351,0.5199782931746723,0.2986073159744093,0.38849783685088496
0.146,0.5583659521080196,0.48159655030599796,0.2474825110398164,0.5980606025145816,0.5199192859504789,0.2987572608038766,0.3969963085789757
0.147,0.610248332978495,0.5125803258016515,0.29151205656447865,0.597477204052481,0.5198228710615397,0.298898684153428,0.4072269205685553
0.148,0.5625041119929606,0.48273180719349656,0.2737917410109043,0.5968173830521776,0.519689055444808,0.2990315819892327,0.4001779277400097
0.149,0.5656645322393521,0.4476182685663004,0.2344577345575098,0.5960812239105241,0.5195178487281817,0.299155950520634,0.4135811990559868
0.15,0.5166225861407404,0.4447227842766653,0.24819831986694194,0.5952688207886867,0.5193092632298102,0.2992717862002571,0.40813457734031094
0.151,0.5423927983501419,0.474718753221557,0.2939115102444313,0.5943802776001001,0.5190633139572082,0.29937908572411065,0.42183953530267954
0.152,0.6489059258226406,0.527770632984874,0.3046458862457074,0.5934157079971771,0.5187800186061763,0.2994778460316808,0.4151699764627323
0.153,0.6021881761319382,0.49697760019775156,0.262731065566156,0.5923752353567712,0.5184593975595272,0.2995680643060185,0.396311749039231
0.154,0.5890862169687333,0.4886557959993307,0.2558846458671301,0.5912589927643949,0.5181014738856199,0.29964973797382,0.4197333531249969
0.155,0.5928369110684111,0.5121402065103471,0.2773256382290435,0.5900671229971978,0.517706273336699,0.29972286470549986,0.39873410803500897
0.156,0.561376159319524,0.4381067589681053,0.25204778662332916,0.5887997785057041,0.5172738243470433,0.29978744241525784,0.41416683686042854
0.157,0.5709253175264081,0.5017674797681207,0.27228372738010476,0.5874571213943123,0.516804158030918,0.29984346926113825,0.4034733325082907
0.158,0.4777189871192289,0.4275716719378648,0.258546300870507,0.5860393234005609,0.5162973081803379,0.2998909436450823,0.4254213035887757
0.159,0.5695304375933793,0.5129026912182981,0.27580613793513753,0.5845465658731619,0.5157533112626351,0.29992986421297396,0.41845805407465086
0.16,0.624290603515554,0.5336548306517513,0.29071509971442877,0.5829790397488044,0.5151722064178357,0.29996022985467846,0.40152382804592385
0.161,0.5970028999883128,0.5094195283034214,0.2769528060909066,0.5813369455277321,0.514554035455843,0.2999820397040738,0.4053544967788674
0.162,0.5923176721011724,0.4516588621980554,0.24947971744651462,0.5796204932480982,0.5138988428534301,0.29999529313907575,0.4493697640684667
0.163,0.5474703116721973,0.45196291592543825,0.26049770587399557,0.5778299024590987,0.5132066757510398,0.29999998978165543,0.3951578709542147
0.164,0.5621264765197129,0.5079041080487139,0.274974947955025,0.575965402192891,0.5124775839493921,0.2999961294978501,0.4018015833987308
0.165,0.5419069771850279,0.4971043877377247,0.2579781476059383,0.5740272309352983,0.511711619905902,0.29998371239776694,0.4025395226181801
0.166,0.47271443854633616,0.4052721740916866,0.2360775296195686,0.5720156365953051,0.5109088387309045,0.29996273883557995,0.3968356593084455
0.167,0.5854297187051332,0.5350396637607513,0.29772141193064033,0.5699308764733476,0.5100692981836904,0.29993320940951995,0.39824768953031375
0.168,0.5422768602602697,0.49744184470528946,0.2815823922293804,0.5677732172284031,0.5091930586683496,0.2998951249618575,0.40974098035701795
0.169,0.606577173014901,0.5599319069995209,0.32177364319669677,0.5655429348438814,0.5082801832294255,0.2998484865788785,0.4169143388881805
0.17,0.5713832445110406,0.47683864574805984,0.25673791028727616,0.5632403145923244,0.507330737547379,0.2997932955908538,0.3922291304417191
0.171,0.5408272742632395,0.45159112067222407,0.2585832819501419,0.5608656509989173,0.5063447899338631,0.2997295535720009,0.4054804674605908
0.172,0.5672208055556336,0.46999924313707725,0.2690050633978011,0.5584192478038159,0.5053224113268076,0.29965726234043893,0.40200072354898336
0.173,0.48407526555116376,0.44104450711098464,0.25702223106817923,0.5559014179232964,0.5042636752853149,0.2995764239581372,0.3977535197801557
0.174,0.5261735322487943,0.4362017972576065,0.2557461131453078,0.5533124834097296,0.5031686579843686,0.29948704073085614,0.4238995061502102
0.175,0.539148728206385,0.5020581895436182,0.28579139885582,0.5506527754103887,0.5020374382093516,0.29938911520808137,0.4029205529260069
0.176,0.5573085285502586,0.4729040979997056,0.2721914831239105,0.5479226341250918,0.5008700973503782,0.2992826501829514,0.39581262728046196
0.177,0.5934351775293117,0.5325286670729394,0.302834884479171,0.5451224087626877,0.499666719396438,0.2991676486921775,0.4229636951733118
0.178,0.5294949167160704,0.4878379256443691,0.25188208323282146,0.5422524574963893,0.4984273909293529,0.2990441140159575,0.42756730110337693
0.179,0.5242707379933097,0.4583995555563157,0.2524795402932618,0.5393131474179597,0.4971522011175479,0.2989120496778819,0.41555474226370964
0.18,0.49106229890455017,0.4577250454242832,0.2654421290429759,0.5363048544907583,0.4958412417096352,0.2987714594448335,0.4015630833340031
0.181,0.49695207202855435,0.4155560758956046,0.26679752830064957,0.5332279635016516,0.4944946070278132,0.2986223473268802,0.409671666670968
0.182,0.47576827639302316,0.490756752322424,0.2883180501182317,0.5300828680117955,0.4931123939610799,0.29846471757716003,0.4052934896594393
0.183,0.4746058350587954,0.47512921239604095,0.2693807824417949,0.526869970306296,0.49169470195826226,0.29829857469176047,0.4127114751180996
0.184,0.5796367135076408,0.5039806533615729,0.2866793977847379,0.5235896813427526,0.49024163302086043,0.29812392340958976,0.4220452844746088
0.185,0.5206941179632689,0.46680306654296905,0.2681106250719283,0.5202424206986941,0.4887532916957091,0.29794076871224195,0.4133017701566674
0.186,0.5228713640106434,0.4928528631737078,0.28283183786439864,0.51682861651791,0.48722978506745546,0.2977491158238548,0.4137122589966996
0.187,0.5399950256288458,0.45626689130387943,0.24668368794958467,0.513348705455688,0.48567122275085467,0.2975489702109606,0.40774760868365084
0.188,0.5056877902672652,0.45499777643400746,0.24302258296461277,0.5098031326229618,0.48407771688288287,0.2973403375823306,0.4220329831146113
0.189,0.4788146453412207,0.4200505914255274,0.2853814664566361,0.5061923515293774,0.4824493821146695,0.2971232238888116,0.418623960634513
0.19,0.4986695273587782,0.4726829359225795,0.2821112221352939,0.5025168240252851,0.48078633560324774,0.2968976353231571,0.39229612973907
0.191,0.515545631936982,0.5029182196843611,0.27456132132054395,0.4987770202426651,0.4790886970031258,0.2966635783198496,0.3931263963313471
0.192,0.5491989654896138,0.5179704977204428,0.2715411293237016,0.49497341853499355,0.47735658845767703,0.29642105955491777,0.4106742422323977
0.193,0.4629777657855129,0.42844847631224076,0.2551279604536426,0.49110650541605705,0.4755901345903529,0.296170085945746,0.42645176517660505
0.194,0.5504833322011751,0.4931472989128209,0.29987828074892076,0.4871767754977224,0.47378946249571546,0.29591066465087695,0.4289531278175549
0.195,0.4268094909756182,0.4105704555048658,0.22510211618561995,0.4831847314266732,0.4719547017302938,0.2956428030698071,0.424258342372993
0.196,0.482911633669413,0.451498506897142,0.2591100009226783,0.479130883820115,0.4700859843032623,0.2953665088427763,0.4134444948013325
0.197,0.4327923574326293,0.3925079368334149,0.24374855020018352,0.47501575120046413,0.4681834446669423,0.2950817898505493,0.43298082527372816
0.198,0.43911413594790966,0.4280607068433209,0.26594967471154773,0.4708398599290243,0.4662472197071289,0.2947886542141912,0.40688149812211716
0.199,0.5070909547852611,0.49387922681540947,0.27480489889700066,0.46660374413865907,0.4642774487332422,0.2944871102948359,0.4116085609082451
0.2,0.4678183873434053,0.48486486346704943,0.2666196908227288,0.4623079456654735,0.46227427346830396,0.2941771666934473,0.3987989581793412
0.201,0.46801475292320904,0.48194627228786296,0.25136828981301,0.457953013979507,0.46023783803874063,0.2938588322505744,0.4118554003896178
0.202,0.47120787213337484,0.46976731876433464,0.28203418886947523,0.4535395061144517,0.45816828896401357,0.2935321160460988,0.4058080095715202
0.203,0.4174406555679094,0.38659548620888595,0.24857424914558865,0.44906798659640407,0.45606577514607755,0.29319702739897585,0.43475228176250535
0.204,0.43552296252129125,0.4380444210164194,0.25967727553601616,0.4445390273716554,0.45393044785866726,0.29285357586696886,0.43253895277098087
0.205,0.3602857398085835,0.37718616971353863,0.24212074508549544,0.43995320773353624,0.45176246073641274,0.29250177124637633,0.41735536091099124
0.206,0.3940077064437342,0.4631518733296007,0.284877292176309,0.43531111424831875,0.4495619697637863,0.29214162357175283,0.42234835673270144
0.207,0.4711625665817151,0.47323444859363356,0.29183832269370685,0.43061334068019114,0.44732913326387946,0.29177314311562247,0.40964350058268495
0.208,0.4466236718699073,0.41666033971463207,0.25951961038569776,0.4258604879153081,0.4450641118870113,0.29139634038818607,0.386603036550514
0.209,0.47180465269435895,0.46409890287951827,0.27973360787654916,0.42105316388493436,0.4427670685991699,0.2910112261370213,0.40804211688059305
0.21,0.42218761954864015,0.4001003691953012,0.24433290023491863,0.41619198348768316,0.4404381686702879,0.2906178113467762,0.42631602772886534
0.211,0.4329963693192315,0.4393583203284874,0.26849945213303217,0.41127756851086616,0.4380775796623506,0.2902161072388559,0.42274708639653735
0.212,0.3771933977547683,0.371581926061417,0.25870542451928524,0.406310547550962,0.4356854714173404,0.2898061252711023,0.4129330233780114
0.213,0.37230764458013094,0.35484503694565095,0.24795145315752196,0.4012915559332121,0.43326201604501685,0.28938787713746755,0.42666052365010476
0.214,0.3912912307142166,0.4367506528451822,0.29133743305919607,0.39622123563035816,0.43080738791053325,0.2889613747676803,0.41228512992269356
0.215,0.429997306048044,0.4557226571674433,0.28965546869589814,0.3911002351805274,0.4283217636218917,0.2885266303269057,0.4043842166403571
0.216,0.455725171137076,0.4203053481629621,0.2570924555449652,0.3859292096042792,0.4258053220172362,0.288083656215398,0.4271071149081533
0.217,0.4071819487154586,0.4395038571605627,0.2578024096226239,0.38070882032082276,0.4232582441519852,0.2876324650681471,0.4110385464546645
0.218,0.36077666707002537,0.35855747199323246,0.23529807113619586,0.3754397350634147,0.4206807132858051,0.2871730697545184,0.43084808966596216
0.219,0.4026217170852159,0.4327999845816094,0.2940355746403415,0.3701226277939518,0.41807291486942477,0.28670548337788515,0.3947050365415076
0.22,0.3164150449001824,0.348936813394355,0.23547411664210746,0.36475817861676313,0.4154350365312924,0.28622971927525515,0.4119907320336206
0.221,0.36978809919799743,0.40902870708459677,0.24589645826308593,0.3593470736916215,0.4127672680640761,0.2857457910168903,0.42613954182785346
0.222,0.3359839307043835,0.3735845781519904,0.2697297810086704,0.3538900051459753,0.4100698014110086,0.28525371240591924,0.42504791787433843
0.223,0.4296137845971673,0.46827431176656154,0.2977985982113665,0.3483876709864202,0.4073428306520769,0.284753497477944,0.4166158919805984
0.224,0.3980097176279116,0.4134599463858862,0.26916077994632703,0.34284077500941906,0.4045865519900584,0.2842451605006394,0.42286545731223407
0.225,0.308132170932106,0.3937274122457533,0.2479984785758144,0.3372500267112783,0.4018011637364041,0.28372871597334637,0.4212474509254361
0.226,0.3679632189879163,0.42467188558047825,0.2615127753354811,0.3316161411973989,0.39898686629697105,0.2832041786266579,0.40184499046369543
0.227,0.33023921313030835,0.35756461069551154,0.2580527409045929,0.32593983909080704,0.39614386215760256,0.28267156342199956,0.41549780695991295
0.228,0.3190280620079045,0.3658585643164192,0.2454670896957181,0.32022184643998036,0.39327235586956,0.2821308855512021,0.42273772773474805
0.229,0.30957979658807866,0.3600500532918192,0.2415916335044511,0.314462894625981,0.39037255403480536,0.28158216043606843,0.4262313723633131
0.23,0.2885244056232215,0.3473357079877046,0.2512966700081436,0.30866372026890376,0.3874446652911363,0.28102540372793394,0.4195229520556379
0.231,0.38206631017895853,0.44328799073829744,0.2993744679514978,0.30282506513365803,0.38448890029717525,0.28046063130721965,0.41382848979410636
0.232,0.3163496691513552,0.3822344630190337,0.28432752198560934,0.29694767603508804,0.3815054717172126,0.2798878592829796,0.4045855997923278
0.233,0.2938621406181484,0.3593431330958038,0.23521158987026325,0.29103230474244896,0.37849459420590553,0.2793071039924411,0.42978042304335057
0.234,0.30298693689486,0.36674865973208187,0.2531339227534972,0.2850797078832503,0.37545648439283413,0.27871838200053894,0.4286086601103171
0.235,0.2578567340748908,0.32437708129205445,0.23368879277208454,0.2790906468464751,0.3723913608669146,0.2781217100994429,0.43288866839389406
0.236,0.3205788130424617,0.3939435091406868,0.2706933514356249,0.2730658876851924,0.36929944416067273,0.27751710530807866,0.4082487305693322
0.237,0.18661574849731827,0.2919991886126564,0.22401752324094812,0.2670062010185722,0.36618095673437623,0.27690458487164243,0.4228005853021492
0.238,0.3297311658850589,0.4358810101079464,0.2746825278357067,0.26091236193331707,0.3630361229600294,0.2762841662611091,0.41317644685867827
0.239,0.27237375593240937,0.36547991351725834,0.25904675545336353,0.2547851498845208,0.35986516910522903,0.27565586717273377,0.4221881736778576
0.24,0.29935435753246953,0.38568211240450234,0.2544712017261329,0.24862534859597057,0.3566683233168855,0.27501970552754734,0.456657820262248
0.241,0.28269288601568193,0.3564880359631132,0.238990375604405,0.2424337459599005,0.35344581560480776,0.27437569947084495,0.4327686561398376
0.242,0.2412727734250999,0.2981884416172655,0.211458451392274,0.23621113393621407,0.35019787782515366,0.27372386737166865,0.41300422283841853
0.243,0.2515351958385179,0.3624898801865055,0.25846234682723274,0.22995830845118628,0.3469247436637489,0.27306422782228323,0.41918724517420136
0.244,0.25809953585612727,0.3212424266216332,0.2506154835353366,0.22367606929565592,0.343626648619273,0.27239679963764635,0.41802066248056274
0.245,0.18277806739734917,0.29108163823671246,0.24906977883240045,0.21736522002272748,0.3403038299863159,0.27172160185487143,0.4239993367447991
0.246,0.27590562653880935,0.3872586938824284,0.2663962679628887,0.21102656784498783,0.3369565268383045,0.2710386537326849,0.40437181111045056
0.247,0.2196707881294417,0.3477162476339872,0.25244026052349133,0.20466092353125756,0.3335849800103019,0.27034797475087663,0.42669028231230766
0.248,0.2867113723190662,0.36140633886056556,0.2639234226522041,0.1982691013028873,0.3301894320816793,0.2696495846097448,0.39754112663387864
0.249,0.22896103748723345,0.32611075763877684,0.23852675538684162,0.19185191872961002,0.32677012735866223,0.26894350322953353,0.40302658195503377
0.25,0.20022892069648016,0.32265832239740827,0.25114986438229286,0.1854101966249685,0.3233273118567542,0.2682297507498647,0.4472656417318236
0.251,0.1750612814352581,0.31479726513370243,0.23520620798485153,0.17894475894132475,0.31986123328303484,0.26750834752916375,0.41906286092008854
0.252,0.13161335368772972,0.2731182923494358,0.2340026679375234,0.1724564326644698,0.31637214101833855,0.26677931414407896,0.4406533284272449
0.253,0.18804309628661753,0.3348443881702312,0.268997312119048,0.1659460477078459,0.3128602860993115,0.2660426713888943,0.4139627482684584
0.254,0.1742260779008,0.28873344323104,0.23205931698906673,0.1594144368063915,0.30932592120034896,0.26529844027493676,0.398612894715693
0.255,0.199995307182239,0.33496096694266964,0.25241096017705644,0.15286243541002933,0.30576930061541724,0.26454664202997646,0.4113690233077881
0.256,0.18696908495072137,0.3129126781070724,0.25598055142299175,0.1462908815768032,0.30219068023975626,0.26378729809762164,0.4563793345695371
0.257,0.1738317125446759,0.30639749621446793,0.2526612884868051,0.13970061586568394,0.29859031755146875,0.2630204301367067,0.40734124882372413
0.258,0.15076775542369816,0.27756605641102094,0.209878694700223,0.13309248122905526,0.2949684715929949,0.26224606002067474,0.44573329968058556
0.259,0.11628838802304081,0.26168524909832497,0.20925840772042173,0.12646732290489107,0.29132540295247356,0.2614642098369535,0.4287040026557236
0.26,0.0895391781420756,0.2507378237545807,0.23372545946221907,0.11982598830864423,0.28766137374499484,0.26067490188632525,0.42614537149707366
0.261,0.14573514284473607,0.3219619998919736,0.2518485790190668,0.11316932692485288,0.2839766475937402,0.25987815868229086,0.4158700393544608
0.262,0.12227712230574564,0.3020227004880217,0.2530350531511733,0.1064981901984848,0.280271489611015,0.25907400295042754,0.41418444621834233
0.263,0.17218593045858585,0.31365499365820165,0.25620532414574504,0.09981343142603095,0.27654616637917445,0.2582624576277408,0.4319138683061934
0.264,0.10445499919101572,0.28199441737876746,0.23544511124110787,0.09311590564635953,0.2728009459314423,0.25744354586200996,0.44112171781920806
0.265,0.12226436750495126,0.3001383256952011,0.2684687234632769,0.0864064695313513,0.26903609773262743,0.25661729101112823,0.4277915144574154
0.266,0.12457778675600031,0.2196276171816918,0.20048939845560568,0.0796859812763215,0.2652518926597353,0.25578371664243615,0.4344564036211789
0.267,0.08468190555739809,0.2528720657427595,0.21673368613907584,0.07295530049025142,0.26144860298247863,0.25494284653204957,0.42061999802959366
0.268,0.07404877169987263,0.23730783044783976,0.23771863826441356,0.0662152880858351,0.25762650234368856,0.2540947046641814,0.4519495272612794
0.269,0.05993287757502416,0.2590218563344681,0.24542656638066276,0.05946680616936179,0.25378586573962497,0.2532393152304575,0.428880926566798
0.27,0.14315359227580493,0.2903349882178348,0.25300429789054557,0.05271071793044589,0.2499269695001923,0.2523767026292269,0.4505616097583515
0.271,0.05105538925410964,0.23515290207730338,0.21940975032586524,0.04594788753161567,0.246050091269057,0.2515068914648655,0.41472602503334594
0.272,0.10394779696937607,0.2683435794088888,0.20997317622745482,0.03917917999778138,0.24215550998367152,0.25062990654707434,0.425913521227052
0.273,0.043390301654814334,0.23950010848818948,0.24404412773185646,0.032405461105589284,0.23824350585520526,0.24974577289017236,0.4394567280554175
0.274,0.03171017929698465,0.22051873289824442,0.20641923650844166,0.025627597272681994,0.23431436034838346,0.24885451571238235,0.4284480264440511
0.275,0.013718598332780184,0.20863926439987646,0.22541117889503828,0.018846455446876947,0.23036835616123574,0.2479561604351121,0.4331017109723537
0.276,0.009280026758854698,0.20674607757214952,0.20019449474360468,0.012062902995274348,0.22640577720475707,0.24705073268222918,0.4153004742105397
0.277,0.0282823074509391,0.24067641967094497,0.24126167320675307,0.005277807593315524,0.22242690858248018,0.24613825827932978,0.42231278851612025
0.278,0.09356377540941885,0.23994845375354912,0.25989597830845945,-0.0015079628862022286,0.21843203656996266,0.24521876325300246,0.4168196689291633
0.279,-0.018504975742332598,0.2290301991114979,0.21219520263296632,-0.008293540484133305,0.21442144859419,0.24429227383008556,0.4264419828754944
0.28,0.06259147287083272,0.2443454311725083,0.24123738722222302,-0.015078057266002542,0.21039543321289458,0.24335881643691928,0.4253522153372749
0.281,-0.0016919293840849427,0.16506252795644974,0.20841979838398464,-0.02186064543302344,0.20635428009379575,0.24241841769859196,0.42140917220453983
0.282,0.04745447927089117,0.2282489696254672,0.2327394431550505,-0.028640437433094836,0.20229827999375757,0.24147110443818043,0.43549040505285563
0.283,-0.085921149111649,0.13263800171205845,0.18909970908305093,-0.03541656607177123,0.19822772473786876,0.24051690367598497,0.4152646982596261
0.284,-0.04521084581061898,0.17245815615564175,0.21605590493347254,-0.04218816462318192,0.19414290719844748,0.23955584262875879,0.40240093145555456
0.285,-0.0005063850425982459,0.23282632649945242,0.24023767311519645,-0.04895436694089434,0.190044121273968,0.23858794870893163,0.4214767696317598
0.286,0.016794894105006286,0.21987010610268812,0.22538526788117122,-0.055714307568700404,0.18593166186791615,0.23761324952382779,0.45430881308801707
0.287,0.013206795902168937,0.2169374789667236,0.21054823921591012,-0.06246712185131779,0.1818058248675709,0.23663177287487872,0.43474302971480266
0.288,-0.0684809503025371,0.12885956528659107,0.20184088509585224,-0.0692119460449847,0.17766690712271535,0.23564354675683025,0.41861357216491785
0.289,-0.04016814279687003,0.16293092487203875,0.21963639078108715,-0.07594791742794214,0.17351520642427923,0.23464859935694393,0.43425304782596486
0.29,-0.0564635831887601,0.19833407870419387,0.21714642029845224,-0.08267417441078267,0.1693510214829121,0.23364695905419278,0.42744694218905105
0.291,-0.13745525042356235,0.11496733751207966,0.20649128986813597,-0.08938985664665447,0.1651746519074927,0.23263865441845222,0.4338522617021648
0.292,-0.08379632912802353,0.17856745504855398,0.23127314458495016,-0.09609410514130898,0.16098639818357177,0.231623714209685,0.4399135135742732
0.293,-0.05606226880089178,0.18081582201093116,0.23949668618943476,-0.1027860623629717,0.1567865616517524,0.23060216737712103,0.4318107804745288
0.294,-0.032022401813498406,0.2138236173117303,0.241289541923283,-0.10946487235202983,0.15257544448600902,0.2295740430584315,0.4310790384350006
0.295,-0.02796251605231187,0.18960661963192452,0.2178813134642977,-0.116129680830516,0.14835334967194577,0.2285393705788977,0.44761426498920914
0.296,-0.11935949102635657,0.09811567635169355,0.18735147495317075,-0.12277963531137734,0.144120580984998,0.2274981794505748,0.4363959713499836
0.297,-0.08964742823918169,0.1566689910516314,0.22428804098721639,-0.12941388520751765,0.1398774429685752,0.2264504993714499,0.4324016807396769
0.298,-0.16537877174444449,0.07294064892757414,0.1927982222445196,-0.13603158194059278,0.13562424091214953,0.225396360224595,0.4307137817850708
0.299,-0.10330279197395231,0.1679396880842419,0.2172321083173491,-0.14263187904955343,0.13136128082929083,0.22433579207731477,0.4235599636170024
0.3,-0.1275579261394342,0.1010858193771734,0.20546988366054753,-0.14921393229891275,0.12708886943564843,0.22326882518028887,0.4155477763144168
0.301,-0.08672096141089185,0.1704950396402742,0.22795762899420766,-0.15577689978673312,0.12280731412688453,0.22219548996670893,0.4386824101558464
0.302,-0.08669702638713786,0.17058980141301597,0.23074891462182706,-0.16231994205231215,0.11851692295655647,0.22111581705141073,0.44610001224347207
0.303,-0.12525754059362265,0.13666224299895002,0.2114168206194072,-0.16884222218355602,0.1142180046139529,0.22002983723000064,0.43605824968155044
0.304,-0.11588930169045158,0.12904241650380974,0.19293596811224625,-0.1753429059240299,0.10991086840188405,0.2189375814779779,0.4378586650900063
0.305,-0.14744964708059663,0.05757155328610129,0.1784969497311666,-0.1818211617796643,0.10559582421442688,0.2178390809498503,0.4205654637218437
0.306,-0.1685022962553073,0.08079453738311893,0.19700278425563544,-0.1882761611251123,0.10127318251462977,0.21673436697824625,0.42419936705155614
0.307,-0.19050827731227482,0.0789412404840192,0.19233191584602008,-0.19470707830973727,0.09694325431217424,0.21562347107302052,0.4161149171870907
0.308,-0.17135922752499413,0.06877502599611385,0.21726901619132713,-0.20111309076321984,0.09260635114099824,0.21450642492035568,0.4286454654616054
0.309,-0.14155680162326215,0.15387839168409861,0.20883144414051716,-0.2074933791007738,0.08826278503688187,0.21338326038185856,0.44358104653928393
0.31,-0.19309016279259156,0.11784469436592682,0.2155826569265072,-0.21384712722795035,0.08391286851499578,0.2122540094936511,0.42355631351029
0.311,-0.18139092514163488,0.10101458610733374,0.19391902992879634,-0.2201735224450254,0.07955691454741746,0.21111870446545705,0.43117225384785557
0.312,-0.1861963403870095,0.11850284558351114,0.17368148877954437,-0.2264717555509504,0.07519523654061226,0.20997737767968247,0.4406403506972755
0.313,-0.2189093587919643,0.04226921951903035,0.16423628992521908,-0.23274102094685536,0.07082814831288431,0.20883006169049276,0.4468510438164951
0.314,-0.1843959108004572,0.09585530133555406,0.194728757497163,-0.2389805167390937,0.06645596407179788,0.20767678922288385,0.41273173890224496
0.315,-0.2942241658769237,0.04382176671843455,0.18336035966139477,-0.24518944484180935,0.06207899839156952,0.2065175931717491,0.42691841589660684
0.316,-0.15486396522558524,0.14254056986484576,0.24214601702803323,-0.2513670110790208,0.05769756619043623,0.20535250660094032,0.4239217665474922
0.317,-0.2154040259690371,0.03781907934883211,0.17502855722693808,-0.2575124252862022,0.05331198270799633,0.20418156274232555,0.4224030926447369
0.318,-0.21101123652596754,0.0950584245149985,0.20788044625659477,-0.2636249014113518,0.04892256348252869,0.2030047949948405,0.4284703016894981
0.319,-0.19134205991845704,0.08800155723780757,0.1792444360650715,-0.26970365761553616,0.044529624328290204,0.2018222369235363,0.40983829294185203
0.32,-0.2312853400742488,0.0353938059079559,0.1673106164719706,-0.2757479163728927,0.040133481312792346,0.20063392225862184,0.42893908069185865
0.321,-0.23614471942277612,0.05173632243766424,0.17201649563281884,-0.2817569045700832,0.035734450734061896,0.19943988489450212,0.43391254631482856
0.322,-0.3060415888235915,-0.00273658843936154,0.14607478190495307,-0.2877298536051815,0.03133284909788261,0.1982401588888111,0.42111687614943133
0.323,-0.3018707969555705,0.02894548954221467,0.20106007570416726,-0.2936659994859834,0.02692899309502323,0.19703477846144032,0.42799596274620516
0.324,-0.1978631786113668,0.08984932307910092,0.2035796743214147,-0.2995645829277295,0.02252319957845189,0.19582377799356274,0.43415311480629015
0.325,-0.24798173472880106,0.03609780551222156,0.18654639618785487,-0.3054248494502228,0.018115785540539105,0.1946071920266525,0.4354981222197842
0.326,-0.23308283084014442,0.06723716660325887,0.19427964663873282,-0.31124604947433443,0.013707068090249548,0.19338505526149918,0.41458906086886477
0.327,-0.2864597736059037,0.02038164802621245,0.17397451327560942,-0.3170274384178811,0.0092973644303278,0.19215740255721855,0.4427469231326879
0.328,-0.28522139843486827,0.015996592517384445,0.17256826470664896,-0.3227682767908627,0.0048869918344749816,0.19092426893025788,0.4431771935179904
0.329,-0.28182065946477475,-0.014064429130705713,0.1658264362568869,-0.3284678302900513,0.00047626762452147457,0.18968568955339724,0.4257178946222361
0.33,-0.35041431285950125,-0.0053084702245156795,0.16483185047509283,-0.33412536989291275,-0.003934490852403827,0.18844169975474628,0.45490407281506123
0.331,-0.2459099628505546,0.05182968287650377,0.20111556101826283,-0.33974017195085743,-0.00834496624670725,0.18719233501673657,0.44038013542948296
0.332,-0.3185282513572346,-0.002470208767186788,0.15677125731440963,-0.3453115182817987,-0.012754841229161935,0.18593763097510982,0.4387868732064012
0.333,-0.2510128557197433,0.07059729220858967,0.18780255126322754,-0.3508386962620167,-0.017163798513740277,0.18467762341790075,0.44338972406984395
0.334,-0.3666217172716398,-0.01621666571458611,0.14316561105401382,-0.3563209989173084,-0.0215715208804421,0.18341234828441724,0.42293829781020387
0.335,-0.3453588188785698,0.01930444111158184,0.16104838370946548,-0.3617577250134148,-0.02597769119811809,0.18214184166421424,0.43123421902132725
0.336,-0.31273335839194116,0.0061499959566538,0.1702148412938478,-0.3671481791457169,-0.03038199244728797,0.1808661397960651,0.44302781928951385
0.337,-0.3753705568131035,-0.02521225595402353,0.1373655165272881,-0.3724916718281819,-0.03478410774294835,0.17958527906692756,0.4261842874367353
0.338,-0.401215663180489,-0.05506458665272321,0.16007329876881524,-0.377787519581556,-0.039183720357373227,0.17829929601090616,0.4316694369358027
0.339,-0.3790622472522773,-0.01234862759034628,0.16676204986083148,-0.3830350450207869,-0.043580513742901936,0.17700822730821006,0.44325195542717044
0.34,-0.2898172480023844,0.005727103244884093,0.22615593486402216,-0.3882335769416666,-0.047974171554714264,0.1757121097841066,0.4398987853215085
0.341,-0.3189678401178682,-0.010040420237459494,0.18049095524775066,-0.39338245040668546,-0.05236437767359204,0.17441098040787112,0.43657257249379056
0.342,-0.3845392549261896,-0.02619967780197568,0.14323827460015132,-0.3984810068300822,-0.05675081622866218,0.1731048762917325,0.43721304469301575
0.343,-0.3352262968948324,-0.04542485967759137,0.15433984356309152,-0.4035285940620838,-0.06113317162012424,0.17179383468981468,0.43450422450775883
0.344,-0.3916249360707966,-0.015646756690558844,0.15356426707770696,-0.40852456647232066,-0.06551112854195702,0.17047789299707383,0.44697679594760736
0.345,-0.397593974170429,-0.07413501583307658,0.146496430436707,-0.41346828503240896,-0.06988437200460518,0.16915708874823185,0.46196481368127396
0.346,-0.4149359429770267,-0.10118344636492795,0.14423286034261998,-0.4183591173976862,-0.07425258735764202,0.1678314596167057,0.4405366088591302
0.347,-0.3856787085330831,-0.0246906992081229,0.16070036744872604,-0.4231964379880962,-0.07861546031240775,0.1665010434135331,0.45254926497276626
0.348,-0.33894057153619156,0.04673600912129086,0.17724053220334066,-0.42797962806820344,-0.08297267696462293,0.1651658780862937,0.43206485513582865
0.349,-0.40096553636677706,-0.10749406174778328,0.14917886248476744,-0.43270807582633736,-0.08732392381697333,0.1638260017180268,0.4292668127354112
0.35,-0.34044557897266425,-0.011348925902588843,0.15791311553586507,-0.4373811764528468,-0.09166888780166559,0.16248145252614513,0.428127578526406
0.351,-0.45091834231438555,-0.13245210310031924,0.12504818956423355,-0.44199833221746015,-0.0960072563029529,0.1611322688613449,0.42670589626162203
0.352,-0.39672367619435683,-0.06612532512358628,0.13630132980301696,-0.44655895254574185,-0.10033871717962618,0.15977848920651191,0.43434369560657254
0.353,-0.4302804390684907,-0.13192436757681184,0.13995053436557062,-0.45106245409463025,-0.10466295878747311,0.15842015217562352,0.448639453576729
0.354,-0.46227905456335666,-0.08780602479125123,0.13682297488305672,-0.45550826082705376,-0.10897967000170045,0.15705729651264763,0.45018132937978395
0.355,-0.3702340028415363,-0.04319326282682602,0.15162923997474304,-0.45989580408560976,-0.11328854023931889,0.1556899610904374,0.4321701703799561
0.356,-0.42884703302330546,-0.06596802418727551,0.15317171187674264,-0.4642245226653016,-0.11758925948149014,0.15431818490962287,0.4345387426328194
0.357,-0.35293632719849266,-0.06283666231728381,0.1736907803559289,-0.46849386288532147,-0.12188151829583102,0.15294200709749786,0.43854105172925273
0.358,-0.4645084473471069,-0.11712568067153313,0.11888531859280274,-0.4727032786598712,-0.12616500785867785,0.15156146690690464,0.4415144129899046
0.359,-0.4259196046085784,-0.15208039141197938,0.13850225901970795,-0.47685223156801015,-0.1304394199773056,0.15017660371511374,0.4458854083286875
0.36,-0.47089700816327507,-0.08051834120155132,0.11933956383873198,-0.4809401909225258,-0.13470444711210197,0.14878745702270113,0.4341947068699115
0.361,-0.4560012928111241,-0.10776294785612772,0.11109742198507785,-0.48496663383781213,-0.1389597823986954,0.1473940664524213,0.43671886371728375
0.362,-0.4421152752019286,-0.060607618659797136,0.14645550710428804,-0.48893104529675147,-0.14320511967003222,0.14599647174807753,0.45551960629102234
0.363,-0.41930354839507994,-0.06674427012675552,0.13588486127987834,-0.49283291821659,-0.14744015347840617,0.14459471277338795,0.43605968587387123
0.364,-0.45338499092605833,-0.12269593068885509,0.12665397601819658,-0.49667175351379667,-0.1516645791174345,0.14318882951084833,0.43264665139836844
0.365,-0.4036863728624153,-0.08327652948608467,0.1637156346253134,-0.5004470601679026,-0.15587809264398142,0.14177886206059198,0.4386548161486791
0.366,-0.47931124047483,-0.15463418801439693,0.11529058815154287,-0.5041583552843051,-0.16008039090002713,0.14036485063924575,0.440758161324121
0.367,-0.4418484775598773,-0.10579891860928585,0.1525564073216191,-0.5078051641560348,-0.16427117153447854,0.13894683557878337,0.42146890900745243
0.368,-0.5332936296386724,-0.22317602948523874,0.10174092750609037,-0.5113870203244751,-0.1684501330249239,0.13752485732537428,0.4347743111892702
0.369,-0.5374127681682401,-0.15190999621527113,0.15196604990723203,-0.5149034656390246,-0.17261697469932694,0.13609895643823086,0.4452769890759261
0.37,-0.49069591779343086,-0.1551603135708054,0.12643837890860987,-0.518354050315701,-0.1767713967576596,0.13466917358845082,0.464430275293375
0.371,-0.46479887481713295,-0.1383434718294229,0.10823472382520141,-0.521738332994671,-0.18091310029347318,0.13323554955785752,0.4382020863296568
0.372,-0.43815350915864165,-0.11765629905327045,0.167728961625064,-0.5250558807967041,-0.18504178731540322,0.13179812523783652,0.45789961674012414
0.373,-0.48593601404918835,-0.17756461459225872,0.12429977710572401,-0.5283062693785417,-0.18915716076861036,0.13035694162816963,0.4550438246087041
0.374,-0.4663503195560642,-0.13391019119911057,0.14318705343737428,-0.5314890829871745,-0.19325892455615304,0.12891203983586527,0.47098571351639684
0.375,-0.5600367199560091,-0.24641984103126993,0.0745002826759226,-0.5346039145130207,-0.19734678356029123,0.1274634610739856,0.4538115086044714
0.376,-0.49480605403344563,-0.18385512315027408,0.13937068510644351,-0.5376503655419993,-0.20142044366371992,0.12601124666047142,0.47864803749568524
0.377,-0.5161548119368489,-0.1985473396545936,0.12279908439987572,-0.5406280464064902,-0.20547961177073099,0.12455543801696364,0.48640667000682836
0.378,-0.46856184168012877,-0.13004430204578574,0.1418208961283651,-0.5435365762351766,-0.20952399582830034,0.12309607666762139,0.4910890645257769
0.379,-0.4854827396139286,-0.14849444198025652,0.13772036861524625,-0.5463755830017606,-0.21355330484710128,0.12163320423793866,0.4950545064031318
0.38,-0.46766940108276706,-0.17395857979479795,0.11812573898467886,-0.5491447035725505,-0.2175672489224409,0.12016686245355565,0.4843878253215942
0.381,-0.47947419179800144,-0.17818872377821926,0.12537060071807024,-0.5518435837529072,-0.22156553925511813,0.11869709313906941,0.49328849706139444
0.382,-0.5569281200480269,-0.23634768045332538,0.07961760173866086,-0.5544718783325493,-0.2255478881722035,0.11722393821684085,0.4854058745831805
0.383,-0.508057768799165,-0.2233838500908454,0.10848036669114515,-0.5570292511297089,-0.2295140091477355,0.11574743970579876,0.4679372384521344
0.384,-0.5507306425442419,-0.24343084178093827,0.09924081758066215,-0.5595153750341311,-0.2334636168233368,0.11426763972024125,0.5018544255763706
0.385,-0.4784713387924531,-0.1502317153513086,0.12790852347240367,-0.5619299320489154,-0.23739642702874517,0.11278458046863536,0.5010234409125969
0.386,-0.5301335711384894,-0.20238372840769325,0.11060089665548167,-0.5642726133311897,-0.2413121568022592,0.11129830425241179,0.5186835341072513
0.387,-0.5133373045287727,-0.1951044633548977,0.12412908242235601,-0.5665431192316144,-0.24521052441109767,0.10980885346475917,0.5216418080438855
0.388,-0.49367632788878996,-0.19124246264167882,0.121581353363858,-0.5687411593327093,-0.24909124937166907,0.1083162705894148,0.5027233358122727
0.389,-0.5490627409993989,-0.28234539770651823,0.07314267303428018,-0.5708664524860013,-0.25295405246975255,0.10682059819945251,0.5477103858005471
0.39,-0.49022441286102214,-0.231250781601555,0.11218021725406277,-0.5729187268479857,-0.2567986557805872,0.10532187895606936,0.528469230583064
0.391,-0.6336255736845318,-0.2975817631148726,0.08578579241991759,-0.5748977199148971,-0.260624782688868,0.10382015560736733,0.5125726382872715
0.392,-0.4785472940437805,-0.17041571170112382,0.13773133488134456,-0.5768031785562859,-0.264432157908649,0.10231547098713506,0.5184241134327396
0.393,-0.5465953619425302,-0.2514385158992347,0.0911168809935237,-0.5786348590473961,-0.26822050750314863,0.10080786801362576,0.5101914336074009
0.394,-0.5196009146613869,-0.21875447253806565,0.11171703437734465,-0.5803925271003395,-0.27198955890445997,0.0992973896883331,0.5496590913242559
0.395,-0.545245457832033,-0.20944842494919558,0.0994030661165351,-0.5820759578940634,-0.2757390409331613,0.09778407909476441,0.5383437028929031
0.396,-0.5391411191358995,-0.2548938743911662,0.07528553857762987,-0.5836849361031076,-0.2794686838178274,0.09626797939721285,0.5387521439447238
0.397,-0.5475665553429081,-0.25764291390207594,0.09264852906204885,-0.5852192559251452,-0.28317821921443986,0.09474913383952462,0.5452797825087111
0.398,-0.6353032575076327,-0.33687512639892964,0.07975646652864693,-0.5866787211073078,-0.286867380225693,0.09322758574386662,0.5535706082879778
0.399,-0.5013116156557822,-0.18572895019914185,0.13098321746498287,-0.5880631449712872,-0.2905359014201978,0.09170337850949052,0.5682562951242385
0.4,-0.5492000001330449,-0.23722027191622846,0.08935043509190713,-0.5893723504372133,-0.29418351885157884,0.09017655561149476,0.5457852628384202
0.401,-0.5167322275921399,-0.20389665481901437,0.08949768663834282,-0.5906061700463041,-0.2978099700774653,0.0886471605995844,0.5568515477908486
0.402,-0.5705705072403423,-0.2743792312541173,0.07766757065056432,-0.591764445982286,-0.30141499417837375,0.08711523709682985,0.579439817920937
0.403,-0.5804009869524082,-0.2818134563900615,0.0951062401119084,-0.5928470300915784,-0.3049983317764802,0.08558082879842116,0.5709006776571399
0.404,-0.6198735266685776,-0.30018986841900536,0.04749076306909618,-0.5938537839022445,-0.3085597250542827,0.08404397947042265,0.5891871336874136
0.405,-0.637344690603528,-0.29818729684645595,0.06906346026079414,-0.594784578641704,-0.31209891777315074,0.08250473294852438,0.5804002060247928
0.406,-0.5516723307501337,-0.25378943104878254,0.09242536901333835,-0.5956392952532024,-0.31561565529176144,0.08096313313679152,0.6094374998830171
0.407,-0.5324202848635462,-0.24942358729406877,0.09993810455038786,-0.5964178244110411,-0.319109684584421,0.07941922400641332,0.597213691161028
0.408,-0.5625588771955214,-0.31686348935941416,0.06928469946411035,-0.5971200665345601,-0.32258075425926963,0.07787304959444619,0.6135946832575043
0.409,-0.5442028650782625,-0.25880415301053533,0.08285200632312134,-0.5977459318008752,-0.32602861457636817,0.07632465400256112,0.6092623992264559
0.41,-0.6005884826961851,-0.28266381717472056,0.08459143554508844,-0.5982953401563683,-0.3294530174656676,0.07477408139578302,0.6141583063317748
0.411,-0.6249101764892764,-0.34895453241777585,0.06364229783086323,-0.5987682213269253,-0.3328537165448564,0.07322137600123226,0.6023595177882599
0.412,-0.6133077726387876,-0.2562856874137742,0.09519196351801233,-0.5991645148269259,-0.33623046713708915,0.07166658210686282,0.6295666881853264
0.413,-0.5807481176781332,-0.27605224180967014,0.09129061248405844,-0.5994841699669798,-0.33958302628858894,0.07010974406019924,0.6223167127039977
0.414,-0.5287046702459772,-0.26023718063193835,0.08853694306468071,-0.5997271458604106,-0.3429111527861287,0.06855090626707129,0.6124514171891073
0.415,-0.58104971520886,-0.3281752553562609,0.061782984842065666,-0.5998934114284854,-0.346214607174386,0.06699011319034849,0.6027464276420939
0.416,-0.546763589705841,-0.34391120856208474,0.05486898148728499,-0.5999829454043898,-0.3494931517731716,0.06542740934867029,0.6339148620344499
0.417,-0.5724348167490702,-0.33868502288265895,0.06567693465598153,-0.5999957363359484,-0.3527465506945304,0.06386283931517732,0.6544992496537574
