time,roll_setpoint,roll_gyro,pitch_setpoint,pitch_gyro,yaw_setpoint,yaw_gyro
0.0,3.221088436188455,-2.0228552237343917,3.543197279807301,-1.9794899813947116,2.2547619053319186,1.0775520709117095
0.001,3.299582398918418,0.376610672765497,3.62954063881026,0.36898691937277484,2.3097076792428926,2.2563120242892247
0.002,3.3777459409858164,2.4297774324331614,3.7155205350843983,3.001374882434204,2.364422158690071,3.6491994282933167
0.003,3.455574210797501,4.486301440189174,3.8011316318772517,5.42180314523757,2.4189019475582505,4.841391481012151
0.004,3.533062390490227,6.442284447722827,3.88636862953925,7.08901645896511,2.473143673343159,6.475579749321308
0.005,3.6102056963405573,8.10888964087987,3.9712262659746136,8.728420977553789,2.52714398743839,7.364140140042135
0.006,3.686999379171322,9.716623560805235,4.055699317088455,10.41228577304409,2.580899565419925,8.00938092073727
0.007,3.763438724754603,10.692913612431116,4.139782597230063,11.660239879247278,2.634407107328222,8.287453381913682
0.008,3.839519054211185,11.001761867818896,4.223470959632304,12.465360365475833,2.6876633379478294,8.624126142245823
0.009,3.9152357244064526,11.179175222972637,4.3067592968470985,13.128292039940623,2.740665007084517,8.909233040010077
0.01,3.9905841283426917,11.39359958257291,4.389642541176961,12.967491642952536,2.793408889839884,9.105658353831265
0.011,4.0655596955477415,11.185299668059354,4.472115665102516,12.69310707228957,2.845891786883419,8.77916286191088
0.012,4.140157892459986,10.584089061329573,4.5541736817059855,12.378883615585735,2.8981105247219903,8.600510754808708
0.013,4.214374222809629,10.41326665607914,4.635811645090592,11.543636206777208,2.95006195596674,8.07867029339648
0.014,4.28820422799622,9.789495915163256,4.7170246507958415,10.735019356835478,3.0017429595973537,7.379109346912361
0.015,4.3616434874624,9.297814970064577,4.797807836208641,9.958196380728175,3.05315044122368,7.014663672132453
0.016,4.4346876190638245,8.727405301341454,4.878156380970207,9.125113480540811,3.104281333344677,6.730556051768007
0.017,4.507332279435237,7.970868393970788,4.958065507378761,8.006673621231222,3.1551325956046656,6.18311787336313
0.018,4.5795731643526425,6.99101556628523,5.0375304807879075,6.8282351815698314,3.2057012150468496,5.457247401544947
0.019,4.651406009091567,6.504112735082784,5.116546610000724,6.047363425630952,3.2559842063640967,4.975140751169584
0.02,4.722826588781357,6.002242964332009,5.195109247659493,5.517735404591939,3.30597861214695,4.519559344205299
0.021,4.793830718755473,4.984298130010556,5.27321379063102,4.916226993651863,3.3556815031288307,4.025387140987745
0.022,4.864414254897774,4.527420243320333,5.350855680387552,4.675758938309263,3.4050899784284416,3.7632504516552716
0.023,4.934573093984735,4.166957873428298,5.428030403383209,4.149171699081979,3.454201165789314,3.0838843552466035
0.024,5.004303174023567,3.740575670515895,5.504733491425925,3.327949734929464,3.5030122218164967,2.8637480317475363
0.025,5.073600474586228,3.8629476289164497,5.580960522044851,3.155551614575053,3.5515203322103592,2.7410655791082177
0.026,5.142461017139256,3.9588130824523757,5.656707118853182,2.695572677652154,3.599722711997479,2.323212596699315
0.027,5.210880865369442,3.558526569037051,5.731968951906387,2.5319151793890655,3.6476166057586092,1.9330023265984508
0.028,5.278856125505255,3.1912649552081307,5.8067417380557815,1.812388004726659,3.6951992878536783,1.9026484936081114
0.029,5.346382946634043,2.773068107221496,5.881021241297448,1.5365205224051084,3.7424680626438303,1.855095835491979
0.03,5.413457521014937,2.2528897298734405,5.954803273116432,1.4047950825815478,3.7894202647104556,1.7755304237098308
0.031,5.480076084387463,1.611054545450206,6.028083692826209,1.1363876501709536,3.8360532590712237,1.3382829785607724
0.032,5.546234916275796,1.1903997777212405,6.100858407903376,0.5705728580319871,3.8823644413930567,0.9799595235915963
0.033,5.611930340288663,0.9648680729556292,6.17312337431753,-0.046435406902983534,3.928351238202064,0.5794752183296508
0.034,5.6771587244148485,0.5413449323425237,6.2448745968563335,-0.8519308375941583,3.974011107090394,-0.1634182749511739
0.035,5.741916481314269,-0.1207886440979955,6.316108129445697,-1.674781451582656,4.019341536919988,-0.6611441231931665
0.036,5.806200068604601,-1.4649679644983529,6.386820075465061,-2.3317324350918947,4.064340048023221,-1.1879955168984382
0.037,5.8700059891434355,-2.6453991440784783,6.457006588057779,-3.3129544574276566,4.109004192400405,-1.6326651314759828
0.038,5.933330791305923,-3.1622556738040375,6.526663870436516,-4.2187286433675295,4.153331553914145,-2.245378356248093
0.039,5.996171069257885,-3.5099561712669356,6.5957881761836745,-5.2309374063156975,4.19731974848052,-2.5372398194653707
0.04,6.058523463224383,-3.977287468206079,6.664375809546822,-5.5875514041256045,4.240966424257068,-2.922620202189138
0.041,6.120384659753688,-4.455493709094614,6.732423125729057,-5.995466656834483,4.284269261827581,-2.961370807140303
0.042,6.181751391976656,-4.384011806864858,6.7999265311743216,-6.382747672301197,4.3272259743836585,-3.011877849409354
0.043,6.242620439861469,-4.215448328460445,6.866882483847616,-6.026168165566199,4.3698343079030275,-2.9662019372281603
0.044,6.302988630463721,-3.71452677844748,6.933287493510094,-5.608704593933362,4.4120920413246045,-2.938725845991294
0.045,6.3628528381718334,-3.5494681512177735,6.999138121989017,-5.0417179163637025,4.453996986720283,-2.7142096411902474
0.046,6.422209984947755,-2.617552511731393,7.064430983442531,-3.794030384761472,4.495546989463429,-1.862856768776747
0.047,6.481057040562951,-1.1309870552630619,7.129162744619247,-2.544849496717063,4.5367399283940655,-0.9447617701634421
0.048,6.5393910228296495,0.32384446365216224,7.193330125112615,-1.287748975917287,4.577573715980754,-0.02482699972691238
0.049,6.597208997827305,2.0743109010040772,7.2569298976100365,0.7924291136237285,4.618046298479113,1.0345442124117286
0.05,6.654508080124296,3.8008020952909565,7.319958888136727,2.6357036927637774,4.658155656087007,2.310806965425119
0.051,6.711285432994797,5.665109745640652,7.382413976294277,5.470077569174551,4.697899803096357,3.4476208510503943
0.052,6.76753826863083,7.849861904945388,7.444292095493913,7.5308651619733675,4.73727678804158,4.766914090960434
0.053,6.82326384834947,9.590291720672978,7.505590233184417,9.247697651842007,4.776284693844628,6.237539585210808
0.054,6.878459482795181,11.259221778667449,7.566305431074699,11.756544352363129,4.814921637956626,7.665309455857516
0.055,6.933122532137267,12.870090455695625,7.626434785350994,13.67219799296257,4.8531857724960865,8.829949395787107
0.056,6.987250406262419,14.398417063095765,7.685975446888661,15.441016169977361,4.891075284383692,10.1384416763982
0.057,7.0408405649623464,15.354279262075487,7.744924621458582,16.95843036685242,4.928588395473642,11.173300648077788
0.058,7.093890518116458,16.523385571883082,7.803279569928105,17.76543318413063,4.96572336268152,11.739169271790603
0.059,7.1463978258696095,17.178119957194127,7.861037608456571,18.074166595434,5.002478478108726,12.024584073315351
0.06,7.198360098804855,17.70345216262124,7.918196108685342,18.96425926103265,5.038852069163398,12.356049639316032
0.061,7.249774998111233,17.276842922860908,7.974752497922357,18.65623711383556,5.074842498677863,12.294719739671507
0.062,7.30064023574654,17.15906851942141,8.030704259321194,18.721264159552824,5.110448165022578,11.98252590281884
0.063,7.350953574595092,16.809169454531066,8.086048932054602,18.161495983692202,5.145667502216564,11.584518167256915
0.064,7.400712828620459,15.97774948887766,8.140784111482505,17.209904348490014,5.180498980034321,11.060030980221953
0.065,7.449915863013141,14.8266593763212,8.194907449314455,15.858717588110855,5.214941104109198,10.373374140784435
0.066,7.498560594333212,13.663752772448891,8.248416653766535,14.930250588915047,5.248992416033248,9.446465527514528
0.067,7.546644990647877,12.441044930566921,8.301309489712665,13.151206681198751,5.282651493453514,8.103238873439496
0.068,7.594167071663945,10.977329429607511,8.35358377883034,11.321277246276583,5.315916950164761,7.199596429004501
0.069,7.641124908855225,9.509611633938729,8.405237399740749,9.786830864750659,5.348787436198657,6.024126795163641
0.07,7.687516625584808,8.285211642590548,8.45626828814329,7.982891638305242,5.381261637909366,5.041508072221787
0.071,7.733340397222232,6.9377903687617595,8.506674436944456,6.211944639259162,5.413338278055562,4.050462968310153
0.072,7.77859445125553,5.391987608776721,8.556453896381084,4.80508916732827,5.445016115878871,3.4752041694783076
0.073,7.8232770673981396,4.432992795310936,8.605604774137953,3.7237301922962054,5.476293947178697,2.944602041527584
0.074,7.867386577690672,3.342798337569134,8.65412523545974,3.0688169613673857,5.50717060438347,2.1503099875864935
0.075,7.910921366597526,2.4673150871748772,8.702013503257279,2.605986582312336,5.5376449566182675,1.3635276885401142
0.076,7.953879871098349,1.7822534564233639,8.749267858208185,1.4341038814259361,5.567715909768844,0.7280815175155118
0.077,7.996260580774324,1.4306393664629482,8.795886638851757,1.1045628805789836,5.597382406542026,0.43627897263441184
0.078,8.038062037889294,1.358243333867085,8.841868241678224,0.4590183829255263,5.626643426522505,0.12171437466000956
0.079,8.07928283746568,1.0240701409419923,8.887211121212248,-0.027545584057829586,5.655497986225976,-0.18827772405866394
0.08,8.119921627355257,1.1223140952243167,8.931913790090784,-0.315198059622686,5.68394513914868,-0.3446851593330793
0.081,8.159977108304703,0.9327839110825629,8.975974819135175,-0.5491715612748607,5.711983975813292,-0.32420144956992836
0.082,8.199448034015951,1.0211406481587018,9.019392837417547,-0.8497978000247075,5.739613623811166,-0.3718971854785247
0.083,8.238333211201375,0.8480377092083824,9.062166532321514,-1.4096554977465523,5.766833247840962,-0.4797147050321495
0.084,8.27663149963373,0.5219183308379591,9.104294649597104,-1.1189485942008508,5.79364204974361,-0.5816884701781984
0.085,8.314341812190914,0.6640462835157503,9.145775993410007,-1.029854580895866,5.820039268533639,-0.6792598764748368
0.086,8.351463114895509,0.2345603011103501,9.186609426385061,-1.2118422288391901,5.846024180426856,-0.7520190548549994
0.087,8.387994426949106,-0.22056079151416697,9.226793869644018,-1.6455735781309038,5.871596098864374,-0.8479297022943459
0.088,8.423934820761426,-0.7962495168077997,9.26632830283757,-1.6017336785710556,5.896754374532998,-1.236487892210234
0.089,8.459283421974213,-0.8367994826478578,9.305211764171634,-1.8777762767251236,5.921498395381949,-1.351041288165768
0.09,8.494039409479925,-0.8254416970018745,9.343443350427918,-2.238090382791647,5.9458275866359465,-1.5277329088645324
0.091,8.528202015435198,-1.0050144787288993,9.38102221697872,-2.757657646124863,5.969741410804638,-1.7526109822791325
0.092,8.5617705252691,-1.3597537183885962,9.417947577796012,-2.659022639235416,5.9932393676883695,-1.8104557642486085
0.093,8.594744277686168,-1.3590268232141645,9.454218705454785,-2.625189552769643,6.016320994380317,-1.5612760037025373
0.094,8.627122664664231,-1.2448189262289988,9.489834931130655,-2.2737187943658865,6.038985865264961,-1.2647607558831035
0.095,8.65890513144703,-1.0675489999494898,9.524795644591734,-1.7356887387206719,6.061233592012921,-0.9434584592231152
0.096,8.690091176531613,-0.5358771541777445,9.559100294184775,-0.8585067414245309,6.083063823572129,-0.6088196777768546
0.097,8.720680351650541,0.4428790902676729,9.592748386815597,0.17042547149585374,6.104476246155379,-0.1614707303924856
0.098,8.750672261748878,1.4317203354018888,9.625739487923767,1.3447430156547675,6.125470583224215,0.5307361914244746
0.099,8.780066564955995,2.8492415293545363,9.658073221451595,2.9737561090264455,6.146046595469196,1.531014425081747
0.1,8.80886297255217,4.065272901123255,9.689749269807388,4.916313322023834,6.166204080786518,2.6819266782574354
0.101,8.837061248930006,6.197030112617505,9.720767373823007,7.176491101591859,6.185942874251004,3.8642572939743087
0.102,8.864661211550661,8.02641931091079,9.751127332705728,8.981356509211835,6.205262848085463,5.369885776071654
0.103,8.891662730894913,10.215538446370594,9.780829003984405,11.41631186013221,6.224163911626438,6.859123716212745
0.104,8.918065730409031,12.292945490417361,9.809872303449936,13.281630081371434,6.242646011286322,7.944889087428054
0.105,8.943870186445512,14.391518249884381,9.838257205090065,15.737721297259906,6.260709130511858,9.438841617062055
0.106,8.969076128198637,16.09381401870663,9.865983741018502,17.727633125497654,6.278353289739045,10.95821509807992
0.107,8.9936836376349,17.74936758990529,9.893052001398392,19.887753478274462,6.29557854634443,12.28266716549356
0.108,9.017692849418289,19.21922551595434,9.919462134360119,21.947959990406538,6.312384994592802,13.510467240714336
0.109,9.04110395083043,20.59671518437394,9.945214345913472,23.41638945485519,6.3287727655813,14.428573972439917
0.11,9.063917181685632,21.92893828314233,9.970308899854196,24.503664722071285,6.344742027179942,15.165245355123385
0.111,9.086132834240804,22.71867762400376,9.994746117664885,25.2172309121122,6.360292983968562,15.66969927778986
0.112,9.107751253100284,22.878339236220796,10.018526378410314,25.46473661301974,6.375425877170199,15.95661885948289
0.113,9.128772835115576,22.892962308192352,10.041650118627135,25.679122629379606,6.390140984580903,15.879375177892026
0.114,9.149198029280011,22.51679055858786,10.064117832208014,25.209675330572995,6.404438620496007,15.794861374734456
0.115,9.169027336618353,21.753367656102153,10.085930070280188,23.924425153794154,6.418319135632847,15.505465017029804
0.116,9.18826131007134,20.761781898040205,10.107087441078475,23.032016645962,6.431782917049937,14.711359674037173
0.117,9.206900554375213,19.666682716531145,10.127590609812735,21.822946260073046,6.444830388062649,13.656440792409974
0.118,9.224945725936184,18.05172471916694,10.147440298529803,20.195402998620715,6.4574620081553284,12.449448264119118
0.119,9.242397532699936,16.377332151164538,10.16663728596993,18.222408124817946,6.469678272889955,11.401169425153626
0.12,9.259256734016097,14.88598034344361,10.185182407417708,16.089873456842234,6.481479713811267,10.308319732723405
0.121,9.275524140497758,13.243112165215734,10.203076554547534,14.035239370847304,6.492866898348431,9.161127797773483
0.122,9.291200613876011,11.783948726181977,10.220320675263613,12.245712542189656,6.5038404297132075,8.040864792435528
0.123,9.306287066849553,10.415383995046815,10.236915773534509,10.090488499863584,6.514400946794686,6.823068148616805
0.124,9.32078446292935,8.591416990856288,10.252862909222285,8.613458631343109,6.524549124050544,5.50491602950224
0.125,9.334693816278396,7.295496157790196,10.268163197906237,7.224193887800588,6.534285671394876,4.538697140206512
0.126,9.34801619154658,6.027655101447063,10.28281781070124,6.304604418013895,6.543611334082606,4.010678414816315
0.127,9.360752703700658,4.839344059590082,10.296827974070725,5.4480363792025805,6.5525268925904605,3.404621051746826
0.128,9.372904517849397,3.966014701863683,10.310194969634338,4.489448160072992,6.561033162494578,2.961504911727622
0.129,9.384472849063851,3.404993966400112,10.322920133970237,3.553814773203128,6.569130994344695,2.719032492746015
0.13,9.395458962192835,3.031510635037863,10.33500485841212,3.046275770996096,6.576821273534985,2.347661423510517
0.131,9.405864171673603,2.7566020912246065,10.346450588840964,3.2101023115739684,6.584104920171521,2.248916388057401
0.132,9.415689841337734,2.7369953006174015,10.357258825471508,3.238511789716185,6.590982888936414,2.276880530907877
0.133,9.42493738421227,3.2997724550149456,10.367431122633498,3.4279372162247492,6.5974561689485895,2.161643080986323
0.134,9.433608262316135,3.0353578981130074,10.37696908854775,3.3983899625104,6.6035257836212935,2.2838436156374566
0.135,9.441703986451794,3.406663787017509,10.385874385096974,3.6573458065516364,6.609192790516255,2.5499948223941695
0.136,9.449226115992277,3.520539880032846,10.394148727591505,3.4612143436150182,6.614458281194593,2.5596491565831148
0.137,9.4561762586635,3.526953986738647,10.401793884529852,3.811485744889528,6.61932338106445,2.374784062280172
0.138,9.462556070321966,3.1866062270346944,10.408811677354164,3.633731907306056,6.623789249225376,2.452661589643833
0.139,9.468367254727813,3.3953895730760006,10.415203980200594,3.2483680758620572,6.627857078309469,2.3779027151672363
0.14,9.473611563313298,3.0984989036800297,10.42097271964463,3.785170187627867,6.631528094319308,2.397053651188661
0.141,9.478290794946707,3.2468603543936734,10.426119874441378,3.7582240119572905,6.634803556462694,2.2442901642076363
0.142,9.482406795691702,3.5395880457048836,10.430647475260873,3.7020497065094,6.637684756984191,2.2168005005412628
0.143,9.485961458562159,3.197813569287135,10.434557604418375,3.216074038382743,6.640173020993511,2.355053578552751
0.144,9.488956723272521,3.4103689498788077,10.437852395599775,3.3599609853487538,6.642269706290764,2.324721413134089
0.145,9.49139457598367,3.438913935597774,10.440534033582036,3.619832634092427,6.6439762031885685,2.1165139221046143
0.146,9.493277049044373,3.1459108652010883,10.44260475394881,3.7307066534659103,6.645293934331061,2.2862748057639974
0.147,9.494606220728304,3.2058103104349014,10.444066842801135,4.23041500668747,6.646224354509813,2.4912520178881215
0.148,9.495384214966695,3.721032782688953,10.444922636463366,4.94505945367385,6.646768950476686,2.832089295885624
0.149,9.495613201076615,4.448876081596261,10.445174521184278,5.687893400043046,6.6469292407536305,3.3989248246655457
0.15,9.495295393484954,4.955331298974315,10.44482493283345,6.0367643124217665,6.646706775439467,3.8727594912625602
0.151,9.494433051448059,6.000763129320644,10.443876356592865,6.867820048802944,6.646103136013641,4.519394481507377
0.152,9.493028478767169,7.375881498713477,10.442331326643886,8.543686968981785,6.645119935137018,5.190673992575678
0.153,9.491084023499546,8.92113197298762,10.440192425849501,9.998878718614105,6.643758816449682,6.156863325415418
0.154,9.488602077665455,10.286389779902727,10.437462285432002,11.592036569034144,6.642021454365818,7.20253303289637
0.155,9.485585076950926,11.913759879079063,10.43414358464602,13.075015421052477,6.639909553865648,8.243738688782857
0.156,9.482035500406411,13.693185497554124,10.430239050447053,14.659215513275083,6.6374248502844875,9.453376676429098
0.157,9.477955870141287,15.387680724676665,10.425751457155416,16.638331762908948,6.6345691090989005,10.388227733611856
0.158,9.473348751014328,16.99784901603304,10.42068362611576,18.57187625208482,6.631344125710029,11.446632340348762
0.159,9.46821675032008,18.302793285727756,10.415038425352089,20.170305237869766,6.627751725224056,12.473544155780186
0.16,9.462562517471255,19.377609103242463,10.408818769218382,21.491019064346006,6.623793762229878,13.19710095206464
0.161,9.456388743677138,20.29041296059666,10.402027618044853,22.555530206216446,6.619472120573996,13.642395639047198
0.162,9.449698161618043,20.70977599293436,10.394667977779848,23.145768907486286,6.61478871313263,13.861616417820706
0.163,9.442493545115852,21.205998885861412,10.386742899627437,23.14564644296931,6.609745481581096,14.138545876141444
0.164,9.434777708800691,20.814855310477725,10.378255479680762,22.757817283457136,6.604344396160483,14.386731061848192
0.165,9.426553507773752,20.316856748672578,10.369208858551128,22.624068164588557,6.598587455441626,14.041741417125326
0.166,9.417823837266303,19.581944625361302,10.359606220992934,21.78884229359808,6.592476686086411,13.613567785954448
0.167,9.408591632294945,18.626313375869536,10.34945079552444,20.71440341368826,6.586014142606461,12.548703533444176
0.168,9.398859867313115,17.408007879512738,10.338745854044427,19.25343178233377,6.57920190711918,11.705065655257282
0.169,9.388631555858904,16.096135747451843,10.327494711444794,17.52986115186755,6.572042089101233,10.473974454138542
0.17,9.377909750199194,14.279340513011643,10.315700725219115,15.607758034985537,6.564536825139435,9.215599408562834
0.171,9.3666975409702,12.17126980104566,10.303367295067222,13.610217251741584,6.55668827867914,7.929503279203984
0.172,9.354998056814399,10.125030584052892,10.290497862495839,11.200218154306695,6.548498639770079,6.343969692718453
0.173,9.342814464013909,8.042904485309196,10.2770959104153,9.234008166696418,6.539970124809736,5.44594205275259
0.174,9.330149966120391,6.1940096523647785,10.26316496273243,6.8848558782091,6.531104976284274,4.01259019401645
0.175,9.31700780358143,4.134439161736646,10.248708583939573,4.899605359402752,6.521905462507,2.837573311649656
0.176,9.303391253363527,2.4445158667526936,10.23373037869988,2.7838539574627603,6.512373877354468,1.8938140004177386
0.177,9.289303628571663,1.328183041474996,10.21823399142883,1.1527547648539773,6.502512540000163,0.9079900892748896
0.178,9.274748278065541,0.1330195121432567,10.202223105872095,-0.31583073550977225,6.492323794645879,-0.12351072202433677
0.179,9.259728586072473,-1.0465531771249577,10.18570144467972,-1.3301730226128754,6.481810010250731,-0.7657600281794661
0.18,9.244247971797048,-1.788518577266526,10.168672768976753,-1.8918976644091696,6.470973580257933,-1.491518455675271
0.181,9.22830988902751,-2.6346090814726644,10.151140877930262,-2.3221565363967667,6.459816922319257,-1.793547021271519
0.182,9.211917825738986,-2.749036496432497,10.133109608312886,-2.0612799001335613,6.44834247801729,-1.6357086850999192
0.183,9.195075303693534,-2.297601382429031,10.114582834062888,-1.848354917398927,6.436552712585473,-1.7768091668813923
0.184,9.177785878037115,-2.2542289557040736,10.095564465840827,-1.6577529854420643,6.42445011462598,-1.6788592065245336
0.185,9.160053136893463,-2.082856212535006,10.07605845058281,-1.2500457821561053,6.412037195825424,-1.0854569938873873
0.186,9.141880700954951,-1.6061241169896459,10.056068771050448,-0.6029251152217352,6.399316490668466,-0.7219354820123636
0.187,9.123272223070467,-0.7287944384367258,10.035599445377514,0.19801798194262332,6.386290556149326,-0.4021422848980496
0.188,9.104231387830358,0.32039469976928103,10.014654526613395,0.6056451249380856,6.37296197148125,0.13732834892990997
0.189,9.084761911148467,1.0865119496117268,9.993238102263314,1.4645102199784663,6.3593333378039265,0.5539236994773722
0.19,9.064867539841323,1.475505059465542,9.971354293825456,1.8825879352107426,6.345407277888926,0.6466737626045322
0.191,9.044552051204521,2.102874698567783,9.949007256324974,2.6703977326382207,6.331186435843164,0.9370979377499129
0.192,9.023819252586343,3.039321843462572,9.926201177844977,3.513113783945027,6.31667347681044,1.683561641993247
0.193,9.002672980958634,3.4643778494091846,9.902940279054498,4.098028575966191,6.301871086671043,2.11496392111391
0.194,8.98111710248504,3.9408426032535555,9.879228812733546,4.050850606081587,6.2867819717395275,2.664749372256725
0.195,8.959155512086577,4.403113348299289,9.855071063295235,4.142714954142099,6.271408858460603,2.81995704342184
0.196,8.936792133004632,4.492955283662928,9.830471346305096,4.775499660331285,6.255754493103242,3.1177845368910706
0.197,8.914030916361419,5.137962013266079,9.805434007997562,4.7423063874667415,6.239821641452993,3.4086596404615905
0.198,8.890875840717941,5.774280084069874,9.779963424789736,5.479546787549117,6.2236130885025585,3.6767260898623144
0.199,8.8673309116295,5.894273916517692,9.75406400279245,6.353996782452905,6.207131638140649,4.105777201582949
0.2,8.843400161198787,6.284213650442729,9.727740177318665,7.338383502668039,6.190380112839151,4.410980419301664
0.201,8.819087647626652,6.887288273860468,9.700996412389319,8.119400215921628,6.173361353338656,5.137015460981886
0.202,8.794397454760514,7.979657314533824,9.673837200236566,9.198502227396844,6.156078218332359,5.830729349358661
0.203,8.769333691640556,8.888108684934785,9.646267060804613,10.366911671129309,6.138533584148389,6.522929581451378
0.204,8.74390049204365,10.171805276066205,9.618290541248015,11.30765840751674,6.120730344430555,7.353861564294462
0.205,8.718102014025147,11.446102791606814,9.589912215427663,12.901413034342935,6.102671409817603,8.205628958772124
0.206,8.691942439458552,12.867758231237463,9.561136683404408,14.724411122478628,6.084359707620986,8.930193247764933
0.207,8.665425973573068,14.43321884310043,9.531968570930376,16.431992429533366,6.0657981815011475,9.825613744615787
0.208,8.63855684448918,15.96373850555419,9.502412528938098,17.889489202825757,6.046989791142426,10.861404469449429
0.209,8.611339302752206,17.403994674630596,9.472473233027427,19.607796040676703,6.027937511926544,11.854168199918877
0.21,8.583777620863946,18.836177467417222,9.442155382950341,21.350378147632625,6.008644334604762,12.934429579308919
0.211,8.555876092812435,20.108622182534468,9.411463702093679,22.89584744695934,5.9891132649687036,13.898305295095458
0.212,8.52763903359985,21.10836979482916,9.380402936959836,24.189971973622676,5.969347323519895,14.566876830223787
0.213,8.499070778768669,21.836550634723828,9.348977856645536,24.6385570091698,5.949349545138068,15.023896587123128
0.214,8.470175683926028,22.761315909010467,9.317193252318631,25.267873484941138,5.929122978748219,15.539814754513856
0.215,8.440958124266466,22.87491706746853,9.285053936693114,25.609229259592794,5.908670686986525,15.747125762544352
0.216,8.411422494092951,23.03132022936115,9.252564743502248,25.664356907812625,5.887995745865066,15.6047374633844
0.217,8.381573206336393,22.4101305820912,9.219730526970032,25.21222350913046,5.867101244435474,15.157665683209324
0.218,8.351414692073535,21.76692922335141,9.186556161280889,24.611784936058484,5.8459902844514735,14.552325991772763
0.219,8.32095140004344,20.981547988025262,9.153046540047784,22.886496657976853,5.8246659800304075,13.876158701446991
0.22,8.29018779616245,19.445752008989484,9.119206575778694,21.413530094037437,5.8031314573137145,13.165597757775359
0.221,8.25912836303783,17.604122805492,9.085041199341614,19.637623319915143,5.7813898541264805,11.984867670492955
0.222,8.227777599480001,15.626359286226297,9.050555359428003,17.727802897126917,5.759444319636001,10.577707897240845
0.223,8.196140020013551,13.598971811599334,9.015754022014907,15.787324054027113,5.737298014009486,9.499331390013275
0.224,8.164220154386934,11.562993688205037,8.980642169825629,13.198669052924426,5.714954108070853,7.9790148079514545
0.225,8.13202254708104,9.437358204725676,8.945224801789143,11.153210656436107,5.6924157829567275,6.397002352971395
0.226,8.099551756816574,7.292263776816599,8.909506932498232,8.988068854215992,5.669686229771601,4.91812585306644
0.227,8.066812356060401,5.748581087591184,8.873493591666442,6.722184490171044,5.64676864924228,3.518562055189034
0.228,8.033808930530784,3.908362970647996,8.837189823583863,4.502231814565099,5.6236662513715485,2.4868924413499585
0.229,8.000546078701703,2.213469017824716,8.800600686571874,2.7971566167539557,5.6003822550911915,1.177854447423595
0.23,7.967028411306167,1.0828086507100458,8.763731252436784,1.397332627182653,5.5769198879143165,0.3905097443032668
0.231,7.933260550838723,0.22421779992310142,8.726586605922595,0.3211037300862003,5.553282385587106,-0.29379329905474183
0.232,7.899247131057032,-0.23842093176160617,8.689171844162736,-0.6439218503517719,5.529472991739922,-0.8482515429749711
0.233,7.86499279648276,-0.32526524547949087,8.651492076131037,-0.9913602101921803,5.505494957537931,-1.1578363473350635
0.234,7.830502201901646,-0.4759150485125634,8.61355242209181,-1.259116740975303,5.4813515413311515,-1.253849474021428
0.235,7.795780011862973,-0.4894429006352805,8.575358013049271,-0.8693738100996562,5.457046008304081,-1.1185613838277195
0.236,7.760830900178323,-0.5819371318396467,8.536913990196156,-0.1432811850809248,5.432581630124826,-0.9025847174479917
0.237,7.725659549419841,-0.24670167147737665,8.498225504361825,0.20334843634417865,5.4079616845938885,-0.4962690016374802
0.238,7.690270650417884,0.4843867563732438,8.459297715459673,0.9273658989005256,5.383189455292518,-0.09017612261323826
0.239,7.654668901758282,1.0325825777437947,8.420135791934111,1.964610468697412,5.358268231230797,0.8072867975108435
0.24,7.61885900927909,1.5772409595379315,8.380744910207,2.8902780138120026,5.333201306495362,1.5433144458343433
0.241,7.582845685567045,2.492296045198632,8.34113025412375,3.469269776864029,5.307991979896931,2.1991111455184242
0.242,7.54663364945363,3.5163624164039966,8.301297014398994,4.542336922752397,5.2826435546175405,2.69962648464983
0.243,7.510227625510939,4.258840057203157,8.261250388062033,5.212583759182834,5.257159337857657,3.3450554750693144
0.244,7.47363234354725,5.153857397024656,8.220995577901975,5.991126801776695,5.231542640483075,3.8515307600523143
0.245,7.436852538102515,5.881290725596525,8.180537791912768,6.404777215312922,5.20579677667176,4.266696648457257
0.246,7.3998929479436475,6.6085411966861844,8.139882242738013,7.13319688731812,5.179925063560553,4.5252768488853565
0.247,7.3627583155598275,7.430759158944726,8.09903414711581,7.480470810076216,5.153930820891879,4.8450595027744185
0.248,7.3254533866577285,8.227181020715271,8.057998725323502,8.04887943983727,5.127817370660409,5.3079367627183425
0.249,7.287982909656843,8.549171160576998,8.016781200622528,8.294928994956901,5.1015880367597894,5.487299133265374
0.25,7.2503516351848445,8.602354366280348,7.97538679870333,8.459642212049232,5.075246144629391,5.601702957358432
0.251,7.212564315573152,8.781156659137318,7.933820747130468,8.833707461103138,5.048795020901206,5.774094876855362
0.252,7.174625704352627,9.2986362825394,7.89208827478789,8.90301327206767,5.022237993046838,5.95947678216747
0.253,7.136540555749578,9.353434478437991,7.850194611324537,9.687960737361006,4.995578389024704,6.101245651043234
0.254,7.098313624182009,9.979352135312592,7.808144986600211,10.158902608268678,4.968819536927406,6.277561943639722
0.255,7.059949663756272,10.349232892749708,7.7659446301319,10.56041591787892,4.94196476462939,6.742123004032792
0.256,7.0214534277640634,10.906679542492434,7.7235987705404705,11.118158614783818,4.915017399434844,7.319520020834153
0.257,6.982829668179929,11.35324018408535,7.681112634997922,11.8788515205753,4.88798076772595,8.093920917769847
0.258,6.944083135159224,11.800694097764211,7.638491448675147,12.942323720996662,4.860858194611457,8.641951534907156
0.259,6.905218576536675,12.54754556231611,7.595740434190343,13.632254390905613,4.833653003575672,9.181977295001138
0.26,6.866240737325496,13.646964094042861,7.552864811058046,14.49082435022786,4.806368516127847,9.855528878535237
0.261,6.827154359217225,14.311838948255971,7.509869795138948,15.417809320333372,4.779008051452057,10.261828799028745
0.262,6.7879641800821995,15.405934323143963,7.46676059809042,16.638424718949675,4.75157492605754,10.867549323610396
0.263,6.748674933470865,15.935381775415603,7.423542426817953,17.597471032028672,4.7240724534296055,11.455452857663538
0.264,6.709291348115822,16.23849392502527,7.380220482927404,18.508886960803846,4.696503943681075,11.93050584636958
0.265,6.6698181474348015,16.642586171167277,7.336799962178282,18.83976169815858,4.668872703204361,12.3549243195489
0.266,6.630260049034488,16.89974926589467,7.293286053937938,19.23515961586992,4.6411820343241414,12.28557957958264
0.267,6.59062176421538,16.78603835397556,7.249683940636919,19.282955615610234,4.613435234950766,12.065146093682667
0.268,6.550907997477579,16.380000711320957,7.205998797225337,18.874560710146095,4.5856355982343056,11.698172559373042
0.269,6.5111234460277165,15.968082947246192,7.162235790630489,18.15408367718195,4.557786412219401,11.006020439477386
0.27,6.471272799286959,14.929227386295725,7.118400079215656,16.8007359913845,4.529890959500871,10.358073584304776
0.271,6.431360738400166,13.497803058610504,7.074496812240183,15.694027020025896,4.501952516880116,9.525693101545526
0.272,6.391391935746305,11.690701500663305,7.030531129320936,13.816891855525805,4.473974355022413,8.49023239244848
0.273,6.351371054450077,10.170876652923369,6.986508159895085,11.892306864027635,4.445959738115054,7.238285556153795
0.274,6.311302747894917,8.114252254200084,6.942433022684409,9.802108548843101,4.417911923526441,5.987189664461359
0.275,6.271191659237288,5.9731162477113156,6.898310825161017,7.129703173745696,4.389834161466101,4.584132445740417
0.276,6.23104242092246,4.0634803199755005,6.854146663014706,4.730521159883815,4.361729694645722,2.9754770609139727
0.277,6.1908596542016845,2.347452142638776,6.809945619621853,2.4096508615507064,4.333601757941179,1.0605803278893573
0.278,6.150647968650945,0.3125764795234218,6.7657127655160405,0.10830465432240288,4.305453578055661,-0.38707238553448686
0.279,6.110411961691203,-1.6542575577251215,6.721453157860324,-2.0101518221262236,4.277288373183842,-1.6786215486088087
0.28,6.070156218110315,-3.3827488887365,6.677171839921346,-3.562811255463753,4.24910935267722,-2.829080350167298
0.281,6.029885309586552,-4.941889893152272,6.632873840545208,-5.375439749071236,4.220919716710586,-3.8356783847992544
0.282,5.989603794213879,-6.172698230224231,6.588564173635268,-6.936232946410247,4.192722655949716,-4.684944663028233
0.283,5.94931621602894,-7.068667313596005,6.5442478376318345,-7.959092902411678,4.164521351220258,-5.345201213579646
0.284,5.9090271045398755,-7.363975201613101,6.499929814993863,-8.302201548817134,4.136318973177913,-5.784320424435776
0.285,5.868740974256994,-7.534380311703174,6.455615071682694,-8.264897790093924,4.108118681979896,-5.767412332404948
0.286,5.82846232422531,-7.079670852479886,6.411308556647842,-7.93273647982998,4.079923626957717,-5.437724635382151
0.287,5.788195637559081,-6.6368778618024065,6.36701520131499,-7.204974829333407,4.051736946291356,-5.238467957186123
0.288,5.7479453809782655,-5.9628171435359265,6.322739919076093,-6.335992065734087,4.023561766684786,-4.66455670231104
0.289,5.707716004347111,-4.716609423316158,6.278487604781822,-5.382569814059755,3.9954012030429773,-3.8116339074502372
0.29,5.667511940214732,-3.5614760009332116,6.234263134236206,-4.305168560412836,3.9672583581503122,-2.981500808763921
0.291,5.627337603357918,-2.3010242542707173,6.19007136369371,-3.1297676142414135,3.9391363223505422,-1.9323961296164054
0.292,5.5871973903260335,-0.9248059306636112,6.145917129358637,-1.6134243906648322,3.9110381732282233,-0.7906052444923723
0.293,5.547095678988222,0.7659954520023886,6.101805246887045,0.15684362781050343,3.882966975291755,0.2571649622796395
0.294,5.507036828082819,2.1760565506584406,6.057740510891101,1.761269210918492,3.8549257796579726,1.1598652159917036
0.295,5.467025176769138,3.710832825298912,6.013727694446052,3.2429242719794367,3.826917623738396,2.2797265836179768
0.296,5.427065044181566,4.833053651815831,5.969771548599723,4.3807011349824165,3.798945530927096,3.0924696957883717
0.297,5.387160728986127,6.112461096192043,5.9258768018847405,6.209385269819597,3.771012510290289,3.827164655140631
0.298,5.347316508939439,7.07276433651069,5.882048159833384,7.083259408752482,3.743121556257607,4.583341176919014
0.299,5.307536640450233,8.028495614506223,5.838290304495257,8.03661004825742,3.715275648315163,5.1233451179720335
0.3,5.267825358143346,8.860366193235818,5.794607893957681,9.03914285414806,3.6874777507003422,5.588650513311241
0.301,5.228186874426374,9.18360440859843,5.751005561869012,9.68190010674817,3.6597308120984615,5.955781361741535
0.302,5.188625379058888,9.642816551619713,5.707487916964777,10.03568265951247,3.6320377653412215,6.289137255868973
0.303,5.149145038724393,10.214809668226286,5.664059542596833,10.689338389694848,3.604401527107075,6.62918331580639
0.304,5.109749996604938,10.764065900828191,5.620724996265432,10.807886491263025,3.5768249976234565,6.633295759560177
0.305,5.070444371958542,11.312069284732079,5.5774888091543975,11.62144380701531,3.549311060370979,6.917863386338847
0.306,5.03123225969939,11.625870640605203,5.534355485669329,12.087860006992134,3.521862581789573,6.975826615247921
0.307,4.9921177299809045,12.267766871566302,5.491329502978996,12.46940940388324,3.494482410986633,7.2688292755003925
0.308,4.953104827781667,12.496097632948885,5.448415310559834,12.656067998873546,3.467173379447167,7.699866074770815
0.309,4.914197572494326,12.63556685336313,5.40561732974376,12.993861179048903,3.4399383007460282,8.065656220896457
0.31,4.875399957517412,13.109365428732707,5.362939953269153,13.65517975054029,3.412779970262188,8.612518074874222
0.311,4.836715949850232,13.9294992844403,5.320387544835255,14.787158345380783,3.3857011648951625,9.124264788345986
0.312,4.798149489690758,14.294633758264752,5.277964438659834,15.532555582009001,3.3587046427835303,9.29271604410353
0.313,4.759704490036671,14.604592337695452,5.235674939040338,16.292386046402225,3.3317931430256693,9.954532201901827
0.314,4.721384836289494,14.857037373072814,5.193523319918444,17.010797611125795,3.3049693854026456,10.433939846927156
0.315,4.683194385861908,15.55685029386521,5.1515138244481,18.071967692388228,3.2782360701033353,10.737683682939362
0.316,4.645136967788326,15.68297661498396,5.109650664567159,18.336130561039276,3.251595877451828,10.978076031330847
0.317,4.6072163823386525,16.07673892852455,5.067938020572518,18.884399685399988,3.2250514676370567,10.884994270826024
0.318,4.569436400635408,16.083366024115357,5.02638004069895,18.756182453526932,3.1986054804447854,11.002929098493885
0.319,4.5318007642741245,15.776840852672372,4.984980840701537,18.327293536221532,3.172260534991887,11.012956482542776
0.32,4.494313184947167,15.184124157998511,4.943744503441884,17.78023284529169,3.1460192294630165,10.645757753717646
0.321,4.456977344070912,14.580340068946134,4.902675078478004,16.94431715798078,3.1198841408496385,10.065847030916794
0.322,4.419796892416423,13.502902225220986,4.861776581658066,15.958098899208851,3.0938578246914963,9.450935635670158
0.323,4.382775449743562,12.322018877319412,4.821052994717919,14.038454162165927,3.0679428148204932,8.792376144950307
0.324,4.345916604438667,10.973366607983282,4.780508264882534,12.450733114751706,3.042141623107067,7.928140945933154
0.325,4.309223913155743,9.442403567111707,4.740146304471318,10.462160931017259,3.01645673920902,6.862065295429003
0.326,4.2727009004612935,7.791116686915114,4.699970990507423,8.27337356248521,2.9908906303229053,5.832939892178885
0.327,4.236351058482729,5.848389217021984,4.659986164331002,5.84474755094007,2.96544574093791,4.54146117356165
0.328,4.200177846560496,3.6016252579118166,4.620195631216546,3.582918207353971,2.9401244925923473,3.232913335599335
0.329,4.164184690903849,1.6850207070705823,4.580603159994235,1.2964265906532026,2.9149292836326945,1.7671022698710268
0.33,4.128374984250415,-0.13385964895758917,4.541212482675458,-0.8868557644348014,2.8898624889752904,0.29472276412756626
0.331,4.092752085529465,-1.999590479217833,4.502027294082412,-3.185749181824728,2.8649264598706257,-0.8658583015688937
0.332,4.057319319529055,-3.688216249481318,4.463051251481962,-4.85968592419157,2.8401235236703384,-2.198321264021762
0.333,4.022079976566935,-4.571600874001712,4.4242879742236285,-6.469841557774111,2.8154559835968542,-3.1422280664967546
0.334,3.987037312165387,-5.968706284960254,4.385741043381926,-7.937785983974426,2.7909261185157708,-4.0300731427780665
0.335,3.9521945467299187,-6.656381693362839,4.347414001402911,-8.786212036409026,2.7665361827109427,-4.547867124893085
0.336,3.917554865231928,-6.901226880709236,4.309310351755121,-9.309546050875923,2.7422884056623493,-4.839356942329729
0.337,3.883121416895297,-7.095851904446429,4.271433558584827,-9.267685382912848,2.718184991826708,-4.904150524351818
0.338,3.848897314887025,-6.9067267587806604,4.233787046375728,-8.999881509202213,2.694228120420917,-4.756945666262263
0.339,3.8148856360118426,-6.44066740786857,4.196374199613027,-8.577544274851736,2.6704199452082897,-4.30772040937269
0.34,3.781089420410936,-5.599671665252473,4.15919836245203,-7.6986546666834075,2.646762594287655,-3.642136944797853
0.341,3.7475116712647107,-4.336274874573572,4.122262838391182,-6.732768328040036,2.6232581698852973,-3.1072976089366726
0.342,3.7141553544997175,-3.1187411528449296,4.08557088994969,-4.903420731664374,2.599908748149802,-2.226435722082895
0.343,3.6810233984996916,-1.0980610150886694,4.0491257383496615,-2.9321927754119135,2.576716378949784,-1.3016425382385841
0.344,3.6481186938207983,0.22618810292662772,4.012930563202879,-0.8913227003605426,2.5536830856745585,-0.23080684417451147
0.345,3.615444092911062,1.9521858534174998,3.9769885022021687,0.6884679751699636,2.5308108650377434,0.7651959705521336
0.346,3.5830024098340374,3.4542624679278298,3.9413026508174416,2.652346532107995,2.508101686883826,1.9791468662532312
0.347,3.5507964199967583,4.781984118080827,3.9058760619964343,4.293250012299205,2.4855574939977307,2.927692485190143
0.348,3.5188288598819355,6.262837329384359,3.8707117458701292,5.5144401438082316,2.4631802019173548,3.938469383682721
0.349,3.48710242678452,6.950745409472423,3.835812669462972,6.622349752582556,2.4409716987491636,4.555263759144829
0.35,3.4556197785525606,7.90743088879486,3.801181756407817,7.645675780994935,2.418933844986792,5.157141784836048
0.351,3.4243835333324704,8.444684143335767,3.7668218866657175,8.522047134602449,2.397068473332729,5.585259899660453
0.352,3.3933962693186492,8.870573165026856,3.7327358962505146,9.242991967032419,2.3753773885230545,6.032137772239063
0.353,3.3626605245075565,9.122445665235487,3.6989265769583124,9.677383063432915,2.353862367155289,6.127898099214622
0.354,3.3321787964562013,9.132215466893344,3.6653966761018215,9.859227362213282,2.3325251575193406,6.0562173585258225
0.355,3.30195354204512,8.892388628061022,3.632148896249632,10.275066402372317,2.311367479431584,6.0657487870663225
0.356,3.271987177245819,8.990942234909445,3.599185894970401,10.22356678389414,2.2903910240720733,6.174753452396768
0.357,3.242282076892762,8.917015011260755,3.5665102845820384,10.085759007432058,2.2695974538249333,6.03075237990322
0.358,3.2128405744598574,8.756984597332915,3.5341246319058435,9.90035179479591,2.2489884021219,6.019110487031149
0.359,3.18366496184154,8.804080810904969,3.5020314580256944,9.733468234899522,2.228565473289078,5.866246613293648
0.36,3.154757489138409,8.78809910304004,3.4702332380522503,9.311831629860398,2.2083302423968862,5.576052385678299
0.361,3.126120364447458,8.652888569074943,3.438732400892204,9.036630358841027,2.1882842551132207,5.695596420002133
0.362,3.0977557536569647,9.231500217645502,3.407531329022661,9.58817178418202,2.168429027559875,5.800548883947325
0.363,3.069665780245983,9.38865499747002,3.3766323582705815,9.230640183882738,2.148766046172188,5.828612996900777
0.364,3.041852525088518,9.856067588281096,3.34603777759737,9.37641677445099,2.1292967675619625,5.893879168241099
0.365,3.014318026262373,9.733934352806578,3.3157498288886105,9.555241456420232,2.110022618383661,5.937962291246765
0.366,2.987064278862709,9.765699942287544,3.28577070674898,9.873257706928051,2.090944995203896,5.868258869773708
0.367,2.9600932348203015,9.476904228619397,3.2561025583023318,9.995594629965426,2.072065264374211,6.119073519307742
0.368,2.933406802724554,9.343409185936208,3.22674748299701,10.380345977127988,2.053384761907188,6.109284433361893
0.369,2.9070068476512523,9.077145687893077,3.197707532416378,10.258389669352546,2.0349047933558766,6.098394285039676
0.37,2.880895190995096,9.41502316827842,3.168984710094606,10.240218832214994,2.0166266336965673,5.871263482458822
0.371,2.8550736103070076,8.800054100478995,3.1405809713377084,9.956522459412168,1.9985515272149053,5.671659607352927
0.372,2.829543839136263,8.116273186422585,3.112498223049889,9.567442452630042,1.980680687395384,5.434937991370345
0.373,2.804307566877406,6.999612804548461,3.084738323565147,8.60043355849599,1.963015296814184,4.904762277118353
0.374,2.779366438622046,6.107111530017258,3.0573030824842506,7.498713713052066,1.945556507035432,4.2552658302291695
0.375,2.7547220550154448,4.714256321879152,3.0301942605169896,6.005314633014,1.9283054385108112,3.531190396197559
0.376,2.7303759721180167,3.515317792150079,3.0034135693298185,4.437584712090275,1.9112631804826117,2.6392444063308194
0.377,2.7063297012716676,1.5921176820786433,2.9769626713988346,2.705719720108499,1.8944307908901672,1.6716976302638484
0.378,2.6825847089710386,-0.08871907492352982,2.950843179868143,0.33108760104344137,1.8778092962797268,0.5013392523216815
0.379,2.659142416739649,-2.1971641270619306,2.9250566584136144,-1.6564853931912178,1.8613996917177542,-0.7276590498065709
0.38,2.63600420101094,-4.030037324502576,2.8996046211120343,-3.4450005750567745,1.845202940707658,-1.9895224434079712
0.381,2.613171393014259,-5.790197861997564,2.874488532315685,-5.713836022150052,1.8292199751099811,-3.14350993500977
0.382,2.59064527866576,-7.524371692209462,2.8497098065323363,-7.772173639143813,1.813451695066032,-4.424975020602778
0.383,2.568427098464264,-9.083557454861596,2.825269808310691,-9.173451515190795,1.7978989689249847,-5.456306185794579
0.384,2.5465180473920634,-10.13827672068488,2.8011698521312702,-10.333657717577456,1.7825626331744442,-6.099150465333403
0.385,2.524919274820694,-10.720251611340466,2.7774112023027637,-11.67062381673315,1.7674434923744855,-6.860467291110277
0.386,2.503631884421682,-11.415361557650883,2.7539950728638507,-12.483780998139586,1.7525423190951772,-7.626520086549448
0.387,2.4826569340822626,-12.022328884958196,2.730922627490489,-12.986718676525214,1.7378598538575838,-8.00803621979019
0.388,2.4619954358261067,-12.071473178924437,2.7081949794087175,-12.819724034832005,1.7233968050782746,-8.005256688211643
0.389,2.4416483557390185,-11.844574287034487,2.6858131913129206,-12.655421901120146,1.7091538490173128,-7.935190262297489
0.39,2.4216166138996558,-11.0073959531783,2.6637782752896215,-12.050855315680588,1.695131629729759,-7.64618721928884
0.391,2.401901084315253,-9.974739788331572,2.6420911927467787,-10.689022240228951,1.681330759020677,-7.162624727919394
0.392,2.382502594862352,-9.018312925694946,2.6207528543485874,-9.5388896836165,1.6677518164036462,-6.283364004909782
0.393,2.3634219272325687,-7.23586657332205,2.5997641199558257,-7.967420891351193,1.654395349062798,-4.966668713027201
0.394,2.3446598168833717,-5.298366541512857,2.579125798571709,-6.0188413690966485,1.64126187181836,-3.829986899888911
0.395,2.326216952993895,-3.1282088602717746,2.5588386482932846,-3.606281058157098,1.6283518670957264,-2.3854510192401603
0.396,2.308093978425778,-1.30495045914807,2.538903376268356,-1.7331164008295379,1.6156657848980447,-1.0563646691453976
0.397,2.2902914896890554,0.716456765702159,2.519320638657961,0.29765521127422456,1.6032040427823386,0.27655583732073863
0.398,2.2728100369130715,2.395915553239658,2.500091040604379,2.585116649958907,1.59096702583915,1.7129154723665805
0.399,2.2556501238224396,4.230545113714601,2.4812151362046837,4.783851063227763,1.5789550866757076,2.7860348714122396
0.4,2.2388122077180492,6.008460114482531,2.4626934284898545,6.685737894930485,1.5671685454026343,4.2262436026538825
0.401,2.222296699463114,7.384103529887469,2.444526369409426,8.305556080381194,1.5556076896241797,5.351434064297051
0.402,2.2061039634742547,8.751717787132254,2.4267143598216805,9.744836276621088,1.5442727744319782,6.389778428824398
0.403,2.1902343177176444,9.841893304669718,2.409257749489409,10.56367564533944,1.533164022402351,7.066920753462656
0.404,2.174688033710181,10.56396156874966,2.3921568370811994,11.505468302113629,1.5222816235971266,7.687080315243735
0.405,2.159465336525713,11.428725614229982,2.3754118701782847,12.486821024096106,1.511625735567999,8.198131164406536
0.406,2.1445664048063042,11.717787857264318,2.3590230452869347,12.574411996360741,1.501196483364413,8.400795113798138
0.407,2.129991370778531,11.890468927426841,2.3429905078563844,12.594158706212585,1.4909939595449715,8.360990201531548
0.408,2.1157403202748313,11.57595148900278,2.3273143523023148,12.532130582245278,1.4810182241923817,8.21039076721069
0.409,2.1018132927598687,11.558465086487072,2.3119946220358556,12.345351312892928,1.471269304931908,8.055546667733024
0.41,2.088210281361948,11.235543837164016,2.297031309498143,12.53705086962932,1.4617471969533635,7.931582479177941
0.411,2.074931232909436,11.150454424539848,2.2824243562003796,12.010051184000218,1.4524518630366052,7.708544360550826
0.412,2.061976047972218,10.566179350226086,2.26817365276944,11.43236911779717,1.4433832335805523,7.424271682279182
0.413,2.0493445809081665,10.360101905381395,2.2542790389989835,11.299609188876119,1.4345412066357164,7.311848710572564
0.414,2.037036639914625,9.644851032003002,2.2407403039060876,10.860227437529707,1.4259256479402374,7.046134287844602
0.415,2.0250519870848827,9.568888437023547,2.227557185793371,10.789376891071493,1.4175363909594179,6.793600782728209
0.416,2.0133903384696703,9.358552787207376,2.2147293723166377,10.526750697820894,1.409373236928769,6.792813430322082
0.417,2.0020513641436244,9.29987851396435,2.202256500557987,10.452101333648743,1.401435954900537,6.748727662229035
0.418,1.9910346882767485,9.053900488362821,2.1901381571044234,9.946404817524545,1.3937242817937239,6.465180702925875
0.419,1.9803398892108435,8.751937938320935,2.178373878131928,9.924624795905856,1.3862379224475903,6.187646006742007
0.42,1.969966499540913,8.547343215482886,2.1669631494950043,9.813327200048992,1.378976549678639,5.944048339266096
0.421,1.9599140062015126,8.421576681306263,2.155905406821664,9.53543265128459,1.3719398043410587,5.828751702267521
0.422,1.9501818505580548,8.283007658080631,2.1452000356138603,8.957788899968564,1.3651272953906384,5.822651079453486
0.423,1.9407694285030574,7.964158896834935,2.134846371353363,8.603265366254824,1.3585385999521402,5.757097270969798
0.424,1.9316760905572998,7.252733596469555,2.12484369961303,8.201805982566103,1.3521732633901098,5.477096226371425
0.425,1.9229011419759177,6.957375637100533,2.11519125617351,7.333389039068679,1.3460307993831422,5.240855985425748
0.426,1.9144438428593826,6.1526229322194785,2.105888227145321,6.294386526460489,1.3401106900015678,4.622093320193571
0.427,1.9063034082693822,4.9792629171236165,2.0969337490963205,5.362616110120995,1.3344123857885675,4.011610502355829
0.428,1.898479008349577,3.8642348638403012,2.088326909184535,4.4304627629315725,1.3289353058447038,3.0391186400119548
0.429,1.8909697684512272,2.5597066696170763,2.08006674529635,3.1279003126728306,1.323678837915859,1.8388406694173394
0.43,1.883774769263657,1.0450562431417034,2.072152246190023,1.5196178250637913,1.3186423384845598,0.7552161725956776
0.431,1.8768930469495766,-0.570606662141663,2.0645823516445345,-0.2837131419853445,1.3138251328647035,-0.35464507416802893
0.432,1.8703235932852076,-1.9610260117364366,2.0573559526137286,-2.0702917259829423,1.3092265152996452,-1.1084171223182657
0.433,1.864065355805229,-3.2078547829585093,2.050471891385752,-4.1222216487353585,1.3048457490636602,-2.2495866775443902
0.434,1.858117237952511,-5.17007460764377,2.0439289617477625,-5.807349318034938,1.3006820665667576,-3.480184490091296
0.435,1.85247809923262,-6.306659142971324,2.037725909155882,-7.069908809638044,1.2967346694628339,-4.3269046914473455
0.436,1.8471467553730863,-7.528208538212515,2.031861430910395,-8.396019595627047,1.2930027287611603,-5.2998972046085875
0.437,1.842121978487417,-8.47233618700622,2.026334176336159,-9.612742869909177,1.2894853849411918,-5.970812487819389
0.438,1.8374024972438239,-8.920786628677089,2.0211427469682066,-10.53204202856042,1.2861817480706765,-6.3471199827538936
0.439,1.8329869970386614,-9.88614771616224,2.0162856967425276,-10.944952159656358,1.283090897927063,-6.7713719154308265
0.44,1.8288741201745573,-9.768198103990144,2.011761532192013,-11.259062394428417,1.2802118841221901,-6.605326465591146
0.441,1.8250624660431978,-9.23275601043252,2.007568712647518,-11.100703029289136,1.2775437262302383,-6.275555431524242
0.442,1.821550591312775,-8.778878205410988,2.0037056504440525,-10.018254765725498,1.2750854139189425,-5.830712823719921
0.443,1.8183370101200547,-8.128643592111073,2.00017071113206,-9.188120254279285,1.2728359070840383,-4.966609961389689
0.444,1.8154201942670474,-6.551829402445616,1.9969622136937524,-7.966086547271287,1.270794135986933,-4.218288928576848
0.445,1.8127985734222793,-5.439754380890966,1.9940784307645074,-6.216396090209633,1.2689590013955954,-3.119557324399933
0.446,1.8104705353266182,-3.658261230338402,1.9915175888592802,-4.422778089017133,1.2673293747286327,-1.960915579455932
0.447,1.8084344260036413,-1.6276294749058506,1.9892778686040056,-2.3547984541295075,1.265904098202549,-0.8319935301199881
0.448,1.806688549974532,0.33111416708362373,1.9873574049719853,-0.04115896406746633,1.2646819849821722,0.36777906958909545
0.449,1.8052311704774624,2.3258758691326475,1.9857542875252088,1.7290405460224352,1.2636618193342235,1.955813715580808
0.45,1.8040605096914613,4.089840982711043,1.9844665606606076,3.976582979985399,1.2628423567840228,3.3432259967114115
0.451,1.803174748964727,5.891406448631738,1.9834922238611998,5.780604908092742,1.2622223242753088,4.616038229902725
0.452,1.8025720290473677,7.281429760193298,1.9828292319521046,7.47255104292695,1.2618004203331572,5.5514971881375965
0.453,1.8022504503285388,8.499115716539702,1.9824754953613928,9.415935759691818,1.2615753152299771,6.5385922320461285
0.454,1.8022080730779644,9.602778881422463,1.982428880385761,10.306877119823278,1.261545651154575,7.195734276489443
0.455,1.8024429176918,10.118385575432992,1.9826872094609802,11.368382695233409,1.26171004238426,7.962583664355834
0.456,1.802952964942829,10.805944313039033,1.983248261437112,12.222099094952776,1.2620670754599803,8.444924610199422
0.457,1.80373615623495,10.587438051431901,1.9841097718584453,12.343571860598066,1.262615309364465,8.679902965720975
0.458,1.8047903938619356,10.719716006279143,1.9852694332481293,12.192618868954845,1.2633532757033548,8.709321617949245
0.459,1.8061135412704337,10.615481086720898,1.9867248953974772,11.856248564630993,1.2642794788893035,8.439552988196999
0.46,1.8077034233271956,10.037879709813687,1.9884737656599154,11.226079291312137,1.2653923963290368,8.113798044634363
0.461,1.8095578265904706,9.214747564584428,1.990513609249518,10.58828894015214,1.2666904786133293,7.817419471196271
0.462,1.8116744995855782,8.449455540338104,1.9928419495441363,9.987431726947815,1.2681721497099048,7.2674813972931815
0.463,1.814051153084601,7.811827211107988,1.9954562683930614,8.996097084279487,1.2698358071592206,6.478599232871432
0.464,1.816685460390171,7.054898137787531,1.9983540064291883,8.251394540314397,1.2716798222731196,5.975011546237389
0.465,1.8195750576233425,5.992549287458104,2.001532563385677,7.58646975901005,1.2737025403363396,5.188203793070745
0.466,1.8227175440154886,5.222791299367133,2.0049892984170374,6.71185264046611,1.275902280810842,4.531097369679243
0.467,1.826110482204212,4.532502797080694,2.0087215304246335,5.913832956946034,1.2782773375429484,3.857392818711971
0.468,1.8297513985332339,3.896202860295226,2.0127265383865574,4.942119615141815,1.2808259789732637,2.947521279133807
0.469,1.833637783356227,3.090406110652521,2.01700156169185,3.630110902714234,1.2835464483493588,2.52410681251689
0.47,1.837767091344562,2.6080406752668894,2.0215438004790185,3.1710429327615866,1.2864369639411934,2.4327587564546853
0.471,1.842136741798937,2.338369796467589,2.026350415978831,2.817505991667855,1.2894957192592558,2.099589771126407
0.472,1.846744118964848,2.020949885992369,2.031418530861333,2.37902034131468,1.2927208832753934,2.170810377281007
0.473,1.851586572351887,1.6936969499976242,2.036745229587076,2.113068192918972,1.2961106006463208,1.787061095498214
0.474,1.8566614170568054,1.605188844971322,2.0423275587624863,1.5087010670316252,1.2996629919397638,1.465985289597443
0.475,1.8619659340903398,1.1626940699740054,2.048162527499374,1.124816852609368,1.3033761538632378,1.0839206183571635
0.476,1.867497370707739,0.4653650620642733,2.054247107778513,0.8822612529332958,1.307248159495417,0.6951006921224957
0.477,1.8732529407429737,-0.2872379802635181,2.060578234817271,0.34833208404036586,1.3112770585200815,0.3005678543554693
0.478,1.8792298249465933,-0.9125074881688438,2.0671528074412526,-0.14921346996953977,1.3154608774626153,-0.00048612803332015453
0.479,1.8854251713271757,-1.9684779562699806,2.073967688459893,-0.7831614862578311,1.319797619929023,-0.7196751685756477
0.48,1.8918360954963678,-2.8759945427135785,2.0810197050460046,-2.1199344958636352,1.3242852668474574,-1.376004969862105
0.481,1.8984596810174428,-3.7227471201589886,2.0883056491191874,-3.099626647710757,1.32892177671221,-2.0112312654089517
0.482,1.9052929797573674,-4.520458944381181,2.095822277733104,-4.4733310742258485,1.3337050858301571,-2.613847535573968
0.483,1.9123330122423248,-5.9393324487188845,2.1035663134665574,-5.987972628814589,1.3386331085696273,-3.7480338123292936
0.484,1.9195767680166638,-7.0153942489521794,2.1115344448183304,-7.310810939541853,1.3437037376116645,-4.7518699122535395
0.485,1.9270212060052332,-8.10443188539841,2.1197233266057567,-8.148437678886568,1.3489148442036631,-5.51484754654887
0.486,1.9346632548790637,-9.100935827183562,2.12812958036697,-9.449123033289405,1.3542642784153445,-6.0767751202335765
0.487,1.9424998134243556,-9.957778043031368,2.1367497947667915,-10.86579213303982,1.359749869397049,-6.793063633665879
0.488,1.9505277509147518,-10.682931264399796,2.1455805260062273,-11.983084090528191,1.3653694256403262,-7.220320809877886
0.489,1.9587439074868187,-10.906690951583544,2.154618298235501,-12.407076285227484,1.371120735240773,-7.320733280908829
0.49,1.967145094518746,-10.931104678765637,2.163859603970621,-12.833580600117765,1.377001566163122,-7.541928796330021
0.491,1.9757280950121707,-10.50803241182767,2.173300904513388,-13.208289111232538,1.3830096665085194,-7.588765428281811
0.492,1.9844896639771443,-10.241098931921451,2.182938630374859,-13.05651582472505,1.389142764784001,-7.311057610419626
0.493,1.9934265288201418,-9.721622650637288,2.192769181702156,-12.178887512110514,1.3953985701740992,-6.850495168186292
0.494,2.0025353897351255,-8.975572105204808,2.2027889287086384,-10.825327168351958,1.4017747728145877,-6.152502276477488
0.495,2.0118129200975825,-7.8071647575633385,2.212994212107341,-9.428640324287962,1.4082690440683077,-5.30025632553509
0.496,2.0212557668615254,-6.098502329840424,2.223381343547678,-7.479466052104464,1.4148790368030677,-4.256707580875081
0.497,2.0308605509593827,-4.131349528086855,2.233946606055321,-5.228277614871576,1.4216023856715678,-3.143138711455231
0.498,2.0406238677047766,-2.0270523803139557,2.2446862544752544,-3.1662009855376496,1.4284367073933435,-1.6537227803997674
0.499,2.0505422871980974,-0.06815581447168295,2.255596515917907,-0.7982557661879222,1.4353796010386681,-0.3115564683749166
0.5,2.0606123547348876,1.9778739229771083,2.2666735902083763,1.537595848572374,1.4424286483144213,1.1249205914902727
0.501,2.0708305912169314,4.563868218627299,2.2779136503386246,4.1341276295830935,1.449581413851852,2.5194706813250827
0.502,2.0811934935660705,6.487824096561896,2.2893128429226777,6.387438832592274,1.4568354454962493,4.004581280379931
0.503,2.0916975351406473,8.752388434012012,2.3008672886547124,8.374841958513853,1.464188274598453,5.44878252841504
0.504,2.1023391661545654,10.599830591548832,2.312573082770022,10.454869187590125,1.4716374163081958,6.599181895563049
0.505,2.1131148140989167,11.97771493717227,2.3244262955088084,12.496484072276262,1.4791803698692416,7.711049629272329
0.506,2.1240208841661135,13.006342601450232,2.336422972582725,14.06878756822542,1.4868146189162794,8.686894192882283
0.507,2.1350537596765173,13.854391708856022,2.348559135644169,15.398526544187417,1.4945376317735621,9.199026969034282
0.508,2.146209802507475,14.616474128804485,2.3608307827582227,16.33125339482347,1.5023468617552325,9.61759840322174
0.509,2.1574853535247573,14.780430073732374,2.373233888877233,16.69568259450239,1.5102397474673301,10.173759774680162
0.51,2.1688767330163254,15.142899932972359,2.3857644063179584,16.5772608135426,1.5182137131114277,10.127917299550887
0.511,2.180380241128406,14.830138975957144,2.398418265241247,16.095605456943694,1.5262661687898842,10.084476101198334
0.512,2.191992158303792,14.447518020341507,2.4111913741341713,15.193325177703134,1.5343945108126542,9.67719068653771
