time,roll_setpoint,roll_gyro,pitch_setpoint,pitch_gyro,yaw_setpoint,yaw_gyro
0.0,3.221088436188455,1.5653440987771792,3.543197279807301,-3.9829211011623036,2.2547619053319186,0.9215417763313555
0.001,3.299582398918418,5.642818198369303,3.62954063881026,1.2858206238461323,2.3097076792428926,3.9283818153311296
0.002,3.3777459409858164,9.317515684673507,3.7155205350843983,5.55540294128992,2.364422158690071,6.349176494689786
0.003,3.455574210797501,11.094923267828504,3.8011316318772517,8.062917354017491,2.4189019475582505,7.988757375822065
0.004,3.533062390490227,11.17692304195567,3.88636862953925,8.682795791414515,2.473143673343159,8.205067078324168
0.005,3.6102056963405573,9.823709750881587,3.9712262659746136,8.054307395425718,2.52714398743839,7.437356469577029
0.006,3.686999379171322,8.098577024245966,4.055699317088455,6.153967994421409,2.580899565419925,5.970132819334773
0.007,3.763438724754603,5.697547598766201,4.139782597230063,4.115436392302545,2.634407107328222,4.698294452902767
0.008,3.839519054211185,3.59031488749131,4.223470959632304,1.9168392313914562,2.6876633379478294,3.3867027298386336
0.009,3.9152357244064526,2.2036134215614807,4.3067592968470985,0.26041318327947116,2.740665007084517,2.0909785954270124
0.01,3.9905841283426917,1.1277499181070378,4.389642541176961,-0.5350467330390297,2.793408889839884,1.068358718285829
0.011,4.0655596955477415,0.005814217280030065,4.472115665102516,-1.5567621063259829,2.845891786883419,0.39338484486009817
0.012,4.140157892459986,-0.5934895013860713,4.5541736817059855,-2.7372361824435645,2.8981105247219903,-0.28252991107562336
0.013,4.214374222809629,-1.9304525067379854,4.635811645090592,-4.141096109291083,2.95006195596674,-1.1552722499687793
0.014,4.28820422799622,-3.577305451367385,4.7170246507958415,-5.683816265845575,3.0017429595973537,-2.5342871161948066
0.015,4.3616434874624,-5.026260924637557,4.797807836208641,-6.525479995477523,3.05315044122368,-3.5492571347508224
0.016,4.4346876190638245,-6.280742118308956,4.878156380970207,-7.526818957926054,3.104281333344677,-4.0979705870981755
0.017,4.507332279435237,-6.448672848503563,4.958065507378761,-7.892219367482758,3.1551325956046656,-4.191924616055821
0.018,4.5795731643526425,-5.7425009660472295,5.0375304807879075,-6.900825043681797,3.2057012150468496,-3.6258364052219223
0.019,4.651406009091567,-3.3859711607898717,5.116546610000724,-4.141661773311178,3.2559842063640967,-1.8685936360879019
0.02,4.722826588781357,0.4191307091261889,5.195109247659493,-0.6444327819974673,3.30597861214695,0.6597160644467737
0.021,4.793830718755473,4.56583305246793,5.27321379063102,3.448249526081899,3.3556815031288307,3.7319209985185777
0.022,4.864414254897774,8.360712423856489,5.350855680387552,7.778559791794599,3.4050899784284416,6.276089429686552
0.023,4.934573093984735,10.907280341529361,5.428030403383209,11.157870745391902,3.454201165789314,8.075750688146526
0.024,5.004303174023567,12.164956983908262,5.504733491425925,12.838857665486435,3.5030122218164967,8.899714952550461
0.025,5.073600474586228,11.589900443226812,5.580960522044851,12.511864449726126,3.5515203322103592,8.699865028992194
0.026,5.142461017139256,10.026302255973505,5.656707118853182,10.76165289027886,3.599722711997479,7.169210157563028
0.027,5.210880865369442,7.144277513016317,5.731968951906387,7.680875883321038,3.6476166057586092,5.20363696922916
0.028,5.278856125505255,3.9879907205634533,5.8067417380557815,4.316353040229769,3.6951992878536783,3.0894434713698757
0.029,5.346382946634043,1.3485502933802282,5.881021241297448,1.456579212126755,3.7424680626438303,1.4285424589778968
0.03,5.413457521014937,-0.6423857366835688,5.954803273116432,-0.4938131383117157,3.7894202647104556,0.020641469457741923
0.031,5.480076084387463,-1.5986403259004671,6.028083692826209,-0.7628327967835746,3.8360532590712237,-0.7493203435634346
0.032,5.546234916275796,-1.641430006121798,6.100858407903376,-1.3534567996068576,3.8823644413930567,-0.9980480140252506
0.033,5.611930340288663,-1.8329566831883328,6.17312337431753,-1.5715102254214104,3.928351238202064,-1.2343204963762329
0.034,5.6771587244148485,-2.270350857825523,6.2448745968563335,-1.511884300787429,3.974011107090394,-1.5277057861353218
0.035,5.741916481314269,-2.722088297869805,6.316108129445697,-1.9506212218504455,4.019341536919988,-1.565794678117855
0.036,5.806200068604601,-3.44835650763927,6.386820075465061,-2.943813806260299,4.064340048023221,-1.852174391222544
0.037,5.8700059891434355,-3.02209608167371,6.457006588057779,-2.8138424229988503,4.109004192400405,-1.842073178309532
0.038,5.933330791305923,-2.1306285932151505,6.526663870436516,-2.209162514703249,4.153331553914145,-1.3958264938260863
0.039,5.996171069257885,-0.2952728481755704,6.5957881761836745,-1.1024188204431074,4.19731974848052,-0.31163152995318155
0.04,6.058523463224383,2.598569760824254,6.664375809546822,1.90372787920849,4.240966424257068,1.534580715195308
0.041,6.120384659753688,6.221513842271371,6.732423125729057,5.862356781648719,4.284269261827581,4.043208323356156
0.042,6.181751391976656,10.204945950828824,6.7999265311743216,10.269410770439908,4.3272259743836585,6.780024009341459
0.043,6.242620439861469,13.770524580210942,6.866882483847616,14.327888411602633,4.3698343079030275,9.24093911005648
0.044,6.302988630463721,16.72101299591642,6.933287493510094,17.291457409668062,4.4120920413246045,10.904151157155212
0.045,6.3628528381718334,17.47046034887359,6.999138121989017,18.54707053143772,4.453996986720283,11.644996088143339
0.046,6.422209984947755,16.390687666358016,7.064430983442531,17.837265754693092,4.495546989463429,10.892084539536127
0.047,6.481057040562951,13.938995676883682,7.129162744619247,15.5352670897833,4.5367399283940655,9.443691082749817
0.048,6.5393910228296495,10.739348379106424,7.193330125112615,11.837662342463664,4.577573715980754,7.268472668980691
0.049,6.597208997827305,6.592942255460665,7.2569298976100365,7.580618925722574,4.618046298479113,4.972625227523998
0.05,6.654508080124296,3.816588156131817,7.319958888136727,3.856626200721413,4.658155656087007,2.971689120374884
0.051,6.711285432994797,1.3718917599705218,7.382413976294277,1.9312741136963023,4.697899803096357,1.6446721696276172
0.052,6.76753826863083,0.7836583325978541,7.444292095493913,0.9049342100858144,4.73727678804158,0.8991734965471689
0.053,6.82326384834947,0.29975768862643726,7.505590233184417,1.0770715192316374,4.776284693844628,0.6487033258432482
0.054,6.878459482795181,0.4189784165345145,7.566305431074699,1.412184464371279,4.814921637956626,0.7384423470057375
0.055,6.933122532137267,0.3325254553856176,7.626434785350994,1.2577604491643255,4.8531857724960865,0.7181595356474921
0.056,6.987250406262419,0.8197821064691917,7.685975446888661,1.1753976760995561,4.891075284383692,0.8227438914132952
0.057,7.0408405649623464,0.7436331978140798,7.744924621458582,1.161143321406862,4.928588395473642,0.6064588881214994
0.058,7.093890518116458,1.2326094165179287,7.803279569928105,0.929891834926444,4.96572336268152,0.7196849873028563
0.059,7.1463978258696095,2.1331152832323577,7.861037608456571,1.856838532221536,5.002478478108726,1.181250564572287
0.06,7.198360098804855,3.675266430746876,7.918196108685342,3.2304055828394005,5.038852069163398,2.1534188615705547
0.061,7.249774998111233,5.586932615980851,7.974752497922357,5.6520447240607075,5.074842498677863,3.6588431203248075
0.062,7.30064023574654,8.53996478904033,8.030704259321194,8.56038004125437,5.110448165022578,5.609584882345972
0.063,7.350953574595092,11.901351886824965,8.086048932054602,12.489014054245551,5.145667502216564,7.7065125324204535
0.064,7.400712828620459,14.517847129369226,8.140784111482505,15.298858217865828,5.180498980034321,9.416679718836173
0.065,7.449915863013141,15.791585615480056,8.194907449314455,16.91233961240127,5.214941104109198,10.433027932967438
0.066,7.498560594333212,15.604066077976615,8.248416653766535,16.504549944552554,5.248992416033248,10.29928143940721
0.067,7.546644990647877,13.758951484966445,8.301309489712665,14.355592033622099,5.282651493453514,9.27427237804718
0.068,7.594167071663945,10.199175797644541,8.35358377883034,10.910415856300318,5.315916950164761,7.285052360579275
0.069,7.641124908855225,6.191897163875179,8.405237399740749,6.753396360732349,5.348787436198657,4.758536824531013
0.07,7.687516625584808,2.5659556260734155,8.45626828814329,2.7536918912499404,5.381261637909366,2.0586153842999844
0.071,7.733340397222232,-0.20622018088752547,8.506674436944456,-0.25874104165290124,5.413338278055562,-0.22863392681139683
0.072,7.77859445125553,-1.872263235782607,8.556453896381084,-1.989235759697773,5.445016115878871,-1.3946891364341152
0.073,7.8232770673981396,-2.3554217808442335,8.605604774137953,-2.318004633376532,5.476293947178697,-1.7020202178933008
0.074,7.867386577690672,-1.7312102405992604,8.65412523545974,-1.761169006654641,5.50717060438347,-1.2275055011535576
0.075,7.910921366597526,-0.6187779581094484,8.702013503257279,-0.4355056916539466,5.5376449566182675,-0.28117088803527057
0.076,7.953879871098349,0.7660796706907336,8.749267858208185,0.8161599217615239,5.567715909768844,0.7860987981686876
0.077,7.996260580774324,2.159966247528782,8.795886638851757,2.0551137903271632,5.597382406542026,1.3688931066843204
0.078,8.038062037889294,3.6143827277891707,8.841868241678224,3.2467753706329567,5.626643426522505,2.2427147473052123
0.079,8.07928283746568,4.248266826242487,8.887211121212248,4.370129274441258,5.655497986225976,3.0178352867013096
0.08,8.119921627355257,5.6846366509072945,8.931913790090784,5.847529199592872,5.68394513914868,3.7612389926371668
0.081,8.159977108304703,7.490665793365108,8.975974819135175,8.114175125956239,5.711983975813292,5.118207782966433
0.082,8.199448034015951,9.560002143621446,9.019392837417547,10.466342410954978,5.739613623811166,6.768200677444041
0.083,8.238333211201375,12.432584304921857,9.062166532321514,13.241918059633665,5.766833247840962,8.789953990550476
0.084,8.27663149963373,15.280509146755275,9.104294649597104,16.400210710780456,5.79364204974361,10.779659111768467
0.085,8.314341812190914,17.522501031485398,9.145775993410007,19.232019190017887,5.820039268533639,12.239603743833667
0.086,8.351463114895509,18.724232230856966,9.186609426385061,20.64491142161557,5.846024180426856,12.761014471822234
0.087,8.387994426949106,18.46551909256814,9.226793869644018,19.964717399695644,5.871596098864374,12.720724002128282
0.088,8.423934820761426,16.400970464693707,9.26632830283757,17.38079039070488,5.896754374532998,11.202730061777661
0.089,8.459283421974213,12.856157899797932,9.305211764171634,13.558249005853892,5.921498395381949,8.738756397221294
0.09,8.494039409479925,8.786160911693512,9.343443350427918,9.31482354545501,5.9458275866359465,6.124227879787276
0.091,8.528202015435198,5.328027912419593,9.38102221697872,4.917065201933191,5.969741410804638,3.1796813104159107
0.092,8.5617705252691,2.176342584366541,9.417947577796012,1.6518915779755332,5.9932393676883695,1.1423864469811438
0.093,8.594744277686168,0.9059561022822642,9.454218705454785,0.07644353309760099,6.016320994380317,0.03103026540002851
0.094,8.627122664664231,0.5722510298324188,9.489834931130655,0.3000456378746428,6.038985865264961,-0.05067467860996544
0.095,8.65890513144703,1.3201940892900943,9.524795644591734,1.6750998117459428,6.061233592012921,0.7358943451721043
0.096,8.690091176531613,3.139608877382181,9.559100294184775,3.081873031726408,6.083063823572129,1.8786343393262968
0.097,8.720680351650541,4.549554959357906,9.592748386815597,5.21895238131515,6.104476246155379,2.8803415930623055
0.098,8.750672261748878,5.919412475718939,9.625739487923767,6.7876055892126566,6.125470583224215,3.7825677462125826
0.099,8.780066564955995,7.197795770382003,9.658073221451595,8.003903704146717,6.146046595469196,4.39227658107741
0.1,8.80886297255217,7.681290600811387,9.689749269807388,8.680737162234058,6.166204080786518,4.861073450532941
0.101,8.837061248930006,8.72671257367515,9.720767373823007,9.522132099915387,6.185942874251004,5.25939886305858
0.102,8.864661211550661,9.233278733659677,9.751127332705728,10.5939838222579,6.205262848085463,5.9900895705205155
0.103,8.891662730894913,10.9006589632706,9.780829003984405,12.034890565614997,6.224163911626438,7.037810025806994
0.104,8.918065730409031,12.389042045645956,9.809872303449936,13.805313588573455,6.242646011286322,8.031083846241385
0.105,8.943870186445512,14.084740390256023,9.838257205090065,15.65347321115237,6.260709130511858,9.159187270761667
0.106,8.969076128198637,15.26012212662507,9.865983741018502,16.598110163625673,6.278353289739045,10.052061870674713
0.107,8.9936836376349,15.203720752522198,9.893052001398392,16.519583913044112,6.29557854634443,10.099560755345635
0.108,9.017692849418289,13.724020210301234,9.919462134360119,14.898209683652324,6.312384994592802,8.908006359457971
0.109,9.04110395083043,10.619055705298964,9.945214345913472,12.049773249956187,6.3287727655813,7.120219837796517
0.11,9.063917181685632,7.1452727085378465,9.970308899854196,8.026372522289106,6.344742027179942,4.60677308980587
0.111,9.086132834240804,2.848944720498144,9.994746117664885,3.99713275877437,6.360292983968562,2.1371694752545594
0.112,9.107751253100284,-0.8740344781536766,10.018526378410314,-0.2828160433466014,6.375425877170199,-0.06403013116079492
0.113,9.128772835115576,-3.1062533339389153,10.041650118627135,-2.8411874757396127,6.390140984580903,-1.7871711880927617
0.114,9.149198029280011,-3.830263476032651,10.064117832208014,-3.270638841304031,6.404438620496007,-2.252996180170486
0.115,9.169027336618353,-2.614152921445549,10.085930070280188,-2.1512880739553975,6.418319135632847,-1.5575033583911644
0.116,9.18826131007134,-0.44561884839674004,10.107087441078475,0.23108918429192116,6.431782917049937,0.18647309367444898
0.117,9.206900554375213,2.4819896004064503,10.127590609812735,3.1744495805190027,6.444830388062649,2.146105705445737
0.118,9.224945725936184,5.438503616632668,10.147440298529803,6.509742932599764,6.4574620081553284,4.347171282119039
0.119,9.242397532699936,8.094304343978829,10.16663728596993,9.205173322362324,6.469678272889955,6.055597387569273
0.12,9.259256734016097,9.763212771118653,10.185182407417708,11.05255055299633,6.481479713811267,7.14697441567914
0.121,9.275524140497758,10.642811646432214,10.203076554547534,12.578469217437547,6.492866898348431,7.800403966910801
0.122,9.291200613876011,11.446919929920734,10.220320675263613,14.046417598307087,6.5038404297132075,8.584039943203951
0.123,9.306287066849553,12.69709796123734,10.236915773534509,14.830466752939419,6.514400946794686,9.378297068237135
0.124,9.32078446292935,13.996968073441455,10.252862909222285,16.22569251137474,6.524549124050544,10.343582102239823
0.125,9.334693816278396,15.32537556224604,10.268163197906237,17.716008770059158,6.534285671394876,10.909363084057418
0.126,9.34801619154658,16.618238892451473,10.28281781070124,19.181794611498276,6.543611334082606,11.769430953161246
0.127,9.360752703700658,17.24581309119455,10.296827974070725,20.13090806260862,6.5525268925904605,12.407735880262928
0.128,9.372904517849397,17.033038490170284,10.310194969634338,19.920388162987486,6.561033162494578,11.914675370628483
0.129,9.384472849063851,15.395717743439464,10.322920133970237,17.81703111720872,6.569130994344695,10.801735619434902
0.13,9.395458962192835,12.378074828409776,10.33500485841212,14.105927695832591,6.576821273534985,8.648450667021242
0.131,9.405864171673603,8.7817545501528,10.346450588840964,9.878489986261622,6.584104920171521,5.872396630642427
0.132,9.415689841337734,5.092676754213175,10.357258825471508,5.520485553997944,6.590982888936414,3.0509886887566227
0.133,9.42493738421227,1.625088491788091,10.367431122633498,1.3109548961327118,6.5974561689485895,1.024972853091188
0.134,9.433608262316135,-0.49280199426368476,10.37696908854775,-0.5499407897222621,6.6035257836212935,-0.1947629936782178
0.135,9.441703986451794,-0.2579824806002424,10.385874385096974,-0.9345836333937054,6.609192790516255,-0.39797935165608234
0.136,9.449226115992277,1.1906218492733291,10.394148727591505,0.5748623548014855,6.614458281194593,0.8582392486176795
0.137,9.4561762586635,4.027088446447856,10.401793884529852,3.275627616968576,6.61932338106445,2.3567514599122354
0.138,9.462556070321966,7.203748318635509,10.408811677354164,6.64339652401377,6.623789249225376,4.412125202392306
0.139,9.468367254727813,10.114130651491442,10.415203980200594,10.152593750660278,6.627857078309469,6.6721114256245935
0.14,9.473611563313298,11.810317658364536,10.42097271964463,12.604317205052098,6.631528094319308,8.174187576837781
0.141,9.478290794946707,12.819712835781147,10.426119874441378,14.48874448169763,6.634803556462694,9.032001348257644
0.142,9.482406795691702,13.401656329296948,10.430647475260873,15.085503290244878,6.637684756984191,9.325541311498734
0.143,9.485961458562159,13.150970389882113,10.434557604418375,15.128773329790096,6.640173020993511,9.21823592504872
0.144,9.488956723272521,12.948554419903083,10.437852395599775,14.827535292665072,6.642269706290764,9.226030772444439
0.145,9.49139457598367,13.114940143145311,10.440534033582036,14.738666530743378,6.6439762031885685,9.083247286331417
0.146,9.493277049044373,13.308600416698049,10.44260475394881,15.117768947091738,6.645293934331061,9.585979197841361
0.147,9.494606220728304,13.546251780897094,10.444066842801135,15.504807513585984,6.646224354509813,9.4714819928652
0.148,9.495384214966695,13.587752173394279,10.444922636463366,15.243327859498892,6.646768950476686,9.544180823471773
0.149,9.495613201076615,12.843811746197048,10.445174521184278,14.190675661350392,6.6469292407536305,8.92752036854861
0.15,9.495295393484954,10.761843478571649,10.44482493283345,11.875848493410743,6.646706775439467,7.388812244763897
0.151,9.494433051448059,8.024938632524595,10.443876356592865,8.629600185709545,6.646103136013641,5.345067543205238
0.152,9.493028478767169,4.30158253170851,10.442331326643886,4.7842638296103,6.645119935137018,3.0187250686001548
0.153,9.491084023499546,0.9841364881795069,10.440192425849501,1.088616456863976,6.643758816449682,0.7516510207335516
0.154,9.488602077665455,-1.3850025740584293,10.437462285432002,-1.4221660910272735,6.642021454365818,-1.2584650752812188
0.155,9.485585076950926,-2.4122024227743992,10.43414358464602,-2.5500468679659836,6.639909553865648,-1.8797654116187168
0.156,9.482035500406411,-1.6876592848015637,10.430239050447053,-1.8529322944145346,6.6374248502844875,-1.5167425985124439
0.157,9.477955870141287,0.51072766810716,10.425751457155416,0.7519487529937319,6.6345691090989005,0.35912595585607043
0.158,9.473348751014328,4.0964141715334605,10.42068362611576,4.622031700355111,6.631344125710029,3.0237136185643396
0.159,9.46821675032008,7.781012704341427,10.415038425352089,9.114369799098222,6.627751725224056,5.620796782919626
0.16,9.462562517471255,11.44836794456421,10.408818769218382,12.999450377800464,6.623793762229878,7.91250319333873
0.161,9.456388743677138,14.233655462902101,10.402027618044853,16.256965007693736,6.619472120573996,9.821205873102624
0.162,9.449698161618043,15.974124084257571,10.394667977779848,17.88828249461974,6.61478871313263,10.915652967034507
0.163,9.442493545115852,16.22344553174962,10.386742899627437,18.73486147098357,6.609745481581096,11.282576594735868
0.164,9.434777708800691,16.056413408024124,10.378255479680762,18.393170256370983,6.604344396160483,11.184425473289636
0.165,9.426553507773752,15.624219740244149,10.369208858551128,17.835542377812118,6.598587455441626,10.785954780683738
0.166,9.417823837266303,15.11214239613605,10.359606220992934,17.43083619575836,6.592476686086411,10.460218611192857
0.167,9.408591632294945,14.877772717077722,10.34945079552444,17.26303957782821,6.586014142606461,10.128662416434096
0.168,9.398859867313115,14.655947561087405,10.338745854044427,17.007868865787778,6.57920190711918,9.82033534089615
0.169,9.388631555858904,13.597859956822155,10.327494711444794,16.904257055034826,6.572042089101233,9.5721519113311
0.17,9.377909750199194,12.319240590261337,10.315700725219115,15.50674151313728,6.564536825139435,8.873621048088532
0.171,9.3666975409702,10.84457611428228,10.303367295067222,12.885651078322674,6.55668827867914,7.466269530031873
0.172,9.354998056814399,8.258833740987212,10.290497862495839,9.79371144180901,6.548498639770079,5.429509191094339
0.173,9.342814464013909,5.012423230053544,10.2770959104153,6.458960216877522,6.539970124809736,3.4937395811666807
0.174,9.330149966120391,2.1856953920667177,10.26316496273243,3.2744454958906806,6.531104976284274,1.704686873735934
0.175,9.31700780358143,0.3137313544875795,10.248708583939573,0.747846436396248,6.521905462507,0.43680725984078794
0.176,9.303391253363527,0.03321711543568817,10.23373037869988,-0.014399732649406971,6.512373877354468,0.0915882595459454
0.177,9.289303628571663,1.0096825735299486,10.21823399142883,0.9723274155223613,6.502512540000163,0.6702341742109326
0.178,9.274748278065541,3.460961591484736,10.202223105872095,3.6675942244288153,6.492323794645879,2.652586431725403
0.179,9.259728586072473,6.913581430679939,10.18570144467972,7.568363727604691,6.481810010250731,5.197126594056416
0.18,9.244247971797048,10.568102468845897,10.168672768976753,11.82036692153385,6.470973580257933,7.656113547825784
0.181,9.22830988902751,13.658241617671935,10.151140877930262,15.172725142631686,6.459816922319257,9.976840755835092
0.182,9.211917825738986,15.770928666548734,10.133109608312886,17.30102071839638,6.44834247801729,11.316410199257213
0.183,9.195075303693534,16.36988565498448,10.114582834062888,18.213569087085702,6.436552712585473,11.883009183206092
0.184,9.177785878037115,15.791327769424559,10.095564465840827,17.381734612820395,6.42445011462598,11.60451727972057
0.185,9.160053136893463,14.755507046932411,10.07605845058281,15.630965944673134,6.412037195825424,10.635032754485103
0.186,9.141880700954951,12.798228649592469,10.056068771050448,14.232345131507907,6.399316490668466,9.251543321141567
0.187,9.123272223070467,11.256318514353303,10.035599445377514,12.330819876050182,6.386290556149326,8.182275985513666
0.188,9.104231387830358,9.77827136078007,10.014654526613395,10.55832489071137,6.37296197148125,7.354949370515081
0.189,9.084761911148467,9.058914264517876,9.993238102263314,9.310098544907824,6.3593333378039265,6.572398991374092
0.19,9.064867539841323,8.424315519775561,9.971354293825456,7.992852002755913,6.345407277888926,5.900662023235568
0.191,9.044552051204521,7.1100162009666485,9.949007256324974,7.228292437848298,6.331186435843164,5.368456132768087
0.192,9.023819252586343,5.365245808985527,9.926201177844977,5.50550469992357,6.31667347681044,4.437278315050741
0.193,9.002672980958634,3.438306409918643,9.902940279054498,3.0498000009902535,6.301871086671043,2.850275049005274
0.194,8.98111710248504,1.1435664077532008,9.879228812733546,0.7826548829150379,6.2867819717395275,0.9550159081488623
0.195,8.959155512086577,-0.4429577124496209,9.855071063295235,-0.8500678744871468,6.271408858460603,-0.16186444850856851
0.196,8.936792133004632,-1.6197237142797416,9.830471346305096,-1.8814603659239975,6.255754493103242,-0.5353460988287289
0.197,8.914030916361419,-0.8835634649269402,9.805434007997562,-0.9393978690689764,6.239821641452993,-0.010350549983490609
0.198,8.890875840717941,1.6592343258072235,9.779963424789736,1.2882047941444803,6.2236130885025585,1.3458847436243042
0.199,8.8673309116295,5.162789172962646,9.75406400279245,4.850698145294104,6.207131638140649,3.818930907628254
0.2,8.843400161198787,9.251189762461008,9.727740177318665,9.969079053793712,6.190380112839151,6.620018476830547
0.201,8.819087647626652,13.330462747948273,9.700996412389319,14.489291008149543,6.173361353338656,9.721239393380344
0.202,8.794397454760514,16.76009308966621,9.673837200236566,18.190555573955827,6.156078218332359,12.024154939524546
0.203,8.769333691640556,18.98999261168756,9.646267060804613,20.74786331131515,6.138533584148389,13.372292697047143
0.204,8.74390049204365,19.177630191977887,9.618290541248015,21.304774239613206,6.120730344430555,13.692860538491605
0.205,8.718102014025147,18.203882890989526,9.589912215427663,20.25659171191675,6.102671409817603,12.949322844941307
0.206,8.691942439458552,16.361657641841404,9.561136683404408,18.121963417488324,6.084359707620986,11.723561235434442
0.207,8.665425973573068,14.435848341500325,9.531968570930376,15.502697709950692,6.0657981815011475,10.011303060927249
0.208,8.63855684448918,12.704536506942674,9.502412528938098,13.266152209257275,6.046989791142426,8.910355594274332
0.209,8.611339302752206,11.008370218296227,9.472473233027427,11.607435624366135,6.027937511926544,7.816819332980735
0.21,8.583777620863946,9.609540929708206,9.442155382950341,10.313624566578676,6.008644334604762,6.93273744396279
0.211,8.555876092812435,8.747351578647415,9.411463702093679,9.484719731938089,5.9891132649687036,6.1522482960518925
0.212,8.52763903359985,7.82462481341741,9.380402936959836,8.53543858256463,5.969347323519895,5.435322841840451
0.213,8.499070778768669,6.779320844858695,9.348977856645536,7.217038755506604,5.949349545138068,4.512593472717282
0.214,8.470175683926028,5.021020691865377,9.317193252318631,5.342037298786175,5.929122978748219,3.329202497569494
0.215,8.440958124266466,3.0312682188012143,9.285053936693114,3.3072797221318053,5.908670686986525,2.0240627103058992
0.216,8.411422494092951,1.575432690354683,9.252564743502248,1.7926532706999971,5.887995745865066,0.9011824816348151
0.217,8.381573206336393,0.8978459106892842,9.219730526970032,0.8522509377750254,5.867101244435474,0.6216125970610946
0.218,8.351414692073535,1.4783887431851719,9.186556161280889,2.22296660175098,5.8459902844514735,1.2778350514954386
0.219,8.32095140004344,3.3518025325760616,9.153046540047784,3.8617638871017794,5.8246659800304075,2.565788886227907
0.22,8.29018779616245,6.3111541860031775,9.119206575778694,7.2523810717254635,5.8031314573137145,4.7842258623384275
0.221,8.25912836303783,10.235359826888557,9.085041199341614,11.516827849440627,5.7813898541264805,7.157188241457394
0.222,8.227777599480001,13.867794391778071,9.050555359428003,15.589214558931431,5.759444319636001,9.587286431149701
0.223,8.196140020013551,16.311247266133087,9.015754022014907,18.234500664410014,5.737298014009486,11.69791724296776
0.224,8.164220154386934,17.588717429655883,8.980642169825629,19.287061944388597,5.714954108070853,12.617328131064404
0.225,8.13202254708104,16.640683962711392,8.945224801789143,18.666628528728097,5.6924157829567275,12.267787557139727
0.226,8.099551756816574,14.574658808916062,8.909506932498232,16.148786529411634,5.669686229771601,10.654881112588502
0.227,8.066812356060401,11.741780131703269,8.873493591666442,12.70907558236836,5.64676864924228,8.498884758651016
0.228,8.033808930530784,8.86358699655022,8.837189823583863,9.512884893357725,5.6236662513715485,6.228853955659765
0.229,8.000546078701703,6.020663406033299,8.800600686571874,6.711349957775149,5.6003822550911915,4.45716563465597
0.23,7.967028411306167,4.287522907901105,8.763731252436784,4.55131557527602,5.5769198879143165,3.244500275947323
0.231,7.933260550838723,2.9965906994537415,8.726586605922595,3.460525011647757,5.553282385587106,2.408982981476811
0.232,7.899247131057032,2.6217998247701715,8.689171844162736,2.871620614387897,5.529472991739922,2.1277282864895573
0.233,7.86499279648276,2.657926676718235,8.651492076131037,2.3722342972956136,5.505494957537931,1.7865406536192356
0.234,7.830502201901646,2.0663140489748457,8.61355242209181,1.74173443442006,5.4813515413311515,1.5661071215363966
0.235,7.795780011862973,1.5442882068813217,8.575358013049271,1.3247120765048077,5.457046008304081,1.3158515740688372
0.236,7.760830900178323,1.0462394511188329,8.536913990196156,0.5469221203040568,5.432581630124826,1.0928931240696258
0.237,7.725659549419841,0.48301727626354296,8.498225504361825,0.4394828288301742,5.4079616845938885,0.6760154460526318
0.238,7.690270650417884,1.0247128861102395,8.459297715459673,0.8821698076066831,5.383189455292518,1.1657288390478984
0.239,7.654668901758282,2.4470962395050684,8.420135791934111,2.881739415290715,5.358268231230797,2.5352914289317248
0.24,7.61885900927909,5.003863060210617,8.380744910207,5.650192377841869,5.333201306495362,4.164167129113278
0.241,7.582845685567045,8.581478083970543,8.34113025412375,9.413514501597547,5.307991979896931,6.442135575671749
0.242,7.54663364945363,12.49585335311027,8.301297014398994,13.876416549235305,5.2826435546175405,9.43881169418168
0.243,7.510227625510939,16.26471649917667,8.261250388062033,17.756326094013957,5.257159337857657,11.84628505262961
0.244,7.47363234354725,18.709064380816542,8.220995577901975,20.491275631852517,5.231542640483075,13.490046595028344
0.245,7.436852538102515,19.969776674637263,8.180537791912768,21.362491233327752,5.20579677667176,14.185696530221506
0.246,7.3998929479436475,18.845826121090845,8.139882242738013,20.191131174112343,5.179925063560553,13.339421912685147
0.247,7.3627583155598275,16.455119818015973,8.09903414711581,17.451958704900115,5.153930820891879,11.633079030310608
0.248,7.3254533866577285,13.051811512456114,8.057998725323502,13.324617113605289,5.127817370660409,9.080418595463694
0.249,7.287982909656843,9.287551208769008,8.016781200622528,9.89571865375187,5.1015880367597894,6.762981477377812
0.25,7.2503516351848445,6.643999517012455,7.97538679870333,6.528828850057064,5.075246144629391,4.796230260783729
0.251,7.212564315573152,4.602518730016739,7.933820747130468,4.430672794840606,5.048795020901206,3.3724478447941775
0.252,7.174625704352627,3.384874545412309,7.89208827478789,2.868622689543705,5.022237993046838,2.6287327113482624
0.253,7.136540555749578,3.200646294514626,7.850194611324537,2.468299843648757,4.995578389024704,2.4284737116717814
0.254,7.098313624182009,3.522851906625908,7.808144986600211,2.7555902842747475,4.968819536927406,2.4791881915069
0.255,7.059949663756272,3.456186631458432,7.7659446301319,3.3783580666756503,4.94196476462939,2.5523420070064002
0.256,7.0214534277640634,3.3883280432471086,7.7235987705404705,3.432106413974516,4.915017399434844,2.6192023092278394
0.257,6.982829668179929,3.364026709026743,7.681112634997922,3.3267971968796344,4.88798076772595,2.1944624677200792
0.258,6.944083135159224,3.2677014372256554,7.638491448675147,3.1121732386747,4.860858194611457,2.389422026207724
0.259,6.905218576536675,3.757880455848517,7.595740434190343,3.572877800396359,4.833653003575672,2.6836437073493005
0.26,6.866240737325496,4.905738052211893,7.552864811058046,4.904090841267898,4.806368516127847,3.8466908225886387
0.261,6.827154359217225,6.721924948001491,7.509869795138948,7.362568316616358,4.779008051452057,5.344740602639075
0.262,6.7879641800821995,9.53079059354296,7.46676059809042,10.781544411394686,4.75157492605754,7.296317414347175
0.263,6.748674933470865,12.451530501038958,7.423542426817953,14.008479837668851,4.7240724534296055,9.457125319219317
0.264,6.709291348115822,14.948296293177592,7.380220482927404,16.75110835205509,4.696503943681075,10.983668812023994
0.265,6.6698181474348015,16.16896672194259,7.336799962178282,18.095003589015196,4.668872703204361,11.72612561665322
0.266,6.630260049034488,15.924527296893189,7.293286053937938,17.698295278674934,4.6411820343241414,11.474824013920156
0.267,6.59062176421538,13.896711683828194,7.249683940636919,15.772968829847024,4.613435234950766,10.094215491184448
0.268,6.550907997477579,10.779803242216941,7.205998797225337,12.213989870945468,4.5856355982343056,7.919409979972395
0.269,6.5111234460277165,6.941631088471554,7.162235790630489,7.888706320297565,4.557786412219401,5.132501881993013
0.27,6.471272799286959,2.9071419671501597,7.118400079215656,3.598858754895547,4.529890959500871,2.626225989994807
0.271,6.431360738400166,0.15054042444781235,7.074496812240183,0.05792066881188784,4.501952516880116,0.09930818688081278
0.272,6.391391935746305,-1.7798919831527087,7.030531129320936,-1.7446495038150767,4.473974355022413,-0.8845864791407632
0.273,6.351371054450077,-2.4595586858298812,6.986508159895085,-2.083761670257065,4.445959738115054,-1.2840756553287127
0.274,6.311302747894917,-1.6280101837165013,6.942433022684409,-1.271540938145253,4.417911923526441,-0.7854681532188286
0.275,6.271191659237288,-0.5545502019755313,6.898310825161017,-0.01764995720874385,4.389834161466101,0.19386710794923978
0.276,6.23104242092246,0.7947357656946545,6.854146663014706,1.2127910798098096,4.361729694645722,0.8946568952553395
0.277,6.1908596542016845,1.680224929937955,6.809945619621853,2.57538979033432,4.333601757941179,1.8757102570960784
0.278,6.150647968650945,2.5374375682397434,6.7657127655160405,3.7619305803316063,4.305453578055661,2.5749731848755872
0.279,6.110411961691203,3.4021220937040604,6.721453157860324,4.824238938824445,4.277288373183842,3.3774058664866313
0.28,6.070156218110315,4.488287128819766,6.677171839921346,5.823767964682503,4.24910935267722,4.1162690992904
0.281,6.029885309586552,6.123429206612528,6.632873840545208,7.727934274700558,4.220919716710586,5.247299968206796
0.282,5.989603794213879,8.538537627167418,6.588564173635268,9.846586165313445,4.192722655949716,6.744632043880429
0.283,5.94931621602894,11.603272948368236,6.5442478376318345,13.247643421435768,4.164521351220258,8.588309340826314
0.284,5.9090271045398755,14.246567404843567,6.499929814993863,16.34999022086975,4.136318973177913,10.527214279126234
0.285,5.868740974256994,15.943100827023535,6.455615071682694,18.74664874407766,4.108118681979896,12.107281961117167
0.286,5.82846232422531,17.189441537146813,6.411308556647842,20.063219103024128,4.079923626957717,12.829005434159285
0.287,5.788195637559081,16.397944961095327,6.36701520131499,19.091422346664263,4.051736946291356,12.15838782160347
0.288,5.7479453809782655,13.998994293313668,6.322739919076093,16.498763824723177,4.023561766684786,10.489520961431614
0.289,5.707716004347111,10.36738267140921,6.278487604781822,12.324239641195241,3.9954012030429773,7.998614973566767
0.29,5.667511940214732,6.032660686199665,6.234263134236206,7.426883930051656,3.9672583581503122,4.786821488157801
0.291,5.627337603357918,2.1642187393501073,6.19007136369371,3.240724607910032,3.9391363223505422,2.210395167512443
0.292,5.5871973903260335,-0.7138748431197017,6.145917129358637,0.10163537814810475,3.9110381732282233,0.14093363614935228
0.293,5.547095678988222,-2.062804006216586,6.101805246887045,-2.03383118465518,3.882966975291755,-0.9146040196732805
0.294,5.507036828082819,-2.1934844748710107,6.057740510891101,-1.9201807916263416,3.8549257796579726,-0.7667854906513805
0.295,5.467025176769138,-1.5734378595065657,6.013727694446052,-0.759559793770042,3.826917623738396,-0.19554647320093999
0.296,5.427065044181566,-0.08711685370433386,5.969771548599723,1.2379921087492747,3.798945530927096,0.8311385683287229
0.297,5.387160728986127,1.9639678955899709,5.9258768018847405,3.167118806385462,3.771012510290289,1.7124919231045683
0.298,5.347316508939439,3.259410600396958,5.882048159833384,4.906324706412773,3.743121556257607,2.7035588131102766
0.299,5.307536640450233,4.387306886666653,5.838290304495257,6.150113611394189,3.715275648315163,3.537784200137855
0.3,5.267825358143346,4.933907256202496,5.794607893957681,6.819763959995395,3.6874777507003422,3.6882279895168506
0.301,5.228186874426374,5.792072245547876,5.751005561869012,7.648705253694335,3.6597308120984615,4.016603536321274
0.302,5.188625379058888,6.791108227842903,5.707487916964777,8.792226027499755,3.6320377653412215,4.7383593503312
0.303,5.149145038724393,7.924208042057293,5.664059542596833,9.965739218537529,3.604401527107075,5.681059223710203
0.304,5.109749996604938,9.46649907050394,5.620724996265432,11.600743687066025,3.5768249976234565,6.857296711791154
0.305,5.070444371958542,10.90205150575262,5.5774888091543975,13.166602258432325,3.549311060370979,8.078569976887927
0.306,5.03123225969939,12.234863039608218,5.534355485669329,14.46056087575754,3.521862581789573,9.105563652247922
0.307,4.9921177299809045,11.978696724365337,5.491329502978996,14.1998575720317,3.494482410986633,9.06355571770293
0.308,4.953104827781667,10.485350077489183,5.448415310559834,12.088967940204004,3.467173379447167,8.045081355738146
0.309,4.914197572494326,7.657923124326007,5.40561732974376,8.719000077669298,3.4399383007460282,6.083428235941003
0.31,4.875399957517412,3.9145941272314126,5.362939953269153,4.438802625632128,3.412779970262188,3.0964166045950314
0.311,4.836715949850232,-0.2385375468608455,5.320387544835255,0.05963347788428042,3.3857011648951625,0.27299626575062996
0.312,4.798149489690758,-4.0618583415686045,5.277964438659834,-3.5471959895780296,3.3587046427835303,-2.433198234483563
0.313,4.759704490036671,-6.543769153260911,5.235674939040338,-5.894363311228916,3.3317931430256693,-4.029333746457349
0.314,4.721384836289494,-7.3479875857068,5.193523319918444,-6.638761356769236,3.3049693854026456,-4.337563949199225
0.315,4.683194385861908,-6.836705151306514,5.1515138244481,-5.820066919680177,3.2782360701033353,-3.738497246336505
0.316,4.645136967788326,-4.418364204131358,5.109650664567159,-3.8658437424275505,3.251595877451828,-2.051055660996687
0.317,4.6072163823386525,-1.3638139140327707,5.067938020572518,-0.8236157977847638,3.2250514676370567,-0.32022423314101545
0.318,4.569436400635408,1.3622582358274715,5.02638004069895,2.2801879163723964,3.1986054804447854,1.7227250841986983
0.319,4.5318007642741245,4.108024028537204,4.984980840701537,4.957372312632824,3.172260534991887,3.4355149429656677
0.32,4.494313184947167,5.870036934145668,4.943744503441884,7.0719997792714455,3.1460192294630165,4.259645667438096
0.321,4.456977344070912,7.247118559152155,4.902675078478004,8.486538802456757,3.1198841408496385,5.170998594681965
0.322,4.419796892416423,8.306370073631811,4.861776581658066,9.45010706523611,3.0938578246914963,5.385208474152142
0.323,4.382775449743562,9.209004943155044,4.821052994717919,10.353540155325959,3.0679428148204932,6.1116729289829745
0.324,4.345916604438667,9.969199441073561,4.780508264882534,11.278793055457797,3.042141623107067,7.032754003930638
0.325,4.309223913155743,11.39562806633684,4.740146304471318,12.59669416859957,3.01645673920902,7.947004545895945
0.326,4.2727009004612935,12.750309963442788,4.699970990507423,13.752627022172417,2.9908906303229053,8.856714203385568
0.327,4.236351058482729,13.257578881895736,4.659986164331002,15.05183564754983,2.96544574093791,9.635738008616821
0.328,4.200177846560496,12.883112185655289,4.620195631216546,14.996559794713999,2.9401244925923473,9.24743581458735
0.329,4.164184690903849,11.147053338581788,4.580603159994235,12.733749294181793,2.9149292836326945,7.85800148993914
0.33,4.128374984250415,7.973607421742126,4.541212482675458,9.491892523113822,2.8898624889752904,6.0589070202785225
0.331,4.092752085529465,4.163217214173051,4.502027294082412,4.953129971909574,2.8649264598706257,3.393260992141151
0.332,4.057319319529055,0.142634030641124,4.463051251481962,0.654356820057135,2.8401235236703384,0.772266662806393
0.333,4.022079976566935,-3.032300461464308,4.4242879742236285,-3.0782642917718066,2.8154559835968542,-1.7920304688956188
0.334,3.987037312165387,-5.088481178266416,4.385741043381926,-5.2672075880533,2.7909261185157708,-3.521350594153646
0.335,3.9521945467299187,-5.4878002525921525,4.347414001402911,-5.351578288596032,2.7665361827109427,-3.822008847565127
0.336,3.917554865231928,-4.445014555146404,4.309310351755121,-3.8307761160835057,2.7422884056623493,-2.884998377274087
0.337,3.883121416895297,-1.4183892690674895,4.271433558584827,-0.9013965099475492,2.718184991826708,-1.1666996908752814
0.338,3.848897314887025,1.548284448275306,4.233787046375728,2.5061946837810525,2.694228120420917,0.9216692169250968
0.339,3.8148856360118426,4.216032107107395,4.196374199613027,5.448001671336199,2.6704199452082897,2.705616983279079
0.34,3.781089420410936,6.555302987811054,4.15919836245203,7.5189437437473625,2.646762594287655,4.318062369452232
0.341,3.7475116712647107,7.872550334051683,4.122262838391182,8.830091093522542,2.6232581698852973,5.208183909944196
0.342,3.7141553544997175,8.425089927732586,4.08557088994969,9.233952596781158,2.599908748149802,5.243974061703878
0.343,3.6810233984996916,8.475815534376311,4.0491257383496615,9.034213851016233,2.576716378949784,5.213494413918813
0.344,3.6481186938207983,8.477648526792699,4.012930563202879,8.668801303555435,2.5536830856745585,5.117963260514676
0.345,3.615444092911062,8.179564594493442,3.9769885022021687,8.65546269379968,2.5308108650377434,5.291770893549737
0.346,3.5830024098340374,8.348276139944806,3.9413026508174416,9.133681184985953,2.508101686883826,5.360847703201827
0.347,3.5507964199967583,8.161662450194477,3.9058760619964343,8.818743819835344,2.4855574939977307,5.638980259903841
0.348,3.5188288598819355,7.873967175847424,3.8707117458701292,8.312244698964001,2.4631802019173548,5.611646559036771
0.349,3.48710242678452,7.005508801700385,3.835812669462972,7.301808179997121,2.4409716987491636,4.787757813413604
0.35,3.4556197785525606,4.803122460241337,3.801181756407817,4.707924340813447,2.418933844986792,3.480481996875434
0.351,3.4243835333324704,2.3132410109156183,3.7668218866657175,1.2182768738302308,2.397068473332729,1.5763744436431348
0.352,3.3933962693186492,-1.187093851379995,3.7327358962505146,-2.0379986417578775,2.3753773885230545,-0.7161602852418834
0.353,3.3626605245075565,-4.910630119307963,3.6989265769583124,-5.538681249338687,2.353862367155289,-3.0288441785298232
0.354,3.3321787964562013,-7.213522651128035,3.6653966761018215,-7.626048521969477,2.3325251575193406,-4.793140900184045
0.355,3.30195354204512,-7.74729001823144,3.632148896249632,-9.108274649350026,2.311367479431584,-5.692474206685798
0.356,3.271987177245819,-7.450040463867454,3.599185894970401,-7.771985103157922,2.2903910240720733,-4.976278524087229
0.357,3.242282076892762,-4.869886511521626,3.5665102845820384,-5.421826772342045,2.2695974538249333,-3.497125053262292
0.358,3.2128405744598574,-1.5013743276717593,3.5341246319058435,-1.2953481330803127,2.2489884021219,-1.013384961789694
0.359,3.18366496184154,2.4862464126898653,3.5020314580256944,2.588434829073984,2.228565473289078,1.9352229538586447
0.36,3.154757489138409,5.877145694847755,3.4702332380522503,6.684998835667508,2.2083302423968862,4.334050133522799
0.361,3.126120364447458,8.804446902062086,3.438732400892204,9.774653845937136,2.1882842551132207,6.241740309283983
0.362,3.0977557536569647,10.298420408202233,3.407531329022661,11.380452124844721,2.168429027559875,7.104325756446492
0.363,3.069665780245983,11.003100916836512,3.3766323582705815,11.588761640352953,2.148766046172188,7.395669149129221
0.364,3.041852525088518,10.501869431165307,3.34603777759737,11.253648636083378,2.1292967675619625,7.080575326821995
0.365,3.014318026262373,9.884825802317097,3.3157498288886105,10.702973779122935,2.110022618383661,6.595221402349501
0.366,2.987064278862709,8.900663770752457,3.28577070674898,9.893183701373118,2.090944995203896,6.343395424240388
0.367,2.9600932348203015,9.127253867504471,3.2561025583023318,9.515217633409321,2.072065264374211,6.220275964170397
0.368,2.933406802724554,9.217705269751804,3.22674748299701,9.230894743363422,2.053384761907188,5.952130838908197
0.369,2.9070068476512523,9.064291308358822,3.197707532416378,8.772964597727212,2.0349047933558766,5.628939287749315
0.37,2.880895190995096,8.132598765690513,3.168984710094606,7.1802574469715115,2.0166266336965673,4.77028566900116
0.371,2.8550736103070076,5.93013091709891,3.1405809713377084,4.933215236941314,1.9985515272149053,3.3548725882942794
0.372,2.829543839136263,3.0938779973432924,3.112498223049889,2.0207818427844266,1.980680687395384,1.2944839850686085
0.373,2.804307566877406,-0.06145716848523941,3.084738323565147,-1.4634133403971035,1.963015296814184,-0.9399212793743004
0.374,2.779366438622046,-2.9852951588029386,3.0573030824842506,-4.86408045593916,1.945556507035432,-3.2242497773817003
0.375,2.7547220550154448,-5.309479890193182,3.0301942605169896,-6.815768083974986,1.9283054385108112,-4.288435260107474
0.376,2.7303759721180167,-6.174965723579884,3.0034135693298185,-7.205061668420888,1.9112631804826117,-4.507351579109244
0.377,2.7063297012716676,-5.378949034860029,2.9769626713988346,-5.828294767396347,1.8944307908901672,-3.4004486423356246
0.378,2.6825847089710386,-2.868357965349904,2.950843179868143,-3.062201912847519,1.8778092962797268,-1.460232919706749
0.379,2.659142416739649,0.6376457103037256,2.9250566584136144,0.8101966121826871,1.8613996917177542,1.0283580436069468
0.38,2.63600420101094,4.326810697807631,2.8996046211120343,5.231653990364328,1.845202940707658,3.3110661372750165
0.381,2.613171393014259,7.5941218311319005,2.874488532315685,8.899575095012313,1.8292199751099811,5.6816503048196925
0.382,2.59064527866576,9.379527544637048,2.8497098065323363,11.391240942394653,1.813451695066032,7.278906948940747
0.383,2.568427098464264,9.909959139252976,2.825269808310691,12.073745118323556,1.7978989689249847,7.540933057995371
0.384,2.5465180473920634,9.215459527509953,2.8011698521312702,11.493853276625753,1.7825626331744442,7.180948808688699
0.385,2.524919274820694,8.003043768324549,2.7774112023027637,9.990449038777692,1.7674434923744855,6.1678759589679535
0.386,2.503631884421682,6.327448547742396,2.7539950728638507,8.302543593358969,1.7525423190951772,4.902847367042534
0.387,2.4826569340822626,4.807184313938942,2.730922627490489,5.920140707368915,1.7378598538575838,3.8228953946940494
0.388,2.4619954358261067,3.3876855671379227,2.7081949794087175,4.527955369676595,1.7233968050782746,2.9815541499606937
0.389,2.4416483557390185,2.5024676633677627,2.6858131913129206,3.6748832225619674,1.7091538490173128,2.1578848836910303
0.39,2.4216166138996558,1.51637278853773,2.6637782752896215,2.9272199910861225,1.695131629729759,1.6731317158760814
0.391,2.401901084315253,0.2891318805383001,2.6420911927467787,1.5145802231179637,1.681330759020677,0.6541998428335909
0.392,2.382502594862352,-1.190394120568175,2.6207528543485874,-0.22809213301512,1.6677518164036462,-0.4082831369302682
0.393,2.3634219272325687,-3.355051292292525,2.5997641199558257,-2.413230773198997,1.654395349062798,-1.832331069394125
0.394,2.3446598168833717,-5.567775310252032,2.579125798571709,-4.6757618181676435,1.64126187181836,-3.521507939783196
0.395,2.326216952993895,-7.452171577100554,2.5588386482932846,-6.755827576196497,1.6283518670957264,-4.663866828229073
0.396,2.308093978425778,-8.554502902749032,2.538903376268356,-7.797618845284628,1.6156657848980447,-5.5895743145502355
0.397,2.2902914896890554,-8.08812119359754,2.519320638657961,-7.378344142296649,1.6032040427823386,-5.18266965259206
0.398,2.2728100369130715,-6.017286050103159,2.500091040604379,-4.882055213840593,1.59096702583915,-3.673331712190787
0.399,2.2556501238224396,-2.533641925907263,2.4812151362046837,-0.8661742325845765,1.5789550866757076,-1.0121373510428782
0.4,2.2388122077180492,1.4582631157881811,2.4626934284898545,3.9590646977833317,1.5671685454026343,2.052184598463242
0.401,2.222296699463114,5.693403549540548,2.444526369409426,8.705877901099738,1.5556076896241797,4.705885978987193
0.402,2.2061039634742547,9.468542360952815,2.4267143598216805,12.467524840022753,1.5442727744319782,7.085036106727761
0.403,2.1902343177176444,11.74697561204606,2.409257749489409,14.543127729528326,1.533164022402351,8.800533551392181
0.404,2.174688033710181,12.245009937214553,2.3921568370811994,14.853827411566957,1.5222816235971266,9.125800887486768
0.405,2.159465336525713,11.15802783715117,2.3754118701782847,14.005821133941861,1.511625735567999,8.319369347808195
0.406,2.1445664048063042,9.381935165894426,2.3590230452869347,12.106001341716501,1.501196483364413,7.004129191207025
0.407,2.129991370778531,7.404955921304033,2.3429905078563844,9.593863306802152,1.4909939595449715,5.676015437053242
0.408,2.1157403202748313,5.676387668997317,2.3273143523023148,7.2676747409830105,1.4810182241923817,4.085658138750286
0.409,2.1018132927598687,3.973645805625239,2.3119946220358556,5.45449545484381,1.471269304931908,2.809179054887593
0.41,2.088210281361948,2.6576011510688002,2.297031309498143,4.395397743559784,1.4617471969533635,2.0017240905615745
0.411,2.074931232909436,1.9292215905452266,2.2824243562003796,3.507424675379821,1.4524518630366052,1.319380858236854
0.412,2.061976047972218,1.0959339824864613,2.26817365276944,2.2785361778296385,1.4433832335805523,0.7921264847760163
0.413,2.0493445809081665,-0.13987187534251566,2.2542790389989835,0.921532046201007,1.4345412066357164,-0.12621162784401307
0.414,2.037036639914625,-1.8719517705583755,2.2407403039060876,-1.2998096639261534,1.4259256479402374,-1.1976694332340345
0.415,2.0250519870848827,-3.8628658510051244,2.227557185793371,-3.4136541029850354,1.4175363909594179,-2.1912279911911625
0.416,2.0133903384696703,-5.117561939088356,2.2147293723166377,-5.410582681400377,1.409373236928769,-3.3479847217911605
0.417,2.0020513641436244,-5.503007419578747,2.202256500557987,-6.242167569270135,1.401435954900537,-3.621572996502043
0.418,1.9910346882767485,-4.904434680121237,2.1901381571044234,-5.653711232947622,1.3937242817937239,-3.048501651937487
0.419,1.9803398892108435,-2.499193509285432,2.178373878131928,-3.8166451752899047,1.3862379224475903,-1.8165471438811416
0.42,1.969966499540913,0.722600818583987,2.1669631494950043,0.040038024910493686,1.378976549678639,0.6050965295636124
0.421,1.9599140062015126,4.428898397708885,2.155905406821664,4.119013065011047,1.3719398043410587,3.041874503117703
0.422,1.9501818505580548,7.734259701748668,2.1452000356138603,8.019355973807883,1.3651272953906384,5.323237445399673
0.423,1.9407694285030574,9.994755646746952,2.134846371353363,10.7394198787296,1.3585385999521402,7.035061233247834
0.424,1.9316760905572998,11.022054022974784,2.12484369961303,12.131978673121452,1.3521732633901098,7.709367677079381
0.425,1.9229011419759177,10.559060687437496,2.11519125617351,11.844559543728945,1.3460307993831422,7.28578716757119
0.426,1.9144438428593826,9.037222740639287,2.105888227145321,9.749182021282204,1.3401106900015678,5.749189138621532
0.427,1.9063034082693822,6.1179067418999304,2.0969337490963205,6.61880937760674,1.3344123857885675,3.8335277017981566
0.428,1.898479008349577,3.090088788216026,2.088326909184535,2.734623579329125,1.3289353058447038,1.657850360642874
0.429,1.8909697684512272,0.16306105760769274,2.08006674529635,-0.25896665902218485,1.323678837915859,-0.1989745364680946
0.43,1.883774769263657,-1.7726517424888661,2.072152246190023,-2.247927871598586,1.3186423384845598,-1.4568994712447976
0.431,1.8768930469495766,-2.914972014656011,2.0645823516445345,-3.2280142413402784,1.3138251328647035,-2.032519424096347
0.432,1.8703235932852076,-3.6533727204689947,2.0573559526137286,-3.696659763053054,1.3092265152996452,-2.478568325824809
0.433,1.864065355805229,-3.6578774033799526,2.050471891385752,-3.568890412525088,1.3048457490636602,-2.7629876417043953
0.434,1.858117237952511,-4.0420002822961285,2.0439289617477625,-4.167658857273906,1.3006820665667576,-2.8808463703245444
0.435,1.85247809923262,-4.357535171289053,2.037725909155882,-4.946021664813807,1.2967346694628339,-3.0756560820417023
0.436,1.8471467553730863,-4.964522921761804,2.031861430910395,-5.516220555968446,1.2930027287611603,-3.488206847103848
0.437,1.842121978487417,-5.3347684176919685,2.026334176336159,-5.563962870049004,1.2894853849411918,-3.6898177416305122
0.438,1.8374024972438239,-5.042406722555985,2.0211427469682066,-4.784364565678019,1.2861817480706765,-3.4096006155582144
0.439,1.8329869970386614,-3.5560917506852023,2.0162856967425276,-3.5963474819723995,1.283090897927063,-2.418459309161654
0.44,1.8288741201745573,-0.5210520418252886,2.011761532192013,-0.5872769916278879,1.2802118841221901,-0.5612545292883051
0.441,1.8250624660431978,2.932891663997858,2.007568712647518,3.6207297420202784,1.2775437262302383,1.9906726460451025
0.442,1.821550591312775,7.066047565251855,2.0037056504440525,8.184572809422622,1.2750854139189425,4.889491987310979
0.443,1.8183370101200547,10.57954169383469,2.00017071113206,12.200953423207093,1.2728359070840383,7.515493310363499
0.444,1.8154201942670474,13.137149993838182,1.9969622136937524,14.809538637589434,1.270794135986933,9.084061204189268
0.445,1.8127985734222793,13.963635383822815,1.9940784307645074,14.969531016948174,1.2689590013955954,9.6537227034075
0.446,1.8104705353266182,12.712953084624647,1.9915175888592802,14.37852799332537,1.2673293747286327,8.876543670652772
0.447,1.8084344260036413,10.308783245028652,1.9892778686040056,11.792717313520232,1.265904098202549,7.136718894109101
0.448,1.806688549974532,7.421120833618595,1.9873574049719853,7.900532402845384,1.2646819849821722,4.838274867214023
0.449,1.8052311704774624,3.977287275259496,1.9857542875252088,3.999689253137118,1.2636618193342235,2.5545200297638244
0.45,1.8040605096914613,1.1756568037902042,1.9844665606606076,0.8088134348609795,1.2628423567840228,0.46693355453003726
0.451,1.803174748964727,-0.8368946326434901,1.9834922238611998,-1.3174004233436976,1.2622223242753088,-0.885663649851822
0.452,1.8025720290473677,-1.7471555466513626,1.9828292319521046,-2.75816744286936,1.2618004203331572,-1.752812711999181
0.453,1.8022504503285388,-2.1890633425675556,1.9824754953613928,-3.220675289995576,1.2615753152299771,-2.0675454579204193
0.454,1.8022080730779644,-2.103024832307689,1.982428880385761,-2.907989049149146,1.261545651154575,-1.9730575794987846
0.455,1.8024429176918,-1.8023011742106951,1.9826872094609802,-2.8382937441142757,1.26171004238426,-1.368537390154962
0.456,1.802952964942829,-1.9621707070556997,1.983248261437112,-3.242832673329261,1.2620670754599803,-1.5308311114097024
0.457,1.80373615623495,-1.9795391037514807,1.9841097718584453,-3.5634817506982506,1.262615309364465,-1.6559080574410396
0.458,1.8047903938619356,-2.3063936563462595,1.9852694332481293,-3.566351321069342,1.2633532757033548,-1.6600517393051273
0.459,1.8061135412704337,-1.8856757859792266,1.9867248953974772,-3.3741461958610994,1.2642794788893035,-1.3647076888716754
0.46,1.8077034233271956,-0.6968155207050264,1.9884737656599154,-1.5197719554712785,1.2653923963290368,-0.5754826025309745
0.461,1.8095578265904706,2.000918808591345,1.990513609249518,1.2040337252831814,1.2666904786133293,1.030154575061944
0.462,1.8116744995855782,4.736839305282886,1.9928419495441363,4.600617810909478,1.2681721497099048,2.9093918479200647
0.463,1.814051153084601,7.819233443505037,1.9954562683930614,7.979778972538496,1.2698358071592206,5.1020915470028125
0.464,1.816685460390171,9.8924157460021,1.9983540064291883,10.488664356115306,1.2716798222731196,6.787667984495105
0.465,1.8195750576233425,10.988325850445735,2.001532563385677,11.805755401756556,1.2737025403363396,7.87145981158794
0.466,1.8227175440154886,10.785982183474788,2.0049892984170374,11.835135224319853,1.275902280810842,7.418680808228203
0.467,1.826110482204212,8.789219788062043,2.0087215304246335,9.525097970992624,1.2782773375429484,6.055646069247655
0.468,1.8297513985332339,5.476729128815534,2.0127265383865574,5.942312400847349,1.2808259789732637,3.6242482704370143
0.469,1.833637783356227,1.4888762348947895,2.01700156169185,1.5716731279982914,1.2835464483493588,1.0149250557399347
0.47,1.837767091344562,-2.3405045612580526,2.0215438004790185,-2.627791267139296,1.2864369639411934,-1.5194023546264712
0.471,1.842136741798937,-5.6501562252227675,2.026350415978831,-5.914245743155197,1.2894957192592558,-3.9761575864982808
0.472,1.846744118964848,-7.353541186079955,2.031418530861333,-7.851484871563602,1.2927208832753934,-5.328265299445381
0.473,1.851586572351887,-7.771243672997915,2.036745229587076,-8.385778193167896,1.2961106006463208,-5.441448443238928
0.474,1.8566614170568054,-6.8787529177435855,2.0423275587624863,-7.72515855937565,1.2996629919397638,-4.984588275615312
0.475,1.8619659340903398,-5.463192741737602,2.048162527499374,-6.381836070344387,1.3033761538632378,-4.008237886579532
0.476,1.867497370707739,-4.672799309616977,2.054247107778513,-5.060618618859618,1.307248159495417,-3.04297938052365
0.477,1.8732529407429737,-3.590313411553918,2.060578234817271,-4.024379859232502,1.3112770585200815,-2.1827631047819045
0.478,1.8792298249465933,-2.2287291134211555,2.0671528074412526,-2.9970621612886315,1.3154608774626153,-1.3765682392028487
0.479,1.8854251713271757,-1.1353635807557827,2.073967688459893,-2.1316834785711354,1.319797619929023,-0.9232350565956939
0.48,1.8918360954963678,0.13318338027454946,2.0810197050460046,-0.7705123161919842,1.3242852668474574,-0.1530499089772419
0.481,1.8984596810174428,1.7621800641480552,2.0883056491191874,0.9889628958238672,1.32892177671221,0.937253122490175
0.482,1.9052929797573674,4.313572684113076,2.095822277733104,3.3112812658729034,1.3337050858301571,2.687284979457451
0.483,1.9123330122423248,6.864304854039805,2.1035663134665574,6.913832900337597,1.3386331085696273,4.535149726551477
0.484,1.9195767680166638,9.625462978263588,2.1115344448183304,10.000137024948653,1.3437037376116645,6.703419457178325
0.485,1.9270212060052332,11.931686465173886,2.1197233266057567,12.030678448367297,1.3489148442036631,8.198062850370267
0.486,1.9346632548790637,13.030219605902092,2.12812958036697,13.378330921020606,1.3542642784153445,8.968991078805471
0.487,1.9424998134243556,12.411361007754802,2.1367497947667915,12.637227354269593,1.359749869397049,8.416989116501723
0.488,1.9505277509147518,10.190548852378736,2.1455805260062273,10.1943000038347,1.3653694256403262,6.94750615163397
0.489,1.9587439074868187,6.672222303950407,2.154618298235501,6.415331476488991,1.371120735240773,4.646519106532528
0.49,1.967145094518746,2.5045792071097748,2.163859603970621,2.19512980129501,1.377001566163122,1.8823316790286801
0.491,1.9757280950121707,-1.0645544829178717,2.173300904513388,-1.92275540751797,1.3830096665085194,-0.9402149689201671
0.492,1.9844896639771443,-3.5897004739293275,2.182938630374859,-5.360762861555129,1.389142764784001,-2.7431480818438083
0.493,1.9934265288201418,-5.139936391907479,2.192769181702156,-7.196903856144371,1.3953985701740992,-3.7013886724100136
0.494,2.0025353897351255,-5.475601050674836,2.2027889287086384,-7.489418942817789,1.4017747728145877,-3.850425166820993
0.495,2.0118129200975825,-4.468711707844319,2.212994212107341,-6.313039800800041,1.4082690440683077,-3.071920078760249
0.496,2.0212557668615254,-2.78614206150296,2.223381343547678,-4.275966140052033,1.4148790368030677,-1.696765328241752
0.497,2.0308605509593827,-1.5038090480732569,2.233946606055321,-2.4568487532526415,1.4216023856715678,-0.6404930757543228
0.498,2.0406238677047766,0.20515356181644484,2.2446862544752544,-0.960426538369737,1.4284367073933435,0.19779566120763992
0.499,2.0505422871980974,1.0372651004066613,2.255596515917907,0.035557564918546225,1.4353796010386681,0.8461713498880438
0.5,2.0606123547348876,1.5364245074274658,2.2666735902083763,0.7285516217895623,1.4424286483144213,1.1032126795417434
0.501,2.0708305912169314,2.148707146501799,2.2779136503386246,1.7027694363863395,1.449581413851852,1.5918072226654316
0.502,2.0811934935660705,3.047201077859178,2.2893128429226777,2.778757045999763,1.4568354454962493,2.3804139784073364
0.503,2.0916975351406473,4.510437517453131,2.3008672886547124,4.658401018985289,1.464188274598453,3.3959068467332734
0.504,2.1023391661545654,6.445037362475771,2.312573082770022,6.508112110635297,1.4716374163081958,4.51414728842087
0.505,2.1131148140989167,8.399295025633815,2.3244262955088084,8.424347601603628,1.4791803698692416,5.83039941729386
0.506,2.1240208841661135,9.62618316377702,2.336422972582725,9.62176527271039,1.4868146189162794,6.5595493921124035
0.507,2.1350537596765173,9.366975633303214,2.348559135644169,9.687358615066689,1.4945376317735621,6.417364426273592
0.508,2.146209802507475,7.864453403378916,2.3608307827582227,8.221486553056595,1.5023468617552325,5.431014026538748
0.509,2.1574853535247573,5.01843594832566,2.373233888877233,5.100883168221731,1.5102397474673301,3.6002010942204343
0.51,2.1688767330163254,1.2431648165664289,2.3857644063179584,1.4998543339816384,1.5182137131114277,0.8246448152853808
0.511,2.180380241128406,-2.7609513220390065,2.398418265241247,-2.704413961465601,1.5262661687898842,-1.818134994701591
0.512,2.191992158303792,-6.30480562468296,2.4111913741341713,-6.7860080602390624,1.5343945108126542,-4.310297571790759
