time,gyro_x,gyro_y,gyro_z,setpoint_roll,setpoint_pitch,setpoint_yaw,throttle
0.0,0.040064216667609925,0.24522362687496183,0.22893344430175583,0.0,0.1783068598768347,0.1932653061713073,0.37982264349025796
0.001,0.093685228345393,0.28105206602237126,0.22922079354314076,0.006785695469794662,0.18244377717738547,0.19448798360832317,0.3894325338839819
0.002,0.12835223298498838,0.30041356738406927,0.2348305521233754,0.013570522990037852,0.18656756783340503,0.1957051136472884,0.383826453097488
0.003,0.08646083777661213,0.23614835277663673,0.21987846242374817,0.020353614722196406,0.19067793514234255,0.19691666157189464,0.38602304193683123
0.004,0.01764905334983105,0.16382278699653935,0.19114725398124563,0.027134103049759564,0.19477458336744344,0.19812259282505268,0.3867644604858978
0.005,-0.04537023714595123,0.08426298076794692,0.1678956698362175,0.033911120689214716,0.19885721775902732,0.1993228730098782,0.38045783792444376
0.006,-0.07890930973755067,0.08277945989447413,0.1465379941274527,0.040683800800980455,0.20292554457569478,0.2005174678906727,0.37120912368954245
0.007,-0.06498809729565166,0.1261634929266348,0.15488418155707095,0.047451277100282956,0.20697927110546196,0.20170634339390028,0.39531638812850356
0.008,-0.04129389445047224,0.16073271335480446,0.15148930134066604,0.05421268396796135,0.21101810568682092,0.20288946560915913,0.405403556435346
0.009,0.0003282092542394796,0.19591676877920222,0.14522383996671734,0.060967156561187896,0.21504175772972411,0.2040668007901491,0.406349729916123
0.01,0.006140725363472654,0.20571460470811298,0.16758562230627638,0.067713830924089,0.2190499377364923,0.20523831535563422,0.3799580183610768
0.011,0.012561529308905483,0.19978203111234266,0.17397548928321707,0.07445184409825262,0.22304235732264358,0.2064039758904003,0.3779572826358817
0.012,0.04460247528401231,0.24417496295717783,0.1989480007895367,0.08118033423310818,0.22701872923764224,0.20756374914620826,0.3802619788454588
0.013,0.06485747448475913,0.22030141654539193,0.18630718466756727,0.08789844069616477,0.23097876738556622,0.20871760204274242,0.3849613178421839
0.014,0.07861534420261523,0.23761597316090607,0.21131839827134574,0.09460530418309357,0.2349221868456914,0.20986550166855403,0.38659979541747375
0.015,0.15452319690552507,0.23105769153533867,0.2222412175155284,0.10130006682764033,0.23884870389299154,0.2110074152819999,0.37541210758783644
0.016,0.1643955921894828,0.20223203677301996,0.22813962907390925,0.10798187231135387,0.24275803601855162,0.21214331031217656,0.3697883027193914
0.017,0.07998896303574904,0.14519185243578675,0.2076062876429679,0.11464986597311683,0.24664990194989436,0.2132731543598491,0.3883022859483595
0.018,0.04062483453530583,0.12858855943376632,0.20581084055020907,0.12130319491846409,0.2505240216712175,0.21439691519837514,0.3454958759634358
0.019,-0.01743290308396277,0.16044351654880412,0.18545377750100162,0.12794100812867554,0.2543801164435405,0.2155145607746245,0.38681067166820554
0.02,-0.036518401950246956,0.2224978030138263,0.18612361363551785,0.1345624565696287,0.25821790882475965,0.216626059209893,0.3768393118570512
0.021,0.018885227308605517,0.3008423300617206,0.15026738531961756,0.14116669330039763,0.26203712268960955,0.21773137880081186,0.39769582837784717
0.022,0.0768048906613754,0.31032187976272396,0.15448212883705795,0.14775287358158398,0.26583748324953044,0.21883048802025215,0.4010632446371385
0.023,0.16427065378327257,0.33381771616131206,0.17294575662604308,0.15432015498336663,0.2696187170724385,0.21992335551822387,0.4015041883514868
0.024,0.24734935474930472,0.29581529306372056,0.18866659594944857,0.16086769749325572,0.2733805521023993,0.2210099501227702,0.3846494507433087
0.025,0.24821680768830212,0.24183159301364165,0.19295691696887574,0.16739466362353755,0.2771227176792018,0.22209024084085657,0.3753426201495908
0.026,0.20928433520279183,0.18438275244938682,0.2304337553065313,0.1739002185183966,0.2808449445578323,0.22316419685925482,0.37934673625962145
0.027,0.1436726683484864,0.1931482519551358,0.24978589560104247,0.1803835300607009,0.2845469649278461,0.22423178754542192,0.39273062873404585
0.028,0.10872805455851844,0.18008403804294076,0.24972898245707761,0.1868437689784369,0.28822851243263614,0.22529298244837379,0.36968634392468985
0.029,0.08402768409498189,0.2112498786893232,0.23783292376940843,0.19328010895078082,0.2918893221885974,0.22634775129955387,0.40631668911404445
0.03,0.06531331745988518,0.22132903482834698,0.22053290695073766,0.19969172671379196,0.295529130804185,0.22739606401369641,0.3857838729107093
0.031,0.10525023832191907,0.30570440263408044,0.22043762657410093,0.20607780216571572,0.29914767639886425,0.22843789068968462,0.3959108157604583
0.032,0.13267491475438947,0.34169902073722935,0.2015192135519513,0.2124375184718814,0.30274469862195375,0.22947320161140367,0.3686888769828086
0.033,0.16471787535418117,0.3621669556741728,0.17704486782772924,0.21877006216918268,0.3063199386713566,0.23050196724858799,0.37911142486330035
0.034,0.21827477125264577,0.3416994908712969,0.15882575579837285,0.2250746232701266,0.3098731393121811,0.23152415825766384,0.36751223832813884
0.035,0.2546818457817746,0.32091816435732756,0.16824483727524878,0.23135039536643792,0.313404044895249,0.23253974548258619,0.4027918008947544
0.036,0.26630265018057103,0.27249527135645873,0.18818615747791936,0.23759657573220588,0.3169124013754882,0.23354869995567032,0.3887721688839442
0.037,0.2667095572787473,0.20915448872245274,0.2025053135280293,0.24381236542655987,0.32039795633021234,0.23455099289841808,0.3977073438078529
0.038,0.2562535688962049,0.16918299538103285,0.2110337811860418,0.24999696939586072,0.3238604589772811,0.23554659572233871,0.39176966688033615
0.039,0.23608803453021812,0.21898497890702168,0.24129962041223263,0.2561495965753951,0.3272996601931447,0.23653548002976438,0.39678738129740115
0.04,0.22504082795011002,0.29252884391070777,0.24591765089862086,0.26226945999055973,0.33071531253076747,0.23751761761466006,0.3872733158267081
0.041,0.14256872766390685,0.3559594915058832,0.24466990399503413,0.26835577685752204,0.33410717023743164,0.23849298046342798,0.3890369680329441
0.042,0.1391751552631805,0.42117082774346215,0.240161603049342,0.27440776868334515,0.3374749892724189,0.23946154075570703,0.39053558240060904
0.043,0.17169216832305512,0.40945401959810707,0.2359323021256835,0.28042466136556393,0.34081852732456913,0.2404232708651657,0.39666076688063323
0.044,0.21614704276974456,0.37271819709414,0.21891708540365853,0.2864056852911996,0.34413754382971434,0.24137814336029068,0.3971353828576589
0.045,0.29821599296822,0.3087864591360637,0.20191093842958815,0.29235007543519936,0.34743179998798657,0.24232613100516884,0.4258439382898915
0.046,0.3262572995801283,0.2276124186743486,0.2028675999990461,0.2982570714582905,0.35070105878100016,0.24326720676026434,0.41244261409724264
0.047,0.3677431349027276,0.24562165366904348,0.20280030680896005,0.30412591780423376,0.353945084988904,0.24420134378318967,0.3710749349439408
0.048,0.39878244013001907,0.29034257040940387,0.19791559495831082,0.3099558637964663,0.35716364520730626,0.24512851542947142,0.3908593852754086
0.049,0.3271250159274049,0.3185353733099918,0.19742907796876782,0.31574616373411873,0.36035650786406714,0.24604869525331038,0.3878624703042276
0.05,0.26143823496192226,0.3568515442773721,0.19905336960053266,0.32149607698739796,0.36352344323596003,0.24696185700833562,0.4082513141859621
0.051,0.22689359593054112,0.3620776231017585,0.20371856862637916,0.327204868092319,0.3666642234652005,0.24786797464835308,0.3892572594568223
0.052,0.21533979580299514,0.39887626614236865,0.22416810333677537,0.3328718068447784,0.3697786225758397,0.24876702232808878,0.398774146603197
0.053,0.2091118028709385,0.38559217699783516,0.2460801142223294,0.3384961683939525,0.37286641649002406,0.2496589744039259,0.3653143439613436
0.054,0.2382462940994046,0.3857846035568558,0.2645303683018999,0.3440772333350133,0.37592738304411616,0.250543805434636,0.375352235535008
0.055,0.291813696863231,0.3871272885383707,0.2834137799598206,0.3496142878011457,0.3789613020046805,0.2514214901821049,0.4187792833752435
0.056,0.3659178778312074,0.40458204387942265,0.28409930000432604,0.3551066235548577,0.38196795508432807,0.2522920036120525,0.3944309760771978
0.057,0.36363511333174037,0.3393818226825728,0.2540482690802656,0.3605535380785704,0.3849471259574226,0.2531553208947469,0.38200275911931103
0.058,0.41847070454061036,0.2854905121947298,0.22227214541108403,0.36595433466447547,0.38789860027564443,0.25401141740571237,0.3970549238985874
0.059,0.4358498890530651,0.2842034801186267,0.19818598935511664,0.3713083225036507,0.390822165683413,0.2548602687264321,0.38165991789740694
0.06,0.41614776207345866,0.3029581894751433,0.17595745520231834,0.37661481677442027,0.39371761183316567,0.2557018506450443,0.391052252494181
0.061,0.38272334741533665,0.3627375857168327,0.17250386206458315,0.3818731387299493,0.3965847304004917,0.2565361391570331,0.37717738705851844
0.062,0.3169949758367618,0.42688156169795777,0.18779129478337764,0.3870826157850616,0.39942331509912116,0.25736311046591315,0.38530017263414545
0.063,0.28141218264166673,0.47812096816338256,0.22920698565603811,0.3922425816022693,0.40223316169576695,0.2581827409839082,0.38992476938938725
0.064,0.284934133126873,0.4914094531994638,0.24604797223015085,0.39735237617700286,0.40501406802481943,0.25899500733262415,0.4085251412584854
0.065,0.29937092393645,0.42671117337402975,0.2657882407061003,0.402411345922032,0.4077658340028916,0.25979988634371565,0.40080119872187653
0.066,0.35861282713058695,0.37356083679977176,0.27463821742147465,0.4074188437510644,0.4104882616432153,0.2605973550595471,0.40305078943527145
0.067,0.41746857717819313,0.312819364573318,0.27464050253318595,0.4123742291615143,0.41318115506988584,0.2613873907338475,0.3952350167043387
0.068,0.46596463106866726,0.30558011975946936,0.2706666315381908,0.41727686831642813,0.4158443205319554,0.262169970832359,0.40557427027175674
0.069,0.5117650402565839,0.33030840000366546,0.24879125984182565,0.4221261341255579,0.4184775664173728,0.2629450730334798,0.38537357539514067
0.07,0.467174748663469,0.35433000608583304,0.2510377621756294,0.4269214063255712,0.42108070326677016,0.263712675228901,0.38721901770021144
0.071,0.43323636256866427,0.4264416038409542,0.2458915414705322,0.43166207155938857,0.42365354378709424,0.2644727555242368,0.40105822109849654
0.072,0.41873121782555783,0.4689540419077503,0.25201713716566576,0.43634752345463745,0.42619590286508174,0.2652252922396495,0.39297295546152144
0.073,0.3834934297529495,0.492900065808955,0.22598623570853935,0.4409771627012117,0.4287075975805783,0.26597026391046735,0.39631212647368386
0.074,0.3698580218142347,0.4728849456580901,0.2235362226554091,0.4455503971279292,0.43118844721969934,0.2667076492877971,0.3946641623541797
0.075,0.3593403996739503,0.4600430377710093,0.21813991033552144,0.45006664177827566,0.43363827328783205,0.26743742733913023,0.41183065613353104
0.076,0.4020237882465626,0.42124131813669335,0.20838361533788055,0.4545253189852255,0.4360568995224782,0.26815957724894235,0.41261130816671937
0.077,0.40859243647453897,0.40751766149365926,0.20018673424662678,0.45892585844513056,0.43844415190593594,0.2688740784192873,0.38958606192137296
0.078,0.4243299121835558,0.32388423178736275,0.22861895797938128,0.46326769729066675,0.4407998586778199,0.2695809104703849,0.3761369531284689
0.079,0.45858455942599374,0.32298118018338284,0.2646080561117522,0.46755028016282996,0.44312385034741975,0.2702800532412015,0.38887271280467456
0.08,0.5175696201389804,0.3762628933301429,0.30539004543036247,0.4717730592819713,0.4454159597058945,0.27097148679002575,0.3868024001735473
0.081,0.562504605755981,0.4289524678694092,0.30026914456560466,0.47593549451786243,0.4476760218383028,0.2716551913950371,0.40770210424360037
0.082,0.531160363938713,0.4971572242496259,0.2926651675541401,0.48003705345878334,0.44990387413546895,0.27233114755486815,0.40892225191333503
0.083,0.5142749716901883,0.5435086415296506,0.27381073272859935,0.48407721147962257,0.45209935630568215,0.27299933598916143,0.3856585057617915
0.084,0.45521135837808496,0.5310343462957196,0.24944515754740126,0.48805545180898097,0.4542623103862295,0.2736597376391187,0.38913240826179
0.085,0.42382737339853144,0.48794190660462766,0.24189805311289836,0.4919712655952713,0.45639258075476075,0.274312333668045,0.38059335727542776
0.086,0.3589322760272251,0.39703062357321056,0.18935127535714494,0.4958241519718052,0.45849001414048574,0.27495710546188584,0.4001090130265128
0.087,0.3544504988843531,0.3639190222475954,0.19705648909420617,0.4996136181208578,0.4605544596352021,0.2755940346297579,0.3981124094125867
0.088,0.4270234224302471,0.38604526523717697,0.2239453467376299,0.5033391793367038,0.4625857687041524,0.2762231030044739,0.40827575943574446
0.089,0.5114087912661521,0.4011448518099137,0.24913748018830667,0.5070003590876154,0.46458379519671167,0.27684429264306076,0.4049267194455443
0.09,0.578301320998516,0.4480154143539238,0.26210963121380665,0.510596689076815,0.4665483953569021,0.27745758582727104,0.40643838095930257
0.091,0.606879170522021,0.4459069976519404,0.27916089072818623,0.5141277093023743,0.46847942783373725,0.2780629650640888,0.3807666772484374
0.092,0.6092640867740687,0.49551181042201314,0.2815606672707401,0.5175929681160526,0.4703767536913906,0.27866041308622824,0.3919095006414603
0.093,0.5654249236733573,0.48948361511852345,0.2795580603738279,0.5209920222810663,0.4722402364191934,0.27924991285262624,0.4109668469396985
0.094,0.47450304459486303,0.4791379746239923,0.2759749793091926,0.5243244370287835,0.4740697419414551,0.2798314475489285,0.39327178682302644
0.095,0.44391393774919974,0.49063395732916915,0.2825081093527157,0.5275897861143337,0.47586513862711116,0.28040500058796936,0.38035848538443295
0.096,0.42489207930560047,0.5203372174934984,0.2789016635266052,0.530787651871129,0.47762629729919265,0.2809705556102443,0.4097396810538151
0.097,0.4756547158726014,0.4762079652657422,0.2641385484101849,0.5339176252642865,0.47935309124412145,0.2815280964843772,0.3932711108684379
0.098,0.48457760590312426,0.43553732779718385,0.2515997011006721,0.5369793059429488,0.48104539622082637,0.28207760730758025,0.4131043738535278
0.099,0.5288673532586021,0.3952024475125632,0.23571830577005884,0.5399723022914908,0.4827030904696825,0.2826190724061071,0.40028614672165785
0.1,0.5456544482740834,0.3743422622605768,0.22713100351674023,0.5428962314796117,0.4843260547212719,0.2831524763357008,0.397334837731236
0.101,0.5748182450259082,0.3929478132689522,0.221464521587098,0.5457507195113019,0.4859141722049642,0.2836778038820336,0.41717406355866254
0.102,0.5411320468344034,0.47392791092819136,0.2243649324799963,0.5485354012726805,0.487467328657319,0.28419504006114116,0.38533816131177634
0.103,0.570362037615977,0.5393004004857751,0.2505048191904515,0.551249920578697,0.4889854123303065,0.2847041701198499,0.41833489274264996
0.104,0.6188308271320279,0.6133605417986959,0.2736015088772852,0.5538939302186895,0.4904683139993478,0.285205179536198,0.3936061303679279
0.105,0.6128492594377901,0.5751473987604582,0.2895066195248548,0.5564670920007967,0.49191592697117337,0.28569805401984927,0.40338095815978037
0.106,0.5874260418318696,0.5261521891706099,0.2866726795218339,0.5589690767952155,0.4933281470914996,0.286182779512501,0.4036484334090975
0.107,0.5290503775850349,0.4380237633384866,0.3030028129998068,0.5613995645762992,0.4947048727525228,0.2866593421882848,0.3966151780281481
0.108,0.46168944971813314,0.38522718502177633,0.3041995583975491,0.5637582444634921,0.4960460049002293,0.2871277284541611,0.39274924200822603
0.109,0.44428158573380716,0.3918230309043747,0.285731953029969,0.5660448147610933,0.4973514470415229,0.28758792495030694,0.3976106598436276
0.11,0.4370656355172567,0.3889714707285234,0.27186898242135643,0.5682589829968466,0.4986211052511668,0.28803991855049654,0.3900276590840558
0.111,0.5291447289161139,0.4871059514431117,0.26473856246406585,0.5704004659593499,0.49985488817854207,0.28848369636247634,0.42589977745212393
0.112,0.6323030700317371,0.5560253989937202,0.24515488767934543,0.5724689897342811,0.5010527070542197,0.28891924572833233,0.3967364697170417
0.113,0.7099451756954129,0.5848715204637481,0.2209269056538219,0.574464289739433,0.5022144756963476,0.2893465542248513,0.4165711531409221
0.114,0.7024480930120737,0.5475112322178655,0.2218828714273671,0.5763861107585568,0.5033401105168517,0.2897656096638748,0.4151435593196845
0.115,0.6665916654813472,0.5329417213690033,0.23606156772871598,0.5782342069740058,0.5044295305274494,0.29017640009264756,0.40732629133241294
0.116,0.6074946578953189,0.5232798964802725,0.24804701597060927,0.5800083419981777,0.5054826573454771,0.2905789137941574,0.40149658953610445
0.117,0.5224981057673397,0.463594549490553,0.2745024257057223,0.581708288903751,0.5064994151995297,0.2909731392874704,0.40560367633431893
0.118,0.4623946588116433,0.4511826233051849,0.2796080112540366,0.5833338302527105,0.5074797309349116,0.2913590653280576,0.41029784025804916
0.119,0.4814272177154038,0.4220936863343027,0.3208941151473161,0.5848847581241597,0.5084235340189011,0.29173668090811644,0.40479088602972474
0.12,0.521412077043243,0.43964314528428866,0.3254204496982806,0.5863608741409161,0.5093307565458244,0.2921059752568839,0.3849376905490905
0.121,0.5789131595348104,0.4505148884045458,0.31438113241059484,0.5877619894948845,0.5102013332419421,0.29246693784094463,0.38207230897152755
0.122,0.6321880161822749,0.5130865823817362,0.2713200493963848,0.5890879249712079,0.5110352014701446,0.29281955836453066,0.42215322209026457
0.123,0.61290133328714,0.5309201629511109,0.2729664070960656,0.5903385109711906,0.5118323012344594,0.2931638267698154,0.37258206742505184
0.124,0.6403255768670582,0.613782025833865,0.2563705523521926,0.5915135875339912,0.5125925751843682,0.29349973323720063,0.40670007910026085
0.125,0.6373490038850335,0.5599650395343858,0.23878880012570472,0.5926130043570826,0.5133159686189318,0.29382726818559624,0.40168529612279996
0.126,0.6084371119933237,0.5145646482970766,0.2373008682081497,0.5936366208154776,0.5140024294907273,0.2941464222726938,0.4065877730467555
0.127,0.6191713381140416,0.4883037451032931,0.2506249820259638,0.5945843059797161,0.5146519084095917,0.2944571863952328,0.39113163727423494
0.128,0.6290444816556715,0.4501545587199361,0.26490368332345815,0.5954559386326114,0.5152643586461765,0.29475955168926066,0.4091723986825183
0.129,0.6185324739603947,0.44945529591712824,0.2732535349610872,0.5962514072847557,0.5158397361353088,0.2950535095303852,0.40758944839440703
0.13,0.5289647068866623,0.4436455907258499,0.2717965028544313,0.5969706101887801,0.5163779994791624,0.29533905153402074,0.4384023261204236
0.131,0.5277374642376311,0.5078920011079544,0.2772486338043903,0.5976134553523691,0.5168791099502363,0.2956161695556273,0.4069828312048569
0.132,0.5232115706148124,0.535810923968753,0.29286749173179244,0.5981798605500276,0.517343031494141,0.295884855690943,0.4217547288600767
0.133,0.5311339106403962,0.5213518479102509,0.30255480609050556,0.5986697533335973,0.5177697307321923,0.2961451022762092,0.3877444677552747
0.134,0.5832352960993539,0.5186011643571179,0.30231740165387566,0.5990830710415246,0.5181591769638133,0.2963969018883895,0.4181225792238714
0.135,0.6921813966814461,0.5602542513301251,0.32411271352875465,0.5994197608068748,0.518511342168743,0.2966402473453811,0.40874940576681723
0.136,0.7391847497570474,0.5672270627490187,0.31241249995293974,0.5996797795640945,0.5188262010090525,0.29687513170621993,0.40942363215421
0.137,0.741073097978062,0.546709296300286,0.28505460574164604,0.5998630940545199,0.519103730830968,0.2971015482712785,0.4097421832856898
0.138,0.6723423782295156,0.49525867350524794,0.25295880836915646,0.5999696808306311,0.5193439116665003,0.29731949058245694,0.4269679625551802
0.139,0.5697221302848894,0.4770595539247242,0.23588456980516898,0.5999995262590511,0.5195467262348825,0.2975289524233673,0.4097056526537223
0.14,0.5351020080087148,0.4330812838292936,0.2248866774522202,0.5999526265222896,0.5197121599438121,0.29772992781951096,0.3973873797840051
0.141,0.4887117974205143,0.41764193087455265,0.21594825792679365,0.5998289876192316,0.5198402008905019,0.2979224110384488,0.39955798386909247
0.142,0.4695183112699177,0.4688972155057549,0.24745714570867056,0.5996286253643694,0.5199308398625355,0.2981063965899648,0.4169071168031388
0.143,0.5565561516079758,0.5527515948325561,0.29177626761136116,0.5993515653857808,0.5199840703385311,0.29828187922622273,0.41262334939550616
0.144,0.6398827023433599,0.6304556562244426,0.32069842415256944,0.5989978431218499,0.51999988848861,0.2984488539419158,0.3890404473697532
0.145,0.6932303829219943,0.6521295019411671,0.3229722781828966,0.5985675038167351,0.5199782931746723,0.2986073159744093,0.4137340309281614
0.146,0.6708888365996446,0.6099927159983235,0.3301970933577241,0.5980606025145816,0.5199192859504789,0.2987572608038766,0.3947223687119785
0.147,0.6789745968218962,0.5276881674003578,0.3112048836571764,0.597477204052481,0.5198228710615397,0.298898684153428,0.41312167132017924
0.148,0.6678344314082988,0.4706705996826217,0.297418330306532,0.5968173830521776,0.519689055444808,0.2990315819892327,0.39834797476121453
0.149,0.6369625297981432,0.3776881107206123,0.2640376671421899,0.5960812239105241,0.5195178487281817,0.299155950520634,0.4047888405124108
0.15,0.5821800228913435,0.3997628775705876,0.25539952713550523,0.5952688207886867,0.5193092632298102,0.2992717862002571,0.4017808678183251
0.151,0.5732868465126384,0.4896580915641452,0.2574202299730905,0.5943802776001001,0.5190633139572082,0.29937908572411065,0.42669742288576673
0.152,0.5888785058961662,0.5667393685746699,0.2558917087543704,0.5934157079971771,0.5187800186061763,0.2994778460316808,0.4134444875713019
0.153,0.5602001638274487,0.5882413625996398,0.268042674323011,0.5923752353567712,0.5184593975595272,0.2995680643060185,0.4239074676950817
0.154,0.574403258868356,0.6146166728482424,0.2605832603633133,0.5912589927643949,0.5181014738856199,0.29964973797382,0.4436684090616379
0.155,0.5616631764804366,0.5625904494213374,0.2682754431765964,0.5900671229971978,0.517706273336699,0.29972286470549986,0.40963921848254325
0.156,0.623631102243326,0.5300452206194255,0.2638062863007486,0.5887997785057041,0.5172738243470433,0.29978744241525784,0.42725308205467294
0.157,0.6556778549675246,0.5071212181567724,0.271455205342253,0.5874571213943123,0.516804158030918,0.29984346926113825,0.4009873265457838
0.158,0.6761361452944262,0.48505928965846495,0.2960958041516659,0.5860393234005609,0.5162973081803379,0.2998909436450823,0.42459087575387366
0.159,0.7316376920274528,0.47736223251326904,0.3197569818981061,0.5845465658731619,0.5157533112626351,0.29992986421297396,0.39999372526922805
0.16,0.6793861827363845,0.5059921798970636,0.3241383224839588,0.5829790397488044,0.5151722064178357,0.29996022985467846,0.40961429187927256
0.161,0.6006556621996348,0.4840928619862309,0.31573067493466517,0.5813369455277321,0.514554035455843,0.2999820397040738,0.4164291962887568
0.162,0.5308421822198438,0.4767011463656615,0.3080582375434856,0.5796204932480982,0.5138988428534301,0.29999529313907575,0.41846877895996504
0.163,0.5007895948609976,0.5107843124748725,0.2983481092278125,0.5778299024590987,0.5132066757510398,0.29999998978165543,0.39501867304382604
0.164,0.49836506530127855,0.5596945495909712,0.2756065271277545,0.575965402192891,0.5124775839493921,0.2999961294978501,0.4000362668846203
0.165,0.5406613969315693,0.6053102037293441,0.22885995326069133,0.5740272309352983,0.511711619905902,0.29998371239776694,0.4179291167232761
0.166,0.5641311334639917,0.596290512001223,0.2287929991271775,0.5720156365953051,0.5109088387309045,0.29996273883557995,0.40633025132616873
0.167,0.6289519399405941,0.6111964817856371,0.23020872494180028,0.5699308764733476,0.5100692981836904,0.29993320940951995,0.394125750698761
0.168,0.6925351365504511,0.4982293696482513,0.2501010053299295,0.5677732172284031,0.5091930586683496,0.2998951249618575,0.41019324303916255
0.169,0.6768611031909595,0.44759570001955046,0.2706551444764952,0.5655429348438814,0.5082801832294255,0.2998484865788785,0.4097682850698422
0.17,0.6580236265508224,0.40262260842511877,0.30472007936322054,0.5632403145923244,0.507330737547379,0.2997932955908538,0.413469850365203
0.171,0.5980388928942204,0.43627783543392473,0.31490965397840176,0.5608656509989173,0.5063447899338631,0.2997295535720009,0.4178486419573243
0.172,0.572856765950239,0.5186983014922294,0.3240548774085552,0.5584192478038159,0.5053224113268076,0.29965726234043893,0.4172363859159382
0.173,0.5569380274108098,0.5226533271957977,0.3188166310906396,0.5559014179232964,0.5042636752853149,0.2995764239581372,0.40258126387259535
0.174,0.5006475948780718,0.564024185826836,0.3047385097302914,0.5533124834097296,0.5031686579843686,0.29948704073085614,0.4070201185949724
0.175,0.5073136613596843,0.6006280804405896,0.2849478495865072,0.5506527754103887,0.5020374382093516,0.29938911520808137,0.42323419147919306
0.176,0.5200936512441582,0.585602314593907,0.275241124805837,0.5479226341250918,0.5008700973503782,0.2992826501829514,0.405733123337168
0.177,0.5118539413222885,0.5365942509175645,0.2560921435772982,0.5451224087626877,0.499666719396438,0.2991676486921775,0.407660799175831
0.178,0.5610904131917568,0.5136106570904051,0.2526002214189159,0.5422524574963893,0.4984273909293529,0.2990441140159575,0.3945011845252376
0.179,0.6405874318649603,0.46379174160913683,0.2425344461308577,0.5393131474179597,0.4971522011175479,0.2989120496778819,0.41235870484062265
0.18,0.650947644436123,0.411618356616104,0.2552147635955508,0.5363048544907583,0.4958412417096352,0.2987714594448335,0.4169965203519104
0.181,0.6411926488615605,0.4056604887820425,0.2575670825869889,0.5332279635016516,0.4944946070278132,0.2986223473268802,0.38929770766028415
0.182,0.6103528131973718,0.42087975343136325,0.2802348952400123,0.5300828680117955,0.4931123939610799,0.29846471757716003,0.4003109203378379
0.183,0.6038814846088733,0.4802706496533302,0.2977517550756861,0.526869970306296,0.49169470195826226,0.29829857469176047,0.3962434377693435
0.184,0.5266733543013168,0.5645179144096933,0.3046298269312773,0.5235896813427526,0.49024163302086043,0.29812392340958976,0.4229145900755657
0.185,0.47818846719815844,0.5935273463673327,0.29603337979573835,0.5202424206986941,0.4887532916957091,0.29794076871224195,0.39065628745790204
0.186,0.43784276671485206,0.6118518818356371,0.30043933646519094,0.51682861651791,0.48722978506745546,0.2977491158238548,0.4128103738688646
0.187,0.48234221115695985,0.5374870993911444,0.29400502869775635,0.513348705455688,0.48567122275085467,0.2975489702109606,0.42251896789004756
0.188,0.5503652360507263,0.47411101293610974,0.2957880855410822,0.5098031326229618,0.48407771688288287,0.2973403375823306,0.4163084614328551
0.189,0.5536444734667089,0.4108480646849914,0.2939107410728187,0.5061923515293774,0.4824493821146695,0.2971232238888116,0.40892502382585344
0.19,0.5938777849010494,0.37989507731614264,0.2736634221335432,0.5025168240252851,0.48078633560324774,0.2968976353231571,0.4185120210178715
0.191,0.6333516794334911,0.44626552157563204,0.2671030120992212,0.4987770202426651,0.4790886970031258,0.2966635783198496,0.4269478989325234
0.192,0.5980884252179473,0.4910397647091319,0.2568383171848461,0.49497341853499355,0.47735658845767703,0.29642105955491777,0.413362645225259
0.193,0.5996672278586584,0.5290911818471253,0.23193892764469773,0.49110650541605705,0.4755901345903529,0.296170085945746,0.3879364491722945
0.194,0.5228367098823485,0.5654667402545744,0.2520529492348203,0.4871767754977224,0.47378946249571546,0.29591066465087695,0.4287261469939668
0.195,0.46420006102055344,0.571856006070116,0.2623915379302266,0.4831847314266732,0.4719547017302938,0.2956428030698071,0.41990613288970474
0.196,0.44486900232688714,0.5140815621346272,0.2773564211066163,0.479130883820115,0.4700859843032623,0.2953665088427763,0.4148555901246313
0.197,0.4091366156417951,0.515347191720225,0.3010391373969917,0.47501575120046413,0.4681834446669423,0.2950817898505493,0.39163753965164816
0.198,0.420295549955089,0.46939184613155416,0.3328739680547794,0.4708398599290243,0.4662472197071289,0.2947886542141912,0.41197173968320844
0.199,0.4523274570305665,0.49082261833084173,0.34373966444261933,0.46660374413865907,0.4642774487332422,0.2944871102948359,0.4051951029313035
0.2,0.5005550077976306,0.47291256988699354,0.3291672558443421,0.4623079456654735,0.46227427346830396,0.2941771666934473,0.4012548109022946
0.201,0.5514699647393535,0.4177850564773083,0.2975470583941946,0.457953013979507,0.46023783803874063,0.2938588322505744,0.4143620467655692
0.202,0.5904738541791066,0.40688015408488465,0.2709862395031338,0.4535395061144517,0.45816828896401357,0.2935321160460988,0.40971706060946017
0.203,0.6021077217465772,0.4285875190892908,0.2449249782324673,0.44906798659640407,0.45606577514607755,0.29319702739897585,0.41065664624567694
0.204,0.5547890835057985,0.4781055080128734,0.22416320646829274,0.4445390273716554,0.45393044785866726,0.29285357586696886,0.42532246217427827
0.205,0.46830052543241824,0.5223033515556055,0.2235730221919561,0.43995320773353624,0.45176246073641274,0.29250177124637633,0.41966287052522
0.206,0.41489186119886245,0.5405464462149386,0.24127653168018925,0.43531111424831875,0.4495619697637863,0.29214162357175283,0.4107988311212691
0.207,0.3940928297027758,0.5958328558770295,0.2705439181236847,0.43061334068019114,0.44732913326387946,0.29177314311562247,0.40942538350485613
0.208,0.3699720497897948,0.5165156037335051,0.27431232470198424,0.4258604879153081,0.4450641118870113,0.29139634038818607,0.41158454938275735
0.209,0.3878574715734513,0.43216865376140623,0.29551409130872397,0.42105316388493436,0.4427670685991699,0.2910112261370213,0.4142223603724687
0.21,0.47180408366636206,0.3612850557053625,0.29969508757722063,0.41619198348768316,0.4404381686702879,0.2906178113467762,0.424349076999173
0.211,0.4760294337365345,0.341702967905984,0.29216248236167086,0.41127756851086616,0.4380775796623506,0.2902161072388559,0.40497848154711963
0.212,0.5498425585738251,0.39267802641676064,0.295225958024233,0.406310547550962,0.4356854714173404,0.2898061252711023,0.43513914660712183
0.213,0.4945144063323657,0.42491618800324393,0.2789975492518291,0.4012915559332121,0.43326201604501685,0.28938787713746755,0.42480375727892655
0.214,0.49985084265801905,0.4564704191150176,0.30362512123134805,0.39622123563035816,0.43080738791053325,0.2889613747676803,0.38507991929268354
0.215,0.5014826325230275,0.5561965230754801,0.28692062532764934,0.3911002351805274,0.4283217636218917,0.2885266303269057,0.41910775211907
0.216,0.4228525384257697,0.5366423172354071,0.2779860698100678,0.3859292096042792,0.4258053220172362,0.288083656215398,0.4307208513897494
0.217,0.3923633274806103,0.46920647750009287,0.26150240512760864,0.38070882032082276,0.4232582441519852,0.2876324650681471,0.4230448770866454
0.218,0.37283586867322666,0.4476994181580345,0.2490908565828498,0.3754397350634147,0.4206807132858051,0.2871730697545184,0.4135806532633767
0.219,0.3510239942988152,0.4124835928878735,0.2390267375711357,0.3701226277939518,0.41807291486942477,0.28670548337788515,0.41794392600300817
0.22,0.33947551928252684,0.38553597339764334,0.22443632801460592,0.36475817861676313,0.4154350365312924,0.28622971927525515,0.42096509321872966
0.221,0.3318720587655193,0.35613602199450883,0.23813660917338456,0.3593470736916215,0.4127672680640761,0.2857457910168903,0.4282084831969989
0.222,0.3486690320898791,0.3565709531570438,0.25514793513094125,0.3538900051459753,0.4100698014110086,0.28525371240591924,0.40214039999955503
0.223,0.46120866797816035,0.4227491074968264,0.29472407992729344,0.3483876709864202,0.4073428306520769,0.284753497477944,0.4120093756241986
0.224,0.485898229838804,0.47131959138812435,0.3185402423192943,0.34284077500941906,0.4045865519900584,0.2842451605006394,0.43908053465215285
0.225,0.4929275848127466,0.468196151909224,0.31054506703793616,0.3372500267112783,0.4018011637364041,0.28372871597334637,0.4199609085291913
0.226,0.45994449934249265,0.49369363697151875,0.29989510875856906,0.3316161411973989,0.39898686629697105,0.2832041786266579,0.4380482556249002
0.227,0.3704423125285742,0.4696859940161039,0.27297755657065076,0.32593983909080704,0.39614386215760256,0.28267156342199956,0.45568837788231065
0.228,0.33533711446675163,0.46892636077617594,0.26877425663471943,0.32022184643998036,0.39327235586956,0.2821308855512021,0.41410461842369206
0.229,0.26098626382068446,0.38647171668068214,0.24070168409374645,0.314462894625981,0.39037255403480536,0.28158216043606843,0.4057893802314942
0.23,0.23781327556915388,0.35978315536834077,0.23845778586337954,0.30866372026890376,0.3874446652911363,0.28102540372793394,0.41711804628286503
0.231,0.28520811145573083,0.3345317885372351,0.24251492708612668,0.30282506513365803,0.38448890029717525,0.28046063130721965,0.43363993128643574
0.232,0.3245165223246671,0.34834300217463776,0.22520201902040568,0.29694767603508804,0.3815054717172126,0.2798878592829796,0.43546631589250684
0.233,0.4113195523201403,0.42956346668503953,0.2649384966427223,0.29103230474244896,0.37849459420590553,0.2793071039924411,0.44801078481984885
0.234,0.4226196647774585,0.4257155273579497,0.2636553296443441,0.2850797078832503,0.37545648439283413,0.27871838200053894,0.4204528210593353
0.235,0.413090090006025,0.47461388697387624,0.2881132240003672,0.2790906468464751,0.3723913608669146,0.2781217100994429,0.42689854041349945
0.236,0.35944828751880503,0.4472945288899546,0.28422818622214296,0.2730658876851924,0.36929944416067273,0.27751710530807866,0.41264794390994786
0.237,0.33769806695463717,0.4120981531294327,0.277447762200179,0.2670062010185722,0.36618095673437623,0.27690458487164243,0.39125262029844937
0.238,0.3127887018372688,0.427061391021876,0.30465401153738975,0.26091236193331707,0.3630361229600294,0.2762841662611091,0.42100780968010787
0.239,0.29968512324336644,0.4060024138883897,0.28881501800157305,0.2547851498845208,0.35986516910522903,0.27565586717273377,0.4077857356755676
0.24,0.2591317996488773,0.34215347854587036,0.27229804175131755,0.24862534859597057,0.3566683233168855,0.27501970552754734,0.42949816005211194
0.241,0.25675516830412853,0.3385767679355579,0.27818121320074546,0.2424337459599005,0.35344581560480776,0.27437569947084495,0.39934818279945716
0.242,0.2389097891791834,0.31845831748582953,0.2580793288987552,0.23621113393621407,0.35019787782515366,0.27372386737166865,0.4131998790470429
0.243,0.26039854308713195,0.33757640391321664,0.24306040542057378,0.22995830845118628,0.3469247436637489,0.27306422782228323,0.4254309372423086
0.244,0.26326731230558703,0.33607352864452583,0.23409463273106082,0.22367606929565592,0.343626648619273,0.27239679963764635,0.4268339877602754
0.245,0.2668881860459841,0.36853132381743814,0.22593616735361405,0.21736522002272748,0.3403038299863159,0.27172160185487143,0.42194316754053957
0.246,0.33817225911908566,0.44619799228858525,0.2590193579697074,0.21102656784498783,0.3369565268383045,0.2710386537326849,0.4450673190071473
0.247,0.35903594034484787,0.45316434082159185,0.2560413857927668,0.20466092353125756,0.3335849800103019,0.27034797475087663,0.44163942074277296
0.248,0.37547251409995097,0.4334473454400901,0.24043773422903617,0.1982691013028873,0.3301894320816793,0.2696495846097448,0.41474054887334405
0.249,0.26442754574011634,0.3511080576774862,0.2757775803038931,0.19185191872961002,0.32677012735866223,0.26894350322953353,0.442411957953272
0.25,0.2060030159648441,0.2649947839338213,0.2891218823998059,0.1854101966249685,0.3233273118567542,0.2682297507498647,0.44439196386432794
0.251,0.1361920911386311,0.2227679728795158,0.2893068147338232,0.17894475894132475,0.31986123328303484,0.26750834752916375,0.4219051638353711
0.252,0.07093642252540418,0.24856161073469166,0.285758185204805,0.1724564326644698,0.31637214101833855,0.26677931414407896,0.4240832168659088
0.253,0.07825222541798972,0.30371698827966254,0.2879121673394297,0.1659460477078459,0.3128602860993115,0.2660426713888943,0.42307604896151835
0.254,0.1534199262371784,0.3755588898644123,0.282017573727895,0.1594144368063915,0.30932592120034896,0.26529844027493676,0.41609098420486873
0.255,0.2336877592496334,0.4325552624815125,0.2449756514457978,0.15286243541002933,0.30576930061541724,0.26454664202997646,0.41742917494461546
0.256,0.3261098016422935,0.45000032493641967,0.2201918036691711,0.1462908815768032,0.30219068023975626,0.26378729809762164,0.4399552090954738
0.257,0.3023509550475501,0.3927616508842639,0.18550849238095352,0.13970061586568394,0.29859031755146875,0.2630204301367067,0.42951794387855247
0.258,0.2897468006153139,0.3449117147081453,0.20067054821282565,0.13309248122905526,0.2949684715929949,0.26224606002067474,0.41776518825399594
0.259,0.2100858090324675,0.28597751768850443,0.2114313961832101,0.12646732290489107,0.29132540295247356,0.2614642098369535,0.4134494832494015
0.26,0.12257121784702073,0.2563065011432429,0.2230721915341568,0.11982598830864423,0.28766137374499484,0.26067490188632525,0.41561002519118806
0.261,0.10280658227006545,0.2732114217996792,0.27039056727860006,0.11316932692485288,0.2839766475937402,0.25987815868229086,0.4228869416420174
0.262,0.1094773819417257,0.3138526557344714,0.2986996114262821,0.1064981901984848,0.280271489611015,0.25907400295042754,0.4359570376780973
0.263,0.10985704208658016,0.285773801686048,0.2893899637944454,0.09981343142603095,0.27654616637917445,0.2582624576277408,0.41482376003050364
0.264,0.12036821762405918,0.3401550001173337,0.28878460023616986,0.09311590564635953,0.2728009459314423,0.25744354586200996,0.43611084014076135
0.265,0.1321749517849069,0.3153548978934,0.2707145256849737,0.0864064695313513,0.26903609773262743,0.25661729101112823,0.4277995057060526
0.266,0.12454066131984512,0.35783015770377435,0.24703772521458087,0.0796859812763215,0.2652518926597353,0.25578371664243615,0.4272956835004155
0.267,0.13534686852441113,0.3292513268256288,0.21642189494621658,0.07295530049025142,0.26144860298247863,0.25494284653204957,0.43803662940963106
0.268,0.12528351870676663,0.3044302320119244,0.2209242218225413,0.0662152880858351,0.25762650234368856,0.2540947046641814,0.43599281558430636
0.269,0.19795468020087098,0.37316523537307544,0.24050727138128233,0.05946680616936179,0.25378586573962497,0.2532393152304575,0.4091636714079415
0.27,0.21588563939557107,0.30478347086353413,0.2328695525299156,0.05271071793044589,0.2499269695001923,0.2523767026292269,0.4131550372488484
0.271,0.16765589999015185,0.21744091536698745,0.22392213924579293,0.04594788753161567,0.246050091269057,0.2515068914648655,0.4235542575415626
0.272,0.10525403165413046,0.1759466489856548,0.2181975308236044,0.03917917999778138,0.24215550998367152,0.25062990654707434,0.4307253234939519
0.273,0.025557316055273904,0.19857779810938742,0.2300597584790339,0.032405461105589284,0.23824350585520526,0.24974577289017236,0.44297369105441914
0.274,-0.038435042636562076,0.23775918712767435,0.24150733643263275,0.025627597272681994,0.23431436034838346,0.24885451571238235,0.4275246664759941
0.275,-0.05359056635561893,0.3155741678638731,0.24928659426271038,0.018846455446876947,0.23036835616123574,0.2479561604351121,0.4473332240415215
0.276,-0.05278149124901452,0.32507685964779975,0.2636943226740766,0.012062902995274348,0.22640577720475707,0.24705073268222918,0.4185537138162046
0.277,0.05216556106104484,0.34091015080990184,0.2909793611611629,0.005277807593315524,0.22242690858248018,0.24613825827932978,0.42072776680992524
0.278,0.14051843045607385,0.33919166578973675,0.2923123219009745,-0.0015079628862022286,0.21843203656996266,0.24521876325300246,0.4236553503554599
0.279,0.16210345693034742,0.25408201619488663,0.28591072292531866,-0.008293540484133305,0.21442144859419,0.24429227383008556,0.41766157883841987
0.28,0.1547106430531177,0.19160461519557556,0.24878921368784496,-0.015078057266002542,0.21039543321289458,0.24335881643691928,0.44152587057105364
0.281,0.10581326807283042,0.19046965015107206,0.2521260144893055,-0.02186064543302344,0.20635428009379575,0.24241841769859196,0.3945196923123903
0.282,0.029011463720782952,0.16866149444741793,0.20068539208014552,-0.028640437433094836,0.20229827999375757,0.24147110443818043,0.4218594212816567
0.283,-0.0974385605065946,0.19311875844716325,0.16500087769048172,-0.03541656607177123,0.19822772473786876,0.24051690367598497,0.4418252596851391
0.284,-0.10397225263931355,0.20729017606032807,0.1726769134647242,-0.04218816462318192,0.19414290719844748,0.23955584262875879,0.42444341299100197
0.285,-0.047569512825099206,0.27558838759920334,0.21524137343522073,-0.04895436694089434,0.190044121273968,0.23858794870893163,0.44121027334311047
0.286,-0.007131520836811162,0.29730539105419307,0.23345534131105708,-0.055714307568700404,0.18593166186791615,0.23761324952382779,0.45485218478720496
0.287,-0.017949472121825842,0.29549309841014526,0.2482040623077885,-0.06246712185131779,0.1818058248675709,0.23663177287487872,0.4295888684898782
0.288,0.017095946628435214,0.2624313207790099,0.27532440181700035,-0.0692119460449847,0.17766690712271535,0.23564354675683025,0.442795679879871
0.289,0.043665577697502816,0.18892075198098762,0.2716637573986169,-0.07594791742794214,0.17351520642427923,0.23464859935694393,0.45794227302901586
0.29,0.007296278444231381,0.16638677163756385,0.26903748468841143,-0.08267417441078267,0.1693510214829121,0.23364695905419278,0.4338818034083846
0.291,-0.001279188169897293,0.10088241875751457,0.2485236296956325,-0.08938985664665447,0.1651746519074927,0.23263865441845222,0.4286239868527745
0.292,-0.012149855162742584,0.09936609634124036,0.23833055771695633,-0.09609410514130898,0.16098639818357177,0.231623714209685,0.4401742970106673
0.293,0.004188111688849385,0.16299815704466575,0.22397394745912771,-0.1027860623629717,0.1567865616517524,0.23060216737712103,0.44369922018087926
0.294,-0.03339090020332529,0.1781859841622069,0.20710994249418377,-0.10946487235202983,0.15257544448600902,0.2295740430584315,0.42916667930967745
0.295,-0.08926039893822577,0.21152089535535465,0.1971256228955652,-0.116129680830516,0.14835334967194577,0.2285393705788977,0.42397012030431175
0.296,-0.15769496038983283,0.29785703424334187,0.17980927275358777,-0.12277963531137734,0.144120580984998,0.2274981794505748,0.4505287069908687
0.297,-0.21011348996034843,0.26267659560504103,0.18672162739784007,-0.12941388520751765,0.1398774429685752,0.2264504993714499,0.4268162461546087
0.298,-0.1667112216160819,0.2026183857424113,0.21051028137518976,-0.13603158194059278,0.13562424091214953,0.225396360224595,0.4445319587990451
0.299,-0.13229715318745372,0.1255190064663783,0.19219943220585112,-0.14263187904955343,0.13136128082929083,0.22433579207731477,0.43350515208606677
0.3,-0.0053248895459610725,0.09159251182426764,0.23277136735198303,-0.14921393229891275,0.12708886943564843,0.22326882518028887,0.4524177952207042
0.301,0.0318897742114746,0.13410187510418994,0.22430894887483815,-0.15577689978673312,0.12280731412688453,0.22219548996670893,0.420449067963341
0.302,0.01936236436257989,0.09600366098828132,0.2308678191744014,-0.16231994205231215,0.11851692295655647,0.22111581705141073,0.420569197020929
0.303,-0.03410904784212354,0.12872136001688872,0.24784536810131846,-0.16884222218355602,0.1142180046139529,0.22002983723000064,0.4411780784996154
0.304,-0.1098869078230462,0.11824094778148102,0.2449587341009411,-0.1753429059240299,0.10991086840188405,0.2189375814779779,0.4175033867718309
0.305,-0.21931168436556728,0.13606433998357687,0.23940573814462168,-0.1818211617796643,0.10559582421442688,0.2178390809498503,0.43261015363308775
0.306,-0.2827262840282685,0.13812141106505033,0.20451968999205009,-0.1882761611251123,0.10127318251462977,0.21673436697824625,0.4499346132891548
0.307,-0.24949134277651835,0.1633631730267823,0.2223467202480039,-0.19470707830973727,0.09694325431217424,0.21562347107302052,0.41007874393348104
0.308,-0.2140523421476156,0.23443237971778996,0.19891757286479356,-0.20111309076321984,0.09260635114099824,0.21450642492035568,0.43646536466634994
0.309,-0.14821740966871086,0.17888806987060774,0.17557696874253345,-0.2074933791007738,0.08826278503688187,0.21338326038185856,0.4463235382513427
0.31,-0.15407731475184056,0.15044839276602587,0.17495419819390712,-0.21384712722795035,0.08391286851499578,0.2122540094936511,0.4316145383080183
0.311,-0.1360941519410832,0.08125651947020775,0.1590208793489476,-0.2201735224450254,0.07955691454741746,0.21111870446545705,0.4209430894050822
0.312,-0.1501857934851983,0.035529640247321595,0.17313010939120094,-0.2264717555509504,0.07519523654061226,0.20997737767968247,0.42905961664359393
0.313,-0.13584641834430317,-0.011652420474162234,0.17708835633446518,-0.23274102094685536,0.07082814831288431,0.20883006169049276,0.4222913208835929
0.314,-0.17934676259971785,0.026772748529777405,0.22194891013491072,-0.2389805167390937,0.06645596407179788,0.20767678922288385,0.43332603873025544
0.315,-0.19346726316876245,0.09633408359592224,0.23557579831225955,-0.24518944484180935,0.06207899839156952,0.2065175931717491,0.42931819106176855
0.316,-0.18627405611515824,0.19381100055760567,0.2674388485630639,-0.2513670110790208,0.05769756619043623,0.20535250660094032,0.42662198523851236
0.317,-0.23759540978035756,0.2220767187041578,0.2476478973874253,-0.2575124252862022,0.05331198270799633,0.20418156274232555,0.4385172698548506
0.318,-0.2964027166449519,0.1683340398760449,0.21575143487046303,-0.2636249014113518,0.04892256348252869,0.2030047949948405,0.45201521399221384
0.319,-0.3209626767396421,0.10467375308148398,0.1877059734280997,-0.26970365761553616,0.044529624328290204,0.2018222369235363,0.43714193820763836
0.32,-0.29187287297839526,0.016015028906705954,0.16010740379425956,-0.2757479163728927,0.040133481312792346,0.20063392225862184,0.44947427128400286
0.321,-0.243302109489737,-0.04920938504280956,0.15079527102694912,-0.2817569045700832,0.035734450734061896,0.19943988489450212,0.45243831555080566
0.322,-0.24156768743888415,-0.04230511707216485,0.14846008613576286,-0.2877298536051815,0.03133284909788261,0.1982401588888111,0.4265948009691727
0.323,-0.15938842190101016,0.03319854098183815,0.17743118791074938,-0.2936659994859834,0.02692899309502323,0.19703477846144032,0.43707478986446036
0.324,-0.12610266734818426,0.07011049368564787,0.1903797538623168,-0.2995645829277295,0.02252319957845189,0.19582377799356274,0.42881905462565456
0.325,-0.13906617168934965,0.05920655552222095,0.18023955926240284,-0.3054248494502228,0.018115785540539105,0.1946071920266525,0.4162743340388034
0.326,-0.23991290890754444,0.11448474133597578,0.20962173769465173,-0.31124604947433443,0.013707068090249548,0.19338505526149918,0.438471239492974
0.327,-0.3068949970980516,0.09334937225197845,0.19265078187500442,-0.3170274384178811,0.0092973644303278,0.19215740255721855,0.4217180576645334
0.328,-0.3988327990085802,0.06391124300583202,0.19526687480154672,-0.3227682767908627,0.0048869918344749816,0.19092426893025788,0.44029717139782465
0.329,-0.37811276142290495,0.0860716202447396,0.204369752301187,-0.3284678302900513,0.00047626762452147457,0.18968568955339724,0.4159566090186796
0.33,-0.4176692943337541,0.019363161849630908,0.20359185601825214,-0.33412536989291275,-0.003934490852403827,0.18844169975474628,0.43682061077154866
0.331,-0.347088806570811,0.04942839095982791,0.23679787992167828,-0.33974017195085743,-0.00834496624670725,0.18719233501673657,0.4160613822432234
0.332,-0.23335448704842454,-0.018460637979888683,0.21158225318977847,-0.3453115182817987,-0.012754841229161935,0.18593763097510982,0.44313797368244906
0.333,-0.2557414569158437,-0.05212693751058086,0.18124424062525848,-0.3508386962620167,-0.017163798513740277,0.18467762341790075,0.4304723883888112
0.334,-0.25381860360192654,-0.07669697914130563,0.17682392041498396,-0.3563209989173084,-0.0215715208804421,0.18341234828441724,0.42945671928141155
0.335,-0.28109554290284156,0.0005614698426883967,0.14096705293058984,-0.3617577250134148,-0.02597769119811809,0.18214184166421424,0.4489935165204395
0.336,-0.2911969643087902,0.04944299021581071,0.1273505073047307,-0.3671481791457169,-0.03038199244728797,0.1808661397960651,0.43175777237409824
0.337,-0.33372741580394905,0.10086327132780336,0.12200006796655677,-0.3724916718281819,-0.03478410774294835,0.17958527906692756,0.43708793597788115
0.338,-0.37635320313867976,0.0790023065599297,0.1471357528438709,-0.377787519581556,-0.039183720357373227,0.17829929601090616,0.43351533482271526
0.339,-0.35195602687135613,0.048117596017157524,0.1816694662026869,-0.3830350450207869,-0.043580513742901936,0.17700822730821006,0.44212839700462436
0.34,-0.4070491509231164,-0.02465989791335327,0.21939968640114474,-0.3882335769416666,-0.047974171554714264,0.1757121097841066,0.4486959197385143
0.341,-0.4118195602932479,-0.09807482752019742,0.2142051041616285,-0.39338245040668546,-0.05236437767359204,0.17441098040787112,0.44634903280551147
0.342,-0.4391493936102589,-0.08837545635172533,0.224436759588945,-0.3984810068300822,-0.05675081622866218,0.1731048762917325,0.4308621450121212
0.343,-0.3804495444713876,-0.08851155892017794,0.2123198558267565,-0.4035285940620838,-0.06113317162012424,0.17179383468981468,0.45111142578658364
0.344,-0.3612739980076237,-0.06910855247148769,0.20203055302684203,-0.40852456647232066,-0.06551112854195702,0.17047789299707383,0.4257472738349124
0.345,-0.35096592704722673,-0.06404994158200614,0.1696032963492819,-0.41346828503240896,-0.06988437200460518,0.16915708874823185,0.4279742688934483
0.346,-0.28905628695717106,0.00700971059154213,0.15018735330053634,-0.4183591173976862,-0.07425258735764202,0.1678314596167057,0.435490938238549
0.347,-0.3024803170403148,0.023523851285099786,0.1338344274243058,-0.4231964379880962,-0.07861546031240775,0.1665010434135331,0.44972658118191994
0.348,-0.3228743788430788,0.024327420590971365,0.13016634299521976,-0.42797962806820344,-0.08297267696462293,0.1651658780862937,0.4232635208021897
0.349,-0.4553140072310868,-0.011291941349673394,0.1302099126402756,-0.43270807582633736,-0.08732392381697333,0.1638260017180268,0.4481434429584592
0.35,-0.5109854013277819,-0.040018273551375584,0.13373609707408324,-0.4373811764528468,-0.09166888780166559,0.16248145252614513,0.43692889671768953
0.351,-0.5469790613231817,-0.0716193909119717,0.14180202098356454,-0.44199833221746015,-0.0960072563029529,0.1611322688613449,0.43252122135289056
0.352,-0.5034880410813639,-0.13909517972522298,0.18301939166321526,-0.44655895254574185,-0.10033871717962618,0.15977848920651191,0.45103979488654683
0.353,-0.5070554727071973,-0.16916504678417324,0.1517859465304054,-0.45106245409463025,-0.10466295878747311,0.15842015217562352,0.42837409639495005
0.354,-0.3612391280006962,-0.09326379855198233,0.2049857337169568,-0.45550826082705376,-0.10897967000170045,0.15705729651264763,0.46557422094782014
0.355,-0.3411170733986968,-0.08355881701595158,0.18755246510429915,-0.45989580408560976,-0.11328854023931889,0.1556899610904374,0.43616629923914485
0.356,-0.34066077306431963,-0.024603469357680118,0.17845756697331736,-0.4642245226653016,-0.11758925948149014,0.15431818490962287,0.44022392750694367
0.357,-0.3831346467364263,0.00013052646252887865,0.15632134407777776,-0.46849386288532147,-0.12188151829583102,0.15294200709749786,0.4570804462798311
0.358,-0.38122455959204765,-0.001092161921985772,0.1539846879863576,-0.4727032786598712,-0.12616500785867785,0.15156146690690464,0.440816433857315
0.359,-0.46462585060015443,-0.07026378358477081,0.1430585046681697,-0.47685223156801015,-0.1304394199773056,0.15017660371511374,0.4531113284001562
0.36,-0.4229382004306599,-0.07728553635231152,0.1504550796983657,-0.4809401909225258,-0.13470444711210197,0.14878745702270113,0.41554655683227487
0.361,-0.5319256271059163,-0.1750080940536215,0.12034644540105707,-0.48496663383781213,-0.1389597823986954,0.1473940664524213,0.43381278290122793
0.362,-0.5214672470569357,-0.1718204766506387,0.14171971482201617,-0.48893104529675147,-0.14320511967003222,0.14599647174807753,0.4440241739450515
0.363,-0.5216015429584315,-0.15918328983626331,0.12611312177541592,-0.49283291821659,-0.14744015347840617,0.14459471277338795,0.45237975359622684
0.364,-0.5156827456640213,-0.1362018700011328,0.1268482938566711,-0.49667175351379667,-0.1516645791174345,0.14318882951084833,0.4487783662654861
0.365,-0.4935660214709935,-0.08790153148663069,0.13428201005389753,-0.5004470601679026,-0.15587809264398142,0.14177886206059198,0.4477936104448204
0.366,-0.4151234998831149,-0.08693737222642901,0.15385704101174877,-0.5041583552843051,-0.16008039090002713,0.14036485063924575,0.4525530688036683
0.367,-0.421967307970738,-0.08554895869205734,0.16826750919468308,-0.5078051641560348,-0.16427117153447854,0.13894683557878337,0.4456596919655099
0.368,-0.42694315649430964,-0.1486664049830738,0.17325905456418614,-0.5113870203244751,-0.1684501330249239,0.13752485732537428,0.4143802610366836
0.369,-0.4638301561786557,-0.1349320774538496,0.18606860756623242,-0.5149034656390246,-0.17261697469932694,0.13609895643823086,0.45754385334719244
0.37,-0.4115554148451257,-0.08678398611644005,0.20112365755917025,-0.518354050315701,-0.1767713967576596,0.13466917358845082,0.43032431093370127
0.371,-0.5279618178102025,-0.14375394463221056,0.14847031806560207,-0.521738332994671,-0.18091310029347318,0.13323554955785752,0.44427859918317103
0.372,-0.5804622665721929,-0.19155503967116635,0.12478421331859126,-0.5250558807967041,-0.18504178731540322,0.13179812523783652,0.44282589588985327
0.373,-0.6433354587610857,-0.2280561971026119,0.09629252325663065,-0.5283062693785417,-0.18915716076861036,0.13035694162816963,0.4413604412553283
0.374,-0.6255560521433835,-0.2454335573090929,0.08928886270079572,-0.5314890829871745,-0.19325892455615304,0.12891203983586527,0.42765862401527727
0.375,-0.6240531212626491,-0.28159155444137834,0.07780888027934207,-0.5346039145130207,-0.19734678356029123,0.1274634610739856,0.41780532671525816
0.376,-0.5653841707418756,-0.2085770711432304,0.0810956288187435,-0.5376503655419993,-0.20142044366371992,0.12601124666047142,0.4291795638287126
0.377,-0.45290669908284154,-0.10392608329238086,0.1397806760019234,-0.5406280464064902,-0.20547961177073099,0.12455543801696364,0.4512613678758944
0.378,-0.44791873389856834,-0.07073620153482714,0.14338696744786325,-0.5435365762351766,-0.20952399582830034,0.12309607666762139,0.42412537121510857
0.379,-0.44826527959871565,-0.0519307456901657,0.14582423284059956,-0.5463755830017606,-0.21355330484710128,0.12163320423793866,0.43105971979988467
0.38,-0.4819532226070006,-0.13811392031821398,0.16496662958575292,-0.5491447035725505,-0.2175672489224409,0.12016686245355565,0.44677784001826537
0.381,-0.4883457642951087,-0.21591540545895632,0.15401515480813852,-0.5518435837529072,-0.22156553925511813,0.11869709313906941,0.4295703035869769
0.382,-0.5560902339141082,-0.2924704933646309,0.1390815376174382,-0.5544718783325493,-0.2255478881722035,0.11722393821684085,0.43552087162264647
0.383,-0.6228271217413061,-0.32080074107688644,0.11501310273881421,-0.5570292511297089,-0.2295140091477355,0.11574743970579876,0.44315728892971595
0.384,-0.6457530306398774,-0.29126488996681865,0.10668070623272682,-0.5595153750341311,-0.2334636168233368,0.11426763972024125,0.445705054988283
0.385,-0.6269070278857398,-0.21901036341296828,0.13208884181801087,-0.5619299320489154,-0.23739642702874517,0.11278458046863536,0.4298844725886133
0.386,-0.5751554418841478,-0.12589020344005344,0.11086966760746415,-0.5642726133311897,-0.2413121568022592,0.11129830425241179,0.444280271201589
0.387,-0.557442318767101,-0.10256566462383206,0.09641302322792618,-0.5665431192316144,-0.24521052441109767,0.10980885346475917,0.44751291578234326
0.388,-0.5797257820216426,-0.15997946360255672,0.08705460513488698,-0.5687411593327093,-0.24909124937166907,0.1083162705894148,0.42758588523617974
0.389,-0.4846200075159573,-0.18215118265940716,0.07691082639918405,-0.5708664524860013,-0.25295405246975255,0.10682059819945251,0.4455799701667986
0.39,-0.46384478386619393,-0.20805157394515023,0.07598836041866708,-0.5729187268479857,-0.2567986557805872,0.10532187895606936,0.43454034870153285
0.391,-0.48818966982479667,-0.2930529289797364,0.08140007234384097,-0.5748977199148971,-0.260624782688868,0.10382015560736733,0.4447637526276545
0.392,-0.5714879865682312,-0.2939101351145657,0.12707632476015443,-0.5768031785562859,-0.264432157908649,0.10231547098713506,0.4520910714149491
0.393,-0.5684428425683992,-0.2686507063678675,0.15096198487910584,-0.5786348590473961,-0.26822050750314863,0.10080786801362576,0.4414362978913025
0.394,-0.6628473229608498,-0.25175367663466264,0.16134770402779192,-0.5803925271003395,-0.27198955890445997,0.0992973896883331,0.45464960365266793
0.395,-0.6840922808708603,-0.24743690973371943,0.1470289127965009,-0.5820759578940634,-0.2757390409331613,0.09778407909476441,0.45331552867837005
0.396,-0.6630511056739814,-0.23182103162866963,0.1311443652717788,-0.5836849361031076,-0.2794686838178274,0.09626797939721285,0.45485679382356026
0.397,-0.6355118849076941,-0.19606886116901792,0.11498013852995045,-0.5852192559251452,-0.28317821921443986,0.09474913383952462,0.4489371533000929
0.398,-0.5462781069972549,-0.18929473660624688,0.0707650179779957,-0.5866787211073078,-0.286867380225693,0.09322758574386662,0.4574459674991666
0.399,-0.5370292288860189,-0.19123311760982656,0.04806859341980457,-0.5880631449712872,-0.2905359014201978,0.09170337850949052,0.44899476862101617
0.4,-0.5380659188642801,-0.1797751029839136,0.061697555822737664,-0.5893723504372133,-0.29418351885157884,0.09017655561149476,0.4245032900422323
0.401,-0.46983777683306016,-0.2251333788131071,0.05597280506121456,-0.5906061700463041,-0.2978099700774653,0.0886471605995844,0.43514228523410936
0.402,-0.5284059976496217,-0.3165518680354282,0.05610695561602442,-0.591764445982286,-0.30141499417837375,0.08711523709682985,0.44224869613234186
0.403,-0.5783036488731516,-0.36066593304309064,0.09789931663830267,-0.5928470300915784,-0.3049983317764802,0.08558082879842116,0.44387368121705556
0.404,-0.6533671923643714,-0.36394434579965684,0.09157676643313356,-0.5938537839022445,-0.3085597250542827,0.08404397947042265,0.449349728782825
0.405,-0.6358323474099407,-0.33326605554319577,0.10032476979579347,-0.594784578641704,-0.31209891777315074,0.08250473294852438,0.43550987593870394
0.406,-0.677557420193997,-0.2206606249240234,0.12834904687459422,-0.5956392952532024,-0.31561565529176144,0.08096313313679152,0.4694341664929305
0.407,-0.6844499767414103,-0.23439687334078674,0.11429378525142464,-0.5964178244110411,-0.319109684584421,0.07941922400641332,0.4442364546737534
0.408,-0.6558581005079736,-0.2040348874414601,0.12219595630972353,-0.5971200665345601,-0.32258075425926963,0.07787304959444619,0.4455099218579164
0.409,-0.6102196421505564,-0.2223927226251437,0.11576372008583057,-0.5977459318008752,-0.32602861457636817,0.07632465400256112,0.43768933574463664
0.41,-0.6169344858788155,-0.2539211315579822,0.10276902936939258,-0.5982953401563683,-0.3294530174656676,0.07477408139578302,0.4338338820468505
0.411,-0.5299804950762069,-0.3157079570687502,0.06892858286515223,-0.5987682213269253,-0.3328537165448564,0.07322137600123226,0.4444947717027074
0.412,-0.5199680808757999,-0.3553241919660717,0.06089481180536077,-0.5991645148269259,-0.33623046713708915,0.07166658210686282,0.4464769533847754
0.413,-0.5178518310687785,-0.352186345611749,0.03868672920957309,-0.5994841699669798,-0.33958302628858894,0.07010974406019924,0.4452393587686927
0.414,-0.6334412190983926,-0.38016036973677564,0.04433052020561973,-0.5997271458604106,-0.3429111527861287,0.06855090626707129,0.466279870685152
0.415,-0.6484086977892223,-0.3761152143127624,0.05456781408187267,-0.5998934114284854,-0.346214607174386,0.06699011319034849,0.44503800672696864
0.416,-0.668363485638139,-0.3137815229563409,0.08067280703777072,-0.5999829454043898,-0.3494931517731716,0.06542740934867029,0.4456582152806295
0.417,-0.699928106074777,-0.2751214242287921,0.07577716220903587,-0.5999957363359484,-0.3527465506945304,0.06386283931517732,0.45660848792445674
