time,roll_setpoint,roll_gyro,pitch_setpoint,pitch_gyro,yaw_setpoint,yaw_gyro
0.0,3.221088436188455,0.0,3.543197279807301,0.0,2.2547619053319186,0.0
0.001,3.299582398918418,0.0,3.62954063881026,0.0,2.3097076792428926,0.0
0.002,3.3777459409858164,0.0,3.7155205350843983,0.0,2.364422158690071,0.0
0.003,3.455574210797501,0.0,3.8011316318772517,0.0,2.4189019475582505,0.0
0.004,3.533062390490227,0.0,3.88636862953925,0.0,2.473143673343159,0.0
0.005,3.6102056963405573,0.0,3.9712262659746136,0.0,2.52714398743839,0.0
0.006,3.686999379171322,0.0,4.055699317088455,0.0,2.580899565419925,0.0
0.007,3.763438724754603,0.0,4.139782597230063,0.0,2.634407107328222,0.0
0.008,3.839519054211185,0.0,4.223470959632304,0.0,2.6876633379478294,0.0
0.009,3.9152357244064526,0.0,4.3067592968470985,0.0,2.740665007084517,0.0
0.01,3.9905841283426917,0.0,4.389642541176961,0.0,2.793408889839884,0.0
0.011,4.0655596955477415,0.0,4.472115665102516,0.0,2.845891786883419,0.0
0.012,4.140157892459986,0.0,4.5541736817059855,0.0,2.8981105247219903,0.0
0.013,4.214374222809629,0.0,4.635811645090592,0.0,2.95006195596674,0.0
0.014,4.28820422799622,0.0,4.7170246507958415,0.0,3.0017429595973537,0.0
0.015,4.3616434874624,0.0,4.797807836208641,0.0,3.05315044122368,0.0
0.016,4.4346876190638245,0.0,4.878156380970207,0.0,3.104281333344677,0.0
0.017,4.507332279435237,0.0,4.958065507378761,0.0,3.1551325956046656,0.0
0.018,4.5795731643526425,0.0,5.0375304807879075,0.0,3.2057012150468496,0.0
0.019,4.651406009091567,0.0,5.116546610000724,0.0,3.2559842063640967,0.0
0.02,4.722826588781357,0.0,5.195109247659493,0.0,3.30597861214695,0.0
0.021,4.793830718755473,0.0,5.27321379063102,0.0,3.3556815031288307,0.0
0.022,4.864414254897774,0.0,5.350855680387552,0.0,3.4050899784284416,0.0
0.023,4.934573093984735,0.0,5.428030403383209,0.0,3.454201165789314,0.0
0.024,5.004303174023567,0.0,5.504733491425925,0.0,3.5030122218164967,0.0
0.025,5.073600474586228,0.0,5.580960522044851,0.0,3.5515203322103592,0.0
0.026,5.142461017139256,0.0,5.656707118853182,0.0,3.599722711997479,0.0
0.027,5.210880865369442,0.0,5.731968951906387,0.0,3.6476166057586092,0.0
0.028,5.278856125505255,0.0,5.8067417380557815,0.0,3.6951992878536783,0.0
0.029,5.346382946634043,0.0,5.881021241297448,0.0,3.7424680626438303,0.0
0.03,5.413457521014937,0.0,5.954803273116432,0.0,3.7894202647104556,0.0
0.031,5.480076084387463,0.0,6.028083692826209,0.0,3.8360532590712237,0.0
0.032,5.546234916275796,0.0,6.100858407903376,0.0,3.8823644413930567,0.0
0.033,5.611930340288663,0.0,6.17312337431753,0.0,3.928351238202064,0.0
0.034,5.6771587244148485,0.0,6.2448745968563335,0.0,3.974011107090394,0.0
0.035,5.741916481314269,0.0,6.316108129445697,0.0,4.019341536919988,0.0
0.036,5.806200068604601,0.0,6.386820075465061,0.0,4.064340048023221,0.0
0.037,5.8700059891434355,0.0,6.457006588057779,0.0,4.109004192400405,0.0
0.038,5.933330791305923,0.0,6.526663870436516,0.0,4.153331553914145,0.0
0.039,5.996171069257885,0.0,6.5957881761836745,0.0,4.19731974848052,0.0
0.04,6.058523463224383,0.0,6.664375809546822,0.0,4.240966424257068,0.0
0.041,6.120384659753688,0.0,6.732423125729057,0.0,4.284269261827581,0.0
0.042,6.181751391976656,0.0,6.7999265311743216,0.0,4.3272259743836585,0.0
0.043,6.242620439861469,0.0,6.866882483847616,0.0,4.3698343079030275,0.0
0.044,6.302988630463721,0.0,6.933287493510094,0.0,4.4120920413246045,0.0
0.045,6.3628528381718334,0.0,6.999138121989017,0.0,4.453996986720283,0.0
0.046,6.422209984947755,0.0,7.064430983442531,0.0,4.495546989463429,0.0
0.047,6.481057040562951,0.0,7.129162744619247,0.0,4.5367399283940655,0.0
0.048,6.5393910228296495,0.0,7.193330125112615,0.0,4.577573715980754,0.0
0.049,6.597208997827305,0.0,7.2569298976100365,0.0,4.618046298479113,0.0
0.05,6.654508080124296,0.11273809526659594,7.319958888136727,0.12401190479325552,4.658155656087007,0.07891666668661715
0.051,6.711285432994797,0.2225865744654108,7.382413976294277,0.24484523191195184,4.697899803096357,0.1558106021257875
0.052,6.76753826863083,0.32967835367664383,7.444292095493913,0.3626461890443082,4.73727678804158,0.23077484757365063
0.053,6.82326384834947,0.4341395333707242,7.505590233184417,0.47755348670779657,4.776284693844628,0.30389767335950685
0.054,6.878459482795181,0.536089740369346,7.566305431074699,0.5896987144062805,4.814921637956626,0.3752628182585421
0.055,6.933122532137267,0.6356424527227982,7.626434785350994,0.699206697995078,4.8531857724960865,0.44494971690595864
0.056,6.987250406262419,0.7329053083576546,7.685975446888661,0.80619583919342,4.891075284383692,0.5130337158503581
0.057,7.0408405649623464,0.8279803983061829,7.744924621458582,0.9107784381368011,4.928588395473642,0.5795862788143279
0.058,7.093890518116458,0.9209645452882652,7.803279569928105,1.0130609998170916,4.96572336268152,0.6446751817017855
0.059,7.1463978258696095,1.0119495683780777,7.861037608456571,1.1131445252158856,5.002478478108726,0.7083646978646543
0.06,7.198360098804855,1.101022534451168,7.918196108685342,1.211124787896285,5.038852069163398,0.7707157741158175
0.061,7.249774998111233,1.1882659970727805,7.974752497922357,1.3070925967800588,5.074842498677863,0.8317861979509462
0.062,7.30064023574654,1.273758223455241,8.030704259321194,1.4011340458007653,5.110448165022578,0.8916307564186685
0.063,7.350953574595092,1.357573410080816,8.086048932054602,1.4933307510888978,5.145667502216564,0.950301387056571
0.064,7.400712828620459,1.4397818875566428,8.140784111482505,1.5837600763123074,5.180498980034321,1.0078473212896497
0.065,7.449915863013141,1.5204503152399946,8.194907449314455,1.6724953467639945,5.214941104109198,1.064315220667996
0.066,7.498560594333212,1.5996418661452287,8.248416653766535,1.759606052759752,5.248992416033248,1.11974930630166
0.067,7.546644990647877,1.6774164026182006,8.301309489712665,1.845158042880021,5.282651493453514,1.1741914818327401
0.068,7.594167071663945,1.7538306432396331,8.35358377883034,1.9292137075635967,5.315916950164761,1.227681450267743
0.069,7.641124908855225,1.8289383213958563,8.405237399740749,2.011832153535442,5.348787436198657,1.2802568249770991
0.07,7.687516625584808,1.902790335933411,8.45626828814329,2.093069369526752,5.381261637909366,1.3319532351533874
0.071,7.733340397222232,1.975434894293182,8.506674436944456,2.1729783837225,5.413338278055562,1.382804426005227
0.072,7.77859445125553,2.046917648499945,8.556453896381084,2.2516094133499394,5.445016115878871,1.432842353949961
0.073,7.8232770673981396,2.1172818243644134,8.605604774137953,2.329010006800855,5.476293947178697,1.482097277055089
0.074,7.867386577690672,2.1865683442370174,8.65412523545974,2.4052251786607193,5.50717060438347,1.530597840965912
0.075,7.910921366597526,2.2548159436356845,8.702013503257279,2.480297537999253,5.5376449566182675,1.578371160544979
0.076,7.953879871098349,2.3220612820537743,8.749267858208185,2.554267410259152,5.567715909768844,1.6254428974376418
0.077,7.996260580774324,2.388339048239016,8.795886638851757,2.6271729530629178,5.597382406542026,1.6718373337673111
0.078,8.038062037889294,2.4536820602197493,8.841868241678224,2.6990502662417244,5.626643426522505,1.7175774421538244
0.079,8.07928283746568,2.5181213603409534,8.887211121212248,2.769933496375049,5.655497986225976,1.7626849522386672
0.08,8.119921627355257,2.5816863055594284,8.931913790090784,2.8398549361153718,5.68394513914868,1.8071804138915997
0.081,8.159977108304703,2.6444046532350183,8.975974819135175,2.9088451185585207,5.711983975813292,1.8510832572645126
0.082,8.199448034015951,2.70630264264292,9.019392837417547,2.976932906907213,5.739613623811166,1.894411849850044
0.083,8.238333211201375,2.7674050724208774,9.062166532321514,3.044145579662966,5.766833247840962,1.937183550694614
0.084,8.27663149963373,2.8277353741543534,9.104294649597104,3.1105089115697893,5.79364204974361,1.979414761908047
0.085,8.314341812190914,2.887315682292635,9.145775993410007,3.1760472505218993,5.820039268533639,2.0211209776048444
0.086,8.351463114895509,2.946166900579164,9.186609426385061,3.2407835906370814,5.846024180426856,2.062316830405415
0.087,8.387994426949106,3.004308765170226,9.226793869644018,3.3047396416872497,5.871596098864374,2.1030161356191583
0.088,8.423934820761426,3.0617599046074218,9.26632830283757,3.367935895068165,5.896754374532998,2.1432319332251955
0.089,8.459283421974213,3.118537896801077,9.305211764171634,3.4303916864811854,5.921498395381949,2.182976527760754
0.09,8.494039409479925,3.1746593231738762,9.343443350427918,3.4921252554912647,5.9458275866359465,2.2222615262217134
0.091,8.528202015435198,3.2301398201065616,9.38102221697872,3.5531538021172184,5.969741410804638,2.261097874074593
0.092,8.5617705252691,3.2849941278204167,9.417947577796012,3.613493540602459,5.9932393676883695,2.2994958894742914
0.093,8.594744277686168,3.3392361368245473,9.454218705454785,3.6731597505070024,6.016320994380317,2.3374652957771827
0.094,8.627122664664231,3.39287893204955,9.489834931130655,3.7321668252545055,6.038985865264961,2.3750152524346846
0.095,8.65890513144703,3.4459348347830865,9.524795644591734,3.790528318261396,6.061233592012921,2.41215438434816
0.096,8.690091176531613,3.4984154425171035,9.559100294184775,3.848256986768815,6.083063823572129,2.448890809761972
0.097,8.720680351650541,3.5503316668109517,9.592748386815597,3.905364833492048,6.104476246155379,2.485232166767666
0.098,8.750672261748878,3.601693769269442,9.625739487923767,3.961863146196387,6.125470583224215,2.5211856384886087
0.099,8.780066564955995,3.6525113957299253,9.658073221451595,4.017762535302919,6.146046595469196,2.556757977010947
0.1,8.80886297255217,3.7027936087477795,9.689749269807388,4.073072969622558,6.166204080786518,2.591955526123445
0.101,8.837061248930006,3.7525489184652083,9.720767373823007,4.12780381031173,6.185942874251004,2.626784242925645
0.102,8.864661211550661,3.801785311944027,9.751127332705728,4.18196384313843,6.205262848085463,2.661249718360818
0.103,8.891662730894913,3.850510281039057,9.780829003984405,4.2355613091429625,6.224163911626438,2.6953571967273393
0.104,8.918065730409031,3.8987308488849353,9.809872303449936,4.2886039337734285,6.242646011286322,2.729111594219454
0.105,8.943870186445512,3.946453595065493,9.838257205090065,4.3410989545720415,6.260709130511858,2.7625175165458447
0.106,8.969076128198637,3.9936846795314027,9.865983741018502,4.393053147484543,6.278353289739045,2.7955792756719817
0.107,8.9936836376349,4.040429865328514,9.893052001398392,4.4444728518613665,6.29557854634443,2.82830090572996
0.108,9.017692849418289,4.086694540196165,9.919462134360119,4.495363994215782,6.312384994592802,2.860686178137315
0.109,9.04110395083043,4.132483737091793,9.945214345913472,4.545732110800973,6.3287727655813,2.8927386159642547
0.11,9.063917181685632,4.177802153695373,9.970308899854196,4.595582369064911,6.344742027179942,2.924461507586761
0.111,9.086132834240804,4.222654170944497,9.994746117664885,4.644919588038948,6.360292983968562,2.955857919661148
0.112,9.107751253100284,4.2670438706484015,10.018526378410314,4.693748257713242,6.375425877170199,2.986930709453881
0.113,9.128772835115576,4.3109750522268095,10.041650118627135,4.742072557449491,6.390140984580903,3.017682536558767
0.114,9.149198029280011,4.354451248617185,10.064117832208014,4.789896373478904,6.404438620496007,3.04811587403203
0.115,9.169027336618353,4.397475741391785,10.085930070280188,4.837223315530965,6.418319135632847,3.0782330189742506
0.116,9.18826131007134,4.440051575123858,10.107087441078475,4.884056732636245,6.431782917049937,3.1080361025867016
0.117,9.206900554375213,4.482181571040341,10.127590609812735,4.930399728144376,6.444830388062649,3.1375270997282394
0.118,9.224945725936184,4.523868339996562,10.147440298529803,4.976255173996219,6.4574620081553284,3.166707837997594
0.119,9.242397532699936,4.5651142948066665,10.16663728596993,5.021625724287334,6.469678272889955,3.1955800063646675
0.12,9.259256734016097,4.605921661961801,10.185182407417708,5.066513828157983,6.481479713811267,3.224145163373262
0.121,9.275524140497758,4.64629249276649,10.203076554547534,5.110921742043139,6.492866898348431,3.252404744936544
0.122,9.291200613876011,4.686228673922109,10.220320675263613,5.15485154131432,6.5038404297132075,3.280360071745477
0.123,9.306287066849553,4.725731937584938,10.236915773534509,5.1983051313434325,6.514400946794686,3.3080123563094577
0.124,9.32078446292935,4.764803870924865,10.252862909222285,5.241284258017352,6.524549124050544,3.335362709647406
0.125,9.334693816278396,4.803445925209536,10.268163197906237,5.283790517730489,6.534285671394876,3.3624121476466753
0.126,9.34801619154658,4.841659424437501,10.28281781070124,5.325825366881252,6.543611334082606,3.389161597106251
0.127,9.360752703700658,4.879445573542728,10.296827974070725,5.367390130897,6.5525268925904605,3.4156119014799096
0.128,9.372904517849397,4.916805466191716,10.310194969634338,5.408486012810888,6.561033162494578,3.441763826334202
0.129,9.384472849063851,4.95374009219343,10.322920133970237,5.449114101412772,6.569130994344695,3.467618064535401
0.13,9.395458962192835,4.990250344541192,10.33500485841212,5.489275378995311,6.576821273534985,3.4931752411788346
0.131,9.405864171673603,5.026337026104796,10.346450588840964,5.528970728715277,6.584104920171521,3.518435918273358
0.132,9.415689841337734,5.062000855990115,10.357258825471508,5.568200941589127,6.590982888936414,3.543400599193081
0.133,9.42493738421227,5.097242475582657,10.367431122633498,5.606966723140923,6.5974561689485895,3.5680697329078606
0.134,9.433608262316135,5.132062454290705,10.37696908854775,5.645268699719775,6.6035257836212935,3.592443718003494
0.135,9.441703986451794,5.1664612950028515,10.385874385096974,5.683107424503136,6.609192790516255,3.6165229065019964
0.136,9.449226115992277,5.200439439274052,10.394148727591505,5.720483383201457,6.614458281194593,3.6403076074918364
0.137,9.4561762586635,5.233997272253568,10.401793884529852,5.7573969994789245,6.61932338106445,3.6637980905774974
0.138,9.462556070321966,5.267135127367539,10.408811677354164,5.793848640104293,6.623789249225376,3.6869945891572775
0.139,9.468367254727813,5.29985329076826,10.415203980200594,5.829838619845085,6.627857078309469,3.709897303537782
0.14,9.473611563313298,5.332152005561644,10.42097271964463,5.865367206117808,6.631528094319308,3.732506403893151
0.141,9.478290794946707,5.364031475823794,10.426119874441378,5.900434623406173,6.634803556462694,3.7548220330766555
0.142,9.482406795691702,5.395491870417023,10.430647475260873,5.935041057458724,6.637684756984191,3.7768443092919157
0.143,9.485961458562159,5.426533326615187,10.434557604418375,5.969186659276705,6.640173020993511,3.798573328630631
0.144,9.488956723272521,5.457155953547676,10.437852395599775,6.0028715489024425,6.642269706290764,3.820009167483373
0.145,9.49139457598367,5.487359835470938,10.440534033582036,6.036095819018031,6.6439762031885685,3.8411518848296566
0.146,9.493277049044373,5.517145034875998,10.44260475394881,6.068859538363596,6.645293934331061,3.8620015244131984
0.147,9.494606220728304,5.546511595439967,10.444066842801135,6.101162754983962,6.646224354509813,3.8825581168079766
0.148,9.495384214966695,5.5754595448291795,10.444922636463366,6.1330054993120955,6.646768950476686,3.9028216813804253
0.149,9.495613201076615,5.60398889736118,10.445174521184278,6.164387787097296,6.6469292407536305,3.922792228152826
0.15,9.495295393484954,5.632099656532447,10.44482493283345,6.19530962218569,6.646706775439467,3.9424697595727127
0.151,9.494433051448059,5.659791817418375,10.443876356592865,6.22577099916021,6.646103136013641,3.9618542721928622
0.152,9.493028478767169,5.687065368951729,10.442331326643886,6.2557719058469,6.645119935137018,3.9809457582662104
0.153,9.491084023499546,5.7139202960854645,10.440192425849501,6.285312325694009,6.643758816449682,3.999744207259825
0.154,9.488602077665455,5.740356581845507,10.437462285432002,6.314392240030056,6.642021454365818,4.018249607291855
0.155,9.485585076950926,5.766374209278824,10.43414358464602,6.343011630206705,6.639909553865648,4.036461946495177
0.156,9.482035500406411,5.791973163301836,10.430239050447053,6.371170479632018,6.6374248502844875,4.054381214311285
0.157,9.477955870141287,5.817153432453965,10.425751457155416,6.398868775699361,6.6345691090989005,4.072007402717777
0.158,9.473348751014328,5.841915010560907,10.42068362611576,6.426106511616997,6.631344125710029,4.089340507392635
0.159,9.46821675032008,5.866257898311927,10.415038425352089,6.452883688143118,6.627751725224056,4.106380528818349
0.16,9.462562517471255,5.890182104755328,10.408818769218382,6.47920031523086,6.623793762229878,4.123127473328729
0.161,9.456388743677138,5.91368764871599,10.402027618044853,6.505056413587588,6.619472120573996,4.1395813541011925
0.162,9.449698161618043,5.9367745601387005,10.394667977779848,6.530452016152569,6.61478871313263,4.15574219209709
0.163,9.442493545115852,5.95944288136081,10.386742899627437,6.555387169496891,6.609745481581096,4.171610016952568
0.164,9.434777708800691,5.98169266831757,10.378255479680762,6.579861935149327,6.604344396160483,4.1871848678223
0.165,9.426553507773752,6.003523991683334,10.369208858551128,6.603876390851667,6.598587455441626,4.202466794178334
0.166,9.417823837266303,6.024936937951664,10.359606220992934,6.62743063174683,6.592476686086411,4.217455856566165
0.167,9.408591632294945,6.045931610457213,10.34945079552444,6.650524771502934,6.586014142606461,4.232152127320049
0.168,9.398859867313115,6.066508130342119,10.338745854044427,6.673158943376331,6.57920190711918,4.246555691239483
0.169,9.388631555858904,6.086666637469511,10.327494711444794,6.695333301216461,6.572042089101233,4.260666646228658
0.17,9.377909750199194,6.106407291286599,10.315700725219115,6.717048020415258,6.564536825139435,4.274485103900619
0.171,9.3666975409702,6.125730271639691,10.303367295067222,6.738303298803658,6.55668827867914,4.288011190147783
0.172,9.354998056814399,6.144635779543367,10.290497862495839,6.759099357497702,6.548498639770079,4.301245045680356
0.173,9.342814464013909,6.163124037905932,10.2770959104153,6.779436441696524,6.539970124809736,4.3141868265341525
0.174,9.330149966120391,6.181195292213163,10.26316496273243,6.799314821434478,6.531104976284274,4.326836704549214
0.175,9.31700780358143,6.1988498111722485,10.248708583939573,6.818734792289472,6.521905462507,4.339194867820574
0.176,9.303391253363527,6.216087887317767,10.23373037869988,6.837696676049542,6.512373877354468,4.351261521122436
0.177,9.289303628571663,6.232909837581402,10.21823399142883,6.85620082133954,6.502512540000163,4.36303688630698
0.178,9.274748278065541,6.249316003827061,10.202223105872095,6.874247604209764,6.492323794645879,4.374521202678941
0.179,9.259728586072473,6.2653067533529425,10.18570144467972,6.891837428688235,6.481810010250731,4.385714727347058
0.18,9.244247971797048,6.280882479362044,10.168672768976753,6.9089707272982475,6.470973580257933,4.39661773555343
0.181,9.22830988902751,6.296043601402518,10.151140877930262,6.925647961542769,6.459816922319257,4.407230520981761
0.182,9.211917825738986,6.310790565779213,10.133109608312886,6.941869622357133,6.44834247801729,4.417553396045448
0.183,9.195075303693534,6.325123845937681,10.114582834062888,6.957636230531448,6.436552712585473,4.4275866921563765
0.184,9.177785878037115,6.339043942821862,10.095564465840827,6.972948337104047,6.42445011462598,4.437330759975303
0.185,9.160053136893463,6.352551385206581,10.07605845058281,6.987806523727238,6.412037195825424,4.4467859696446075
0.186,9.141880700954951,6.365646730005982,10.056068771050448,7.002211403006579,6.399316490668466,4.455952711004188
0.187,9.123272223070467,6.378330562558905,10.035599445377514,7.016163618814795,6.386290556149326,4.4648313937912345
0.188,9.104231387830358,6.390603496892229,10.014654526613395,7.0296638465814505,6.37296197148125,4.473422447824561
0.189,9.084761911148467,6.402466175963091,9.993238102263314,7.0427127935593985,6.3593333378039265,4.481726323174164
0.19,9.064867539841323,6.413919271880902,9.971354293825456,7.05531119906899,6.345407277888926,4.489743490316632
0.191,9.044552051204521,6.424963486109991,9.949007256324974,7.067459834720989,6.331186435843164,4.497474440276994
0.192,9.023819252586343,6.435599549653701,9.926201177844977,7.07915950461907,6.31667347681044,4.504919684757591
0.193,9.002672980958634,6.445828223220691,9.902940279054498,7.090411045542759,6.301871086671043,4.512079756254485
0.194,8.98111710248504,6.455650297374195,9.879228812733546,7.101215327111613,6.2867819717395275,4.5189552081619375
0.195,8.959155512086577,6.465066592664914,9.855071063295235,7.111573251931404,6.271408858460603,4.525546614865441
0.196,8.936792133004632,6.474077959748221,9.830471346305096,7.121485755723042,6.255754493103242,4.5318545718237555
0.197,8.914030916361419,6.482685279486301,9.805434007997562,7.1309538074349295,6.239821641452993,4.537879695640411
0.198,8.890875840717941,6.4908894630358205,9.779963424789736,7.139978409339401,6.2236130885025585,4.543622624125074
0.199,8.8673309116295,6.498691451921711,9.75406400279245,7.148560597113881,6.207131638140649,4.549084016345198
0.2,8.843400161198787,6.506092218097598,9.727740177318665,7.156701439907358,6.190380112839151,4.554264552668319
0.201,8.819087647626652,6.5130927639934,9.700996412389319,7.16440204039274,6.173361353338656,4.559164934795381
0.202,8.794397454760514,6.519694122550582,9.673837200236566,7.171663534805639,6.156078218332359,4.563785885785407
0.203,8.769333691640556,6.525897357245537,9.646267060804613,7.178487092970089,6.138533584148389,4.568128150071876
0.204,8.74390049204365,6.5317035621015505,9.618290541248015,7.1848739183117045,6.120730344430555,4.572192493471086
0.205,8.718102014025147,6.537113861689756,9.589912215427663,7.19082524785873,6.102671409817603,4.575979703182829
0.206,8.691942439458552,6.542129411119492,9.561136683404408,7.196342352231441,6.084359707620986,4.579490587783644
0.207,8.665425973573068,6.546751396018463,9.531968570930376,7.201426535620309,6.0657981815011475,4.582725977212923
0.208,8.63855684448918,6.550981032503041,9.502412528938098,7.2060791357533445,6.046989791142426,4.585686722752127
0.209,8.611339302752206,6.554819567139092,9.472473233027427,7.210301523853,6.027937511926544,4.588373696997363
0.21,8.583777620863946,6.558268276893632,9.442155382950341,7.214095104582993,6.008644334604762,4.59078779382554
0.211,8.555876092812435,6.56132846907765,9.411463702093679,7.217461315985413,5.9891132649687036,4.592929928354353
0.212,8.52763903359985,6.564001481280399,9.380402936959836,7.220401629408437,5.969347323519895,4.5948010368962775
0.213,8.499070778768669,6.5662886812954335,9.348977856645536,7.2229175494249755,5.949349545138068,4.596402076906802
0.214,8.470175683926028,6.568191467038686,9.317193252318631,7.225010613742554,5.929122978748219,4.597734026927079
0.215,8.440958124266466,6.569711266458833,9.285053936693114,7.226682393104715,5.908670686986525,4.598797886521182
0.216,8.411422494092951,6.570849537440211,9.252564743502248,7.227934491184232,5.887995745865066,4.599594676208147
0.217,8.381573206336393,6.571607767698524,9.219730526970032,7.228768544468376,5.867101244435474,4.600125437388966
0.218,8.351414692073535,6.571987474669556,9.186556161280889,7.229186222136512,5.8459902844514735,4.600391232268689
0.219,8.32095140004344,6.57199020539114,9.153046540047784,7.229189225930254,5.8246659800304075,4.600393143773798
0.22,8.29018779616245,6.571617536378555,9.119206575778694,7.22877929001641,5.8031314573137145,4.600132275464988
0.221,8.25912836303783,6.570871073493584,9.085041199341614,7.2279581808429425,5.7813898541264805,4.5996097514455085
0.222,8.227777599480001,6.569752451807409,9.050555359428003,7.226727696988149,5.759444319636001,4.598826716265186
0.223,8.196140020013551,6.568263335457525,9.015754022014907,7.225089669003277,5.737298014009486,4.597784334820267
0.224,8.164220154386934,6.566405417498863,8.980642169825629,7.223045959248749,5.714954108070853,4.596483792249203
0.225,8.13202254708104,6.5641804197492695,8.945224801789143,7.2205984617241965,5.6924157829567275,4.594926293824488
0.226,8.099551756816574,6.56159009262953,8.909506932498232,7.217749101892482,5.669686229771601,4.59311306484067
0.227,8.066812356060401,6.558636214998061,8.873493591666442,7.214499836497867,5.64676864924228,4.591045350498643
0.228,8.033808930530784,6.5553205939804515,8.837189823583863,7.210852653378497,5.6236662513715485,4.5887244157863165
0.229,8.000546078701703,6.5516450647939655,8.800600686571874,7.206809571273363,5.6003822550911915,4.586151545355777
0.23,7.967028411306167,6.547611490567164,8.763731252436784,7.2023726396238805,5.5769198879143165,4.583328043397016
0.231,7.933260550838723,6.543221762154769,8.726586605922595,7.197543938370246,5.553282385587106,4.580255233508339
0.232,7.899247131057032,6.538477797947895,8.689171844162736,7.192325577742684,5.529472991739922,4.576934458563527
0.233,7.86499279648276,6.5333815436797735,8.651492076131037,7.186719698047751,5.505494957537931,4.573367080575842
0.234,7.830502201901646,6.527934972227084,8.61355242209181,7.180728469449793,5.4813515413311515,4.569554480558959
0.235,7.795780011862973,6.522140083407001,8.575358013049271,7.174354091747702,5.457046008304081,4.565498058384901
0.236,7.760830900178323,6.515998903770074,8.536913990196156,7.167598794147082,5.432581630124826,4.561199232639052
0.237,7.725659549419841,6.509513486389036,8.498225504361825,7.160464835027941,5.4079616845938885,4.556659440472326
0.238,7.690270650417884,6.502685910643646,8.459297715459673,7.152954501708013,5.383189455292518,4.551880137450554
0.239,7.654668901758282,6.49551828200166,8.420135791934111,7.145070110201829,5.358268231230797,4.546862797401164
0.24,7.61885900927909,6.488012731796023,8.380744910207,7.136814004975628,5.333201306495362,4.541608912257218
0.241,7.582845685567045,6.48017141699838,8.34113025412375,7.128188558698221,5.307991979896931,4.536119991898868
0.242,7.54663364945363,6.471996519988983,8.301297014398994,7.119196171987884,5.2826435546175405,4.53039756399229
0.243,7.510227625510939,6.463490248323087,8.261250388062033,7.109839273155397,5.257159337857657,4.524443173826162
0.244,7.47363234354725,6.454654834493908,8.220995577901975,7.1001203179433015,5.231542640483075,4.518258384145738
0.245,7.436852538102515,6.445492535692243,8.180537791912768,7.09004178926147,5.20579677667176,4.511844774984572
0.246,7.3998929479436475,6.436005633562793,8.139882242738013,7.079606196919075,5.179925063560553,4.505203943493957
0.247,7.3627583155598275,6.426196433957303,8.09903414711581,7.068816077353036,5.153930820891879,4.498337503770114
0.248,7.3254533866577285,6.416067266684566,8.057998725323502,7.057673993353025,5.127817370660409,4.491247086679198
0.249,7.287982909656843,6.40562048525737,8.016781200622528,7.046182533783109,5.1015880367597894,4.48393433968016
0.25,7.2503516351848445,6.394858466636459,7.97538679870333,7.034344313300107,5.075246144629391,4.476400926645522
0.251,7.212564315573152,6.3837836109715695,7.933820747130468,7.022161972068727,5.048795020901206,4.468648527680099
0.252,7.174625704352627,6.3723983413396095,7.89208827478789,7.009638175473571,5.022237993046838,4.460678838937726
0.253,7.136540555749578,6.360705103480049,7.850194611324537,6.996775613828054,4.995578389024704,4.452493572436033
0.254,7.098313624182009,6.348706365527574,7.808144986600211,6.983577002080332,4.968819536927406,4.444094455869301
0.255,7.059949663756272,6.336404617742076,7.7659446301319,6.970045079516283,4.94196476462939,4.435483232419452
0.256,7.0214534277640634,6.323802372236021,7.7235987705404705,6.956182609459623,4.915017399434844,4.426661660565214
0.257,6.982829668179929,6.310902162699278,7.681112634997922,6.941992378969205,4.88798076772595,4.417631513889494
0.258,6.944083135159224,6.297706544121435,7.638491448675147,6.927477198533579,4.860858194611457,4.408394580885004
0.259,6.905218576536675,6.28421809251169,7.595740434190343,6.9126399017628595,4.833653003575672,4.398952664758182
0.26,6.866240737325496,6.270439404616344,7.552864811058046,6.897483345077978,4.806368516127847,4.38930758323144
0.261,6.827154359217225,6.256373097633961,7.509869795138948,6.882010407397358,4.779008051452057,4.379461168343772
0.262,6.7879641800821995,6.242021808928258,7.46676059809042,6.866223989821084,4.75157492605754,4.36941526624978
0.263,6.748674933470865,6.227388195738748,7.423542426817953,6.850127015312624,4.7240724534296055,4.359171737017123
0.264,6.709291348115822,6.212474934889221,7.380220482927404,6.833722428378144,4.696503943681075,4.348732454422454
0.265,6.6698181474348015,6.197284722494087,7.336799962178282,6.817013194743496,4.668872703204361,4.33809930574586
0.266,6.630260049034488,6.181820273662636,7.293286053937938,6.8000023010289,4.6411820343241414,4.327274191563845
0.267,6.59062176421538,6.166084322201278,7.249683940636919,6.782692754421406,4.613435234950766,4.316259025540894
0.268,6.550907997477579,6.150079620313788,7.205998797225337,6.765087582345167,4.5856355982343056,4.305055734219652
0.269,6.5111234460277165,6.133808938299619,7.162235790630489,6.747189832129581,4.557786412219401,4.2936662568097335
0.27,6.471272799286959,6.1172750642503235,7.118400079215656,6.729002570675356,4.529890959500871,4.282092544975227
0.271,6.431360738400166,6.100480803744132,7.074496812240183,6.710528884118545,4.501952516880116,4.2703365626208925
0.272,6.391391935746305,6.083428979538725,7.030531129320936,6.691771877492598,4.473974355022413,4.258400285677108
0.273,6.351371054450077,6.066122431262263,6.986508159895085,6.67273467438849,4.445959738115054,4.2462857018835845
0.274,6.311302747894917,6.048564015102693,6.942433022684409,6.6534204166129625,4.417911923526441,4.233994810571885
0.275,6.271191659237288,6.030756603495395,6.898310825161017,6.633832263844934,4.389834161466101,4.221529622446776
0.276,6.23104242092246,6.012703084809205,6.854146663014706,6.6139733932901255,4.361729694645722,4.208892159366443
0.277,6.1908596542016845,5.994406363030859,6.809945619621853,6.593846999333945,4.333601757941179,4.196084454121601
0.278,6.150647968650945,5.975869357447894,6.7657127655160405,6.573456293192683,4.305453578055661,4.183108550213525
0.279,6.110411961691203,5.957095002330059,6.721453157860324,6.552804502563064,4.277288373183842,4.16996650163104
0.28,6.070156218110315,5.938086246609272,6.677171839921346,6.5318948712701985,4.24910935267722,4.156660372626489
0.281,6.029885309586552,5.9188460535581635,6.632873840545208,6.510730658913979,4.220919716710586,4.143192237490713
0.282,5.989603794213879,5.899377400467252,6.588564173635268,6.489315140513976,4.192722655949716,4.129564180327075
0.283,5.94931621602894,5.879683278320786,6.5442478376318345,6.467651606152863,4.164521351220258,4.115778294824549
0.284,5.9090271045398755,5.859766691471304,6.499929814993863,6.445743360618433,4.136318973177913,4.101836684029912
0.285,5.868740974256994,5.839630657312942,6.455615071682694,6.423593723044236,4.108118681979896,4.08774146011906
0.286,5.82846232422531,5.819278205953537,6.411308556647842,6.40120602654889,4.079923626957717,4.073494744167475
0.287,5.788195637559081,5.798712379885554,6.36701520131499,6.37858361787411,4.051736946291356,4.059098665919888
0.288,5.7479453809782655,5.777936233655902,6.322739919076093,6.355729857021493,4.023561766684786,4.044555363559131
0.289,5.707716004347111,5.756952833534647,6.278487604781822,6.332648116888112,3.9954012030429773,4.029866983474252
0.29,5.667511940214732,5.735765257182683,6.234263134236206,6.309341782900952,3.9672583581503122,4.015035680027878
0.291,5.627337603357918,5.714376593318395,6.19007136369371,6.285814252650235,3.9391363223505422,4.000063615322876
0.292,5.5871973903260335,5.692789941383352,6.145917129358637,6.262068935521688,3.9110381732282233,3.9849529589683463
0.293,5.547095678988222,5.671008411207067,6.101805246887045,6.238109252327774,3.882966975291755,3.969705887844947
0.294,5.507036828082819,5.649035122670868,6.057740510891101,6.213938634937954,3.8549257796579726,3.9543245858696072
0.295,5.467025176769138,5.626873205370912,6.013727694446052,6.1895605259080035,3.826917623738396,3.9388112437596385
0.296,5.427065044181566,5.604525798280394,5.969771548599723,6.164978378108434,3.798945530927096,3.923168058796276
0.297,5.387160728986127,5.581996049410969,5.9258768018847405,6.140195654352065,3.771012510290289,3.9073972345876777
0.298,5.347316508939439,5.559287115473441,5.882048159833384,6.115215827020784,3.743121556257607,3.8915009808314083
0.299,5.307536640450233,5.536402161537758,5.838290304495257,6.090042377691534,3.715275648315163,3.8754815130764304
0.3,5.267825358143346,5.51334436069234,5.794607893957681,6.064678796761573,3.6874777507003422,3.8593410524846377
0.301,5.228186874426374,5.490116893702783,5.751005561869012,6.039128583073061,3.6597308120984615,3.843081825591948
0.302,5.188625379058888,5.466722948669986,5.707487916964777,6.0133952435369835,3.6320377653412215,3.82670606406899
0.303,5.149145038724393,5.4431657206877215,5.664059542596833,5.987482292756493,3.604401527107075,3.810216004481405
0.304,5.109749996604938,5.4194484114997055,5.620724996265432,5.961393252649676,3.5768249976234565,3.793613888049794
0.305,5.070444371958542,5.39557422915619,5.5774888091543975,5.935131652071808,3.549311060370979,3.7769019604093326
0.306,5.03123225969939,5.371546387670122,5.534355485669329,5.908701026437134,3.521862581789573,3.7600824713690857
0.307,4.9921177299809045,5.3473681066729135,5.491329502978996,5.882104917340205,3.494482410986633,3.7431576746710395
0.308,4.953104827781667,5.323042611069841,5.448415310559834,5.855346872176825,3.467173379447167,3.7261298277488883
0.309,4.914197572494326,5.298573130695132,5.40561732974376,5.8284304437646455,3.4399383007460282,3.7090011914865926
0.31,4.875399957517412,5.273962899966768,5.362939953269153,5.801359189963445,3.412779970262188,3.6917740299767376
0.311,4.836715949850232,5.249215157541032,5.320387544835255,5.774136673295136,3.3857011648951625,3.674450610278723
0.312,4.798149489690758,5.224333145966858,5.277964438659834,5.746766460563544,3.3587046427835303,3.657033202176801
0.313,4.759704490036671,5.199320111339995,5.235674939040338,5.7192521224739945,3.3317931430256693,3.639524077937997
0.314,4.721384836289494,5.174179302957049,5.193523319918444,5.691597233252754,3.3049693854026456,3.621925512069935
0.315,4.683194385861908,5.148913972969415,5.1515138244481,5.663805370266356,3.2782360701033353,3.604239781078591
0.316,4.645136967788326,5.123527376037151,5.109650664567159,5.635880113640866,3.251595877451828,3.586469163226006
0.317,4.6072163823386525,5.0980227689828315,5.067938020572518,5.607825045881115,3.2250514676370567,3.5686159382879827
0.318,4.569436400635408,5.072403410445405,5.02638004069895,5.579643751489946,3.1986054804447854,3.550682387311784
0.319,4.5318007642741245,5.046672560534105,4.984980840701537,5.551339816587515,3.172260534991887,3.532670792373874
0.32,4.494313184947167,5.020833480482444,4.943744503441884,5.522916828530688,3.1460192294630165,3.514583436337711
0.321,4.456977344070912,4.994889432302327,4.902675078478004,5.49437837553256,3.1198841408496385,3.4964226026116294
0.322,4.419796892416423,4.968843678438331,4.861776581658066,5.465728046282164,3.0938578246914963,3.4781905749068325
0.323,4.382775449743562,4.942699481422167,4.821052994717919,5.436969429564384,3.0679428148204932,3.4598896369955177
0.324,4.345916604438667,4.916460103527381,4.780508264882534,5.408106113880119,3.042141623107067,3.441522072469167
0.325,4.309223913155743,4.890128806424317,4.740146304471318,5.379141687066748,3.01645673920902,3.4230901644970224
0.326,4.2727009004612935,4.863708850835388,4.699970990507423,5.350079735918926,2.9908906303229053,3.4045961955847717
0.327,4.236351058482729,4.837203496190678,4.659986164331002,5.3209238458097445,2.96544574093791,3.3860424473334745
0.328,4.200177846560496,4.810616000283927,4.620195631216546,5.291677600312319,2.9401244925923473,3.367431200198749
0.329,4.164184690903849,4.783949618928923,4.580603159994235,5.262344580821814,2.9149292836326945,3.348764733250246
0.33,4.128374984250415,4.757207605616338,4.541212482675458,5.232928366177971,2.8898624889752904,3.3300453239314365
0.331,4.092752085529465,4.73039321117105,4.502027294082412,5.203432532288154,2.8649264598706257,3.311275247819735
0.332,4.057319319529055,4.703509683409983,4.463051251481962,5.173860651750981,2.8401235236703384,3.2924567783869882
0.333,4.022079976566935,4.676560266800497,4.4242879742236285,5.144216293480546,2.8154559835968542,3.273592186760348
0.334,3.987037312165387,4.649548202119368,4.385741043381926,5.114503022331304,2.7909261185157708,3.2546837414835577
0.335,3.9521945467299187,4.622476726112394,4.347414001402911,5.084724398723633,2.7665361827109427,3.2357337082786763
0.336,3.917554865231928,4.5953490711546605,4.309310351755121,5.0548839782701265,2.7422884056623493,3.2167443498082626
0.337,3.883121416895297,4.568168464911495,4.271433558584827,5.024985311402645,2.718184991826708,3.197717925438047
0.338,3.848897314887025,4.54093813000016,4.233787046375728,4.995031943000176,2.694228120420917,3.178656691000112
0.339,3.8148856360118426,4.513661283652301,4.196374199613027,4.96502741201753,2.6704199452082897,3.1595628985566107
0.34,3.781089420410936,4.4863411373772015,4.15919836245203,4.934975251114921,2.646762594287655,3.140438796164041
0.341,3.7475116712647107,4.458980896625868,4.122262838391182,4.904878986288455,2.6232581698852973,3.1212866276381077
0.342,3.7141553544997175,4.431583760455986,4.08557088994969,4.874742136501585,2.599908748149802,3.10210863231919
0.343,3.6810233984996916,4.404152921197775,4.0491257383496615,4.844568213317552,2.576716378949784,3.082907044838442
0.344,3.6481186938207983,4.376691564120785,4.012930563202879,4.8143607205328625,2.5536830856745585,3.063684094884549
0.345,3.615444092911062,4.349202867101665,3.9769885022021687,4.784123153811831,2.5308108650377434,3.0444420069711655
0.346,3.5830024098340374,4.321690000292937,3.9413026508174416,4.75385900032223,2.508101686883826,3.0251830002050557
0.347,3.5507964199967583,4.294156125792804,3.9058760619964343,4.723571738372084,2.4855574939977307,3.005909288054963
0.348,3.5188288598819355,4.266604397316044,3.8707117458701292,4.693264837047648,2.4631802019173548,2.986623078121231
0.349,3.48710242678452,4.239037959866,3.835812669462972,4.6629417558526,2.4409716987491636,2.9673265719062
0.35,3.4556197785525606,4.2114599494077165,3.801181756407817,4.632605944348489,2.418933844986792,2.948021964585402
0.351,3.4243835333324704,4.183873492542253,3.7668218866657175,4.60226084179648,2.397068473332729,2.928711444779578
0.352,3.3933962693186492,4.1562817061822015,3.7327358962505146,4.571909876800423,2.3753773885230545,2.909397194327542
0.353,3.3626605245075565,4.128687697228445,3.6989265769583124,4.541556466951291,2.353862367155289,2.8900813880599125
0.354,3.3321787964562013,4.101094562248195,3.6653966761018215,4.511204018473016,2.3325251575193406,2.870766193573738
0.355,3.30195354204512,4.073505387154334,3.632148896249632,4.480855925869769,2.311367479431584,2.8514537710080354
0.356,3.271987177245819,4.045923246886097,3.599185894970401,4.450515571574708,2.2903910240720733,2.832146272820269
0.357,3.242282076892762,4.018351205091124,3.5665102845820384,4.420186325600238,2.2695974538249333,2.8128458435637875
0.358,3.2128405744598574,3.990792313808926,3.5341246319058435,4.38987154518982,2.2489884021219,2.793554619666249
0.359,3.18366496184154,3.963249613155781,3.5020314580256944,4.3595745744713605,2.228565473289078,2.7742747292090475
0.36,3.154757489138409,3.9357261310111014,3.4702332380522503,4.329298744112213,2.2083302423968862,2.755008291707772
0.361,3.126120364447458,3.9082248827053045,3.438732400892204,4.299047370975837,2.1882842551132207,2.735757417893714
0.362,3.0977557536569647,3.880748870709216,3.407531329022661,4.2688237577801385,2.168429027559875,2.716524209496452
0.363,3.069665780245983,3.8533010843250386,3.3766323582705815,4.238631192757543,2.148766046172188,2.697310759027528
0.364,3.041852525088518,3.825884499378919,3.34603777759737,4.208472949316811,2.1292967675619625,2.678119149565244
0.365,3.014318026262373,3.7985020779151397,3.3157498288886105,4.178352285706654,2.110022618383661,2.6589514545405986
0.366,2.987064278862709,3.771156767891974,3.28577070674898,4.148272444681172,2.090944995203896,2.6398097375243825
0.367,2.9600932348203015,3.7438515028792283,3.2561025583023318,4.118236653167152,2.072065264374211,2.6206960520154605
0.368,2.933406802724554,3.716589201757506,3.22674748299701,4.088248121933257,2.053384761907188,2.601612441230255
0.369,2.9070068476512523,3.6893727684192252,3.197707532416378,4.058310045261148,2.0349047933558766,2.582560937893458
0.37,2.880895190995096,3.6622050914714146,3.168984710094606,4.028425600618557,2.0166266336965673,2.563543564029991
0.371,2.8550736103070076,3.635089043940326,3.1405809713377084,3.998597948334359,1.9985515272149053,2.544562330758229
0.372,2.829543839136263,3.6080274829778842,3.112498223049889,3.9688302312756734,1.980680687395384,2.52561923808452
0.373,2.804307566877406,3.5810232495700145,3.084738323565147,3.939125574527017,1.963015296814184,2.506716274699011
0.374,2.779366438622046,3.5540791682468673,3.0573030824842506,3.9094870850715546,1.945556507035432,2.4878554177728076
0.375,2.7547220550154448,3.527198046794975,3.0301942605169896,3.879917851474473,1.9283054385108112,2.469038632756483
0.376,2.7303759721180167,3.5003826759713714,3.0034135693298185,3.8504209435685093,1.9112631804826117,2.4502678731799605
0.377,2.7063297012716676,3.4736358292196985,2.9769626713988346,3.820999412141669,1.8944307908901672,2.4315450804537893
0.378,2.6825847089710386,3.446960262388331,2.950843179868143,3.7916562886271645,1.8778092962797268,2.412872183671832
0.379,2.659142416739649,3.420358713450549,2.9250566584136144,3.7623945847956044,1.8613996917177542,2.394251099415385
0.38,2.63600420101094,3.393833902226786,2.8996046211120343,3.7332172924494653,1.845202940707658,2.375683731558751
0.381,2.613171393014259,3.367388530108978,2.874488532315685,3.7041273831198764,1.8292199751099811,2.3571719710762853
0.382,2.59064527866576,3.341025279787046,2.8497098065323363,3.6751278077657514,1.813451695066032,2.338717695850933
0.383,2.568427098464264,3.3147468149775365,2.825269808310691,3.646221496475291,1.7978989689249847,2.320322770484276
0.384,2.5465180473920634,3.2885557801544483,2.8011698521312702,3.6174113581698935,1.7825626331744442,2.301989046108114
0.385,2.524919274820694,3.262454800282273,2.7774112023027637,3.588700280310501,1.7674434923744855,2.2837183601975912
0.386,2.503631884421682,3.2364464805512765,2.7539950728638507,3.560091128606405,1.7525423190951772,2.2655125363858937
0.387,2.4826569340822626,3.210533406115048,2.730922627490489,3.531586746726554,1.7378598538575838,2.2473733842805337
0.388,2.4619954358261067,3.1847181418303414,2.7081949794087175,3.503189956013377,1.7233968050782746,2.2293026992812393
0.389,2.4416483557390185,3.1590032319992387,2.6858131913129206,3.474903555199164,1.7091538490173128,2.2113022623994674
0.39,2.4216166138996558,3.1333912001136595,2.6637782752896215,3.4467303201250266,1.695131629729759,2.1933738400795617
0.391,2.401901084315253,3.1078845486022413,2.6420911927467787,3.418673003462467,1.681330759020677,2.175519184021569
0.392,2.382502594862352,3.0824857585796193,2.6207528543485874,3.3907343344375827,1.6677518164036462,2.1577400310057335
0.393,2.3634219272325687,3.0571972895981276,2.5997641199558257,3.362917018557942,1.654395349062798,2.140038102718689
0.394,2.3446598168833717,3.0320215794019494,2.579125798571709,3.3352237373421456,1.64126187181836,2.1224151055813643
0.395,2.326216952993895,3.0069610436837393,2.5588386482932846,3.3076571480521144,1.6283518670957264,2.104872730578617
0.396,2.308093978425778,2.982018075843744,2.538903376268356,3.2802198834281193,1.6156657848980447,2.0874126530906203
0.397,2.2902914896890554,2.957195046751443,2.519320638657961,3.2529145514265885,1.6032040427823386,2.07003653272601
0.398,2.2728100369130715,2.932494304509739,2.500091040604379,3.2257437349607136,1.59096702583915,2.052746013156817
0.399,2.2556501238224396,2.90791817422171,2.4812151362046837,3.198709991643882,1.5789550866757076,2.035542721955197
0.4,2.2388122077180492,2.883468957759964,2.4626934284898545,3.1718158535359615,1.5671685454026343,2.0184282704319747
0.401,2.222296699463114,2.859148933538602,2.444526369409426,3.1450638268924633,1.5556076896241797,2.0014042534770216
0.402,2.2061039634742547,2.8349603562878247,2.4267143598216805,3.118456391916608,1.5442727744319782,1.9844722494014775
0.403,2.1902343177176444,2.8109054568311977,2.409257749489409,3.0919960025143185,1.533164022402351,1.9676338197818388
0.404,2.174688033710181,2.7869864418656047,2.3921568370811994,3.0656850860521665,1.5222816235971266,1.950890509305924
0.405,2.159465336525713,2.7632054937439037,2.3754118701782847,3.039526043118295,1.511625735567999,1.9342438456207331
0.406,2.1445664048063042,2.739564770260312,2.3590230452869347,3.013521247286344,1.501196483364413,1.9176953391822191
0.407,2.129991370778531,2.716066404438543,2.3429905078563844,2.9876730448823983,1.4909939595449715,1.9012464831069809
0.408,2.1157403202748313,2.692712504322711,2.3273143523023148,2.961983754754983,1.4810182241923817,1.8848987530258983
0.409,2.1018132927598687,2.669505152771029,2.3119946220358556,2.9364556680481333,1.471269304931908,1.868653606939721
0.41,2.088210281361948,2.646446407252322,2.297031309498143,2.9110910479775556,1.4617471969533635,1.852512485076626
0.411,2.074931232909436,2.623538299645367,2.2824243562003796,2.885892129609905,1.4524518630366052,1.8364768097517574
0.412,2.061976047972218,2.6007828360410925,2.26817365276944,2.860861119645203,1.4433832335805523,1.8205479852287652
0.413,2.0493445809081665,2.5781819965476473,2.2542790389989835,2.8360001962024133,1.4345412066357164,1.8047273975833535
0.414,2.037036639914625,2.555737735098363,2.2407403039060876,2.811311508608201,1.4259256479402374,1.7890164145688545
0.415,2.0250519870848827,2.533451979262628,2.227557185793371,2.786797177188892,1.4175363909594179,1.7734163854838398
0.416,2.0133903384696703,2.5113266300596915,2.2147293723166377,2.7624592930656617,1.409373236928769,1.7579286410417843
0.417,2.0020513641436244,2.4893635617754173,2.202256500557987,2.7382999179529603,1.401435954900537,1.7425544932427923
0.418,1.9910346882767485,2.4675646217820058,2.1901381571044234,2.7143210839602077,1.3937242817937239,1.7272952352474042
0.419,1.9803398892108435,2.4459316303606995,2.178373878131928,2.6905247933967704,1.3862379224475903,1.7121521412524898
0.42,1.969966499540913,2.424466380527493,2.1669631494950043,2.666913018580243,1.378976549678639,1.6971264663692451
0.421,1.9599140062015126,2.4031706378618636,2.155905406821664,2.6434877016480507,1.3719398043410587,1.6822194465033045
0.422,1.9501818505580548,2.38204614033854,2.1452000356138603,2.6202507543723943,1.3651272953906384,1.6674322982369776
0.423,1.9407694285030574,2.361094598162322,2.134846371353363,2.597204057978555,1.3585385999521402,1.6527662187136252
0.424,1.9316760905572998,2.3403176936059773,2.12484369961303,2.574349462966576,1.3521732633901098,1.638222385524184
0.425,1.9229011419759177,2.319717080851219,2.11519125617351,2.551688788936342,1.3460307993831422,1.6238019565958532
0.426,1.9144438428593826,2.2992943858327886,2.105888227145321,2.5292238244160687,1.3401106900015678,1.609506070082952
0.427,1.9063034082693822,2.2790512060856574,2.0969337490963205,2.5069563266942243,1.3344123857885675,1.5953358442599603
0.428,1.898479008349577,2.258989110595361,2.088326909184535,2.484888021654898,1.3289353058447038,1.5812923774167527
0.429,1.8909697684512272,2.2391096396514807,2.08006674529635,2.4630206036166298,1.323678837915859,1.5673767477560365
0.43,1.883774769263657,2.2194143047042894,2.072152246190023,2.4413557351747195,1.3186423384845598,1.5535900132930027
0.431,1.8768930469495766,2.199904588224574,2.0645823516445345,2.4198950470470324,1.3138251328647035,1.539933211757202
0.432,1.8703235932852076,2.180581943566647,2.0573559526137286,2.3986401379233127,1.3092265152996452,1.526407360496653
0.433,1.864065355805229,2.161447794834564,2.050471891385752,2.377592574318021,1.3048457490636602,1.5130134563841948
0.434,1.858117237952511,2.142503536751558,2.0439289617477625,2.3567538904267145,1.3006820665667576,1.4997524757260907
0.435,1.85247809923262,2.123750534532704,2.037725909155882,2.3361255879859755,1.2967346694628339,1.4866253741728932
0.436,1.8471467553730863,2.1051901237608277,2.031861430910395,2.3157091361369115,1.2930027287611603,1.4736330866325797
0.437,1.842121978487417,2.0868236102656654,2.026334176336159,2.295505971292233,1.2894853849411918,1.4607765271859663
0.438,1.8374024972438239,2.0686522700062957,2.0211427469682066,2.2755174970069265,1.2861817480706765,1.4480565890044075
0.439,1.8329869970386614,2.0506773489568464,2.0162856967425276,2.2557450838525326,1.283090897927063,1.4354741442697931
0.44,1.8288741201745573,2.032900062995492,2.011761532192013,2.2361900692950427,1.2802118841221901,1.423030044096845
0.441,1.8250624660431978,2.0153215977967514,2.007568712647518,2.2168537575764278,1.2775437262302383,1.4107251184577265
0.442,1.821550591312775,1.997943108727096,2.0037056504440525,2.197737419599807,1.2750854139189425,1.3985601761089679
0.443,1.8183370101200547,1.9807657207438811,2.00017071113206,2.1788422928182705,1.2728359070840383,1.3865360045207173
0.444,1.8154201942670474,1.9637905282976051,1.9969622136937524,2.160169581127367,1.270794135986933,1.374653369808324
0.445,1.8127985734222793,1.9470185952375112,1.9940784307645074,2.1417204547612636,1.2689590013955954,1.3629130166662584
0.446,1.8104705353266182,1.930450954720538,1.9915175888592802,2.123496050192593,1.2673293747286327,1.351315668304377
0.447,1.8084344260036413,1.914088609123628,1.9892778686040056,2.105497470035992,1.265904098202549,1.33986202638654
0.448,1.806688549974532,1.897932529959404,1.9873574049719853,2.0877257829553457,1.2646819849821722,1.3285527709715832
0.449,1.8052311704774624,1.8819836577952194,1.9857542875252088,2.0701820235747426,1.2636618193342235,1.3173885604566538
0.45,1.8040605096914613,1.8662429021755902,1.9844665606606076,2.0528671923931503,1.2628423567840228,1.3063700315229132
0.451,1.803174748964727,1.8507111415480197,1.9834922238611998,2.0357822557028227,1.2622223242753088,1.2954977990836138
0.452,1.8025720290473677,1.8353892231922178,1.9828292319521046,2.0189281455114405,1.2618004203331572,1.2847724562345524
0.453,1.8022504503285388,1.8202779631527244,1.9824754953613928,2.0023057594679976,1.2615753152299771,1.274194574206907
0.454,1.8022080730779644,1.8053781461749445,1.982428880385761,1.9859159607924397,1.261545651154575,1.263764702322461
0.455,1.8024429176918,1.7906905256445973,1.9826872094609802,1.9697595782090578,1.26171004238426,1.2534833679512178
0.456,1.802952964942829,1.776215823530588,1.983248261437112,1.9538374058836476,1.2620670754599803,1.2433510764714113
0.457,1.80373615623495,1.7619547303313072,1.9841097718584453,1.9381502033644387,1.262615309364465,1.2333683112319147
0.458,1.8047903938619356,1.7479079050243609,1.9852694332481293,1.9226986955267977,1.2633532757033548,1.2235355335170524
0.459,1.8061135412704337,1.7340759750197383,1.9867248953974772,1.9074835725217127,1.2642794788893035,1.2138531825138166
0.46,1.8077034233271956,1.7204595361164197,1.9884737656599154,1.8925054897280622,1.2653923963290368,1.2043216752814934
0.461,1.8095578265904706,1.707059152462429,1.990513609249518,1.8777650677086724,1.2666904786133293,1.1949414067236999
0.462,1.8116744995855782,1.693875356518335,1.9928419495441363,1.863262892170169,1.2681721497099048,1.1857127495628341
0.463,1.814051153084601,1.6809086490242042,1.9954562683930614,1.848999513926625,1.2698358071592206,1.1766360543169425
0.464,1.816685460390171,1.668159498970006,1.9983540064291883,1.834975448867007,1.2716798222731196,1.1677116492790036
0.465,1.8195750576233425,1.6556283435694765,2.001532563385677,1.8211911779264245,1.2737025403363396,1.158939840498633
0.466,1.8227175440154886,1.643315588237441,2.0049892984170374,1.8076471470611857,1.275902280810842,1.1503209117662083
0.467,1.826110482204212,1.6312216065705958,2.0087215304246335,1.7943437672276559,1.2782773375429484,1.1418551245994166
0.468,1.8297513985332339,1.619346740331752,2.0127265383865574,1.7812814143649278,1.2808259789732637,1.1335427182322262
0.469,1.833637783356227,1.607691299437544,2.01700156169185,1.7684604293812989,1.2835464483493588,1.1253839096062805
0.47,1.837767091344562,1.5962555619495988,2.0215438004790185,1.755881118144559,1.2864369639411934,1.1173788933647189
0.471,1.842136741798937,1.5850397740691717,2.026350415978831,1.7435437514760894,1.2894957192592558,1.10952784184842
0.472,1.846744118964848,1.5740441501352451,2.031418530861333,1.73144856514877,1.2927208832753934,1.1018309050946713
0.473,1.851586572351887,1.56326887262609,2.036745229587076,1.7195957598886993,1.2961106006463208,1.0942882108382626
0.474,1.8566614170568054,1.552714092164291,2.0423275587624863,1.7079855013807204,1.2996629919397638,1.0868998645150032
0.475,1.8619659340903398,1.5423799275252337,2.048162527499374,1.6966179202777572,1.3033761538632378,1.079665949267663
0.476,1.867497370707739,1.5322664656490503,2.054247107778513,1.6854931122139556,1.307248159495417,1.0725865259543348
0.477,1.8732529407429737,1.5223737616560262,2.060578234817271,1.674611137821629,1.3112770585200815,1.065661633159218
0.478,1.8792298249465933,1.51270183886546,2.0671528074412526,1.6639720227520063,1.3154608774626153,1.0588912872058216
0.479,1.8854251713271757,1.50325068881798,2.073967688459893,1.6535757576997783,1.319797619929023,1.0522754821725855
0.48,1.8918360954963678,1.4940202713013089,2.0810197050460046,1.6434222984314402,1.3242852668474574,1.045814189910916
0.481,1.8984596810174428,1.4850105143794785,2.0883056491191874,1.6335115658174268,1.32892177671221,1.0395073600656348
0.482,1.9052929797573674,1.4762213144254868,2.095822277733104,1.623843445868036,1.3337050858301571,1.0333549200978407
0.483,1.9123330122423248,1.4676525361573955,2.1035663134665574,1.6144177897731355,1.3386331085696273,1.0273567753101767
0.484,1.9195767680166638,1.4593040126778636,2.1115344448183304,1.6052344139456505,1.3437037376116645,1.0215128088745042
0.485,1.9270212060052332,1.451175545517112,2.1197233266057567,1.5962931000688239,1.3489148442036631,1.015822881861978
0.486,1.9346632548790637,1.4432669046793145,2.12812958036697,1.5875935951472464,1.3542642784153445,1.0102868332755197
0.487,1.9424998134243556,1.4355778286924084,2.1367497947667915,1.5791356115616497,1.359749869397049,1.0049044800846854
0.488,1.9505277509147518,1.4281080246613218,2.1455805260062273,1.5709188271274546,1.3653694256403262,0.9996756172629248
0.489,1.9587439074868187,1.420857168324609,2.154618298235501,1.5629428851570704,1.371120735240773,0.9946000178272257
0.49,1.967145094518746,1.413824904114488,2.163859603970621,1.5552073945259373,1.377001566163122,0.9896774328801411
0.491,1.9757280950121707,1.4070108452202754,2.173300904513388,1.5477119297423034,1.3830096665085194,0.9849075916541924
0.492,1.9844896639771443,1.4004145736552087,2.182938630374859,1.54045603102073,1.389142764784001,0.9802902015586458
0.493,1.9934265288201418,1.3940356403266503,2.192769181702156,1.5334392043593157,1.3953985701740992,0.9758249482286548
0.494,2.0025353897351255,1.3878735651096643,2.2027889287086384,1.5266609216206313,1.4017747728145877,0.9715114955767647
0.495,2.0118129200975825,1.381927836923961,2.212994212107341,1.5201206206163576,1.4082690440683077,0.9673494858467724
0.496,2.0212557668615254,1.3761979138141944,2.223381343547678,1.5138177051956145,1.4148790368030677,0.9633385396699359
0.497,2.0308605509593827,1.3706832230336121,2.233946606055321,1.507751545336974,1.4216023856715678,0.9594782561235283
0.498,2.0406238677047766,1.36538316113104,2.2446862544752544,1.501921477244145,1.4284367073933435,0.955768212791728
0.499,2.0505422871980974,1.3602970940411994,2.255596515917907,1.4963268034453199,1.4353796010386681,0.9522079658288394
0.5,2.0606123547348876,1.3554243571783404,2.2666735902083763,1.4909667928961752,1.4424286483144213,0.9487970500248382
0.501,2.0708305912169314,1.350764255533189,2.2779136503386246,1.4858406810865084,1.449581413851852,0.945534978873232
0.502,2.0811934935660705,1.3463160637731872,2.2893128429226777,1.4809476701505067,1.4568354454962493,0.9424212446412309
0.503,2.0916975351406473,1.3420790263460267,2.3008672886547124,1.47628692898063,1.464188274598453,0.9394553184422185
0.504,2.1023391661545654,1.338052357586454,2.312573082770022,1.4718575933451001,1.4716374163081958,0.9366366503105177
0.505,2.1131148140989167,1.3342352418263443,2.3244262955088084,1.4676587660089795,1.4791803698692416,0.9339646692784409
0.506,2.1240208841661135,1.3306268335080262,2.336422972582725,1.4636895168588295,1.4868146189162794,0.9314387834556181
0.507,2.1350537596765173,1.3272262573008482,2.348559135644169,1.4599488830309337,1.4945376317735621,0.9290583801105935
0.508,2.146209802507475,1.3240326082209735,2.3608307827582227,1.4564358690430717,1.5023468617552325,0.9268228257546812
0.509,2.1574853535247573,1.32104495175439,2.373233888877233,1.4531494469298298,1.5102397474673301,0.9247314662280728
0.51,2.1688767330163254,1.3182623239831224,2.3857644063179584,1.4500885563814354,1.5182137131114277,0.9227836267881855
0.511,2.180380241128406,1.3156837317146328,2.398418265241247,1.4472521048860967,1.5262661687898842,0.9209786122002427
0.512,2.191992158303792,1.3133081526143964,2.4111913741341713,1.4446389678758367,1.5343945108126542,0.9193157068300772
0.513,2.203708745722372,1.3111345353416375,2.4240796202946093,1.442247988875802,1.5425961220056603,0.917794174739146
0.514,2.215526245743802,1.3091617996882117,2.437078870318182,1.4400779796570335,1.5508683720206613,0.9164132597817479
0.515,2.227440882352285,1.3073888367206181,2.4501849705875136,1.4381277203926806,1.5592086176465996,0.9151721857044324
0.516,2.239448861603425,1.3058145089251294,2.4633937477637677,1.4363959598176428,1.5676142031223974,0.9140701562475902
0.517,2.2515463720730913,1.3044376503560204,2.4767010092804007,1.4348814153916227,1.5760824604511638,0.9131063552492139
0.518,2.2637295853082486,1.3032570667868826,2.4901025438390736,1.433582773465571,1.584610709715774,0.9122799467508175
0.519,2.2759946562797237,1.3022715358650063,2.5035941219076965,1.4324986894515073,1.5931962593958064,0.9115900751055042
0.52,2.2883377238368245,1.3014798072688156,2.517171496220507,1.4316277879956976,1.601836406685777,0.9110358650881707
0.521,2.300754911163821,1.3008806028683377,2.5308304022802033,1.4309686631551717,1.6105284378146745,0.9106164220078361
0.522,2.3132423262381616,1.3004726168886904,2.544566558861978,1.4305198785775597,1.619269628366713,0.9103308318220831
0.523,2.3257960622904665,1.300254516076572,2.5583756685195134,1.4302799676842293,1.6280572436033265,0.9101781612536002
0.524,2.338412198266168,1.3002249398697314,2.5722534180927847,1.4302474338567048,1.6368885387863175,0.9101574579088119
0.525,2.3510867992888125,1.3003825005694067,2.586195479217694,1.4304207506263478,1.6457607595021686,0.9102677503985845
0.526,2.363815917124929,1.3007257835157073,2.600197508837422,1.4307983618672784,1.6546711419874502,0.9105080484609949
0.527,2.3765955906504557,1.301253347265926,2.6142551497155013,1.431378681992519,1.663616913455319,0.910877343086148
0.528,2.3894218463186316,1.3019637237757604,2.628364030950495,1.432160096153337,1.672595292423042,0.9113746066430322
0.529,2.402290698629357,1.3028554185834236,2.6425197684922925,1.4331409604417664,1.6816034890405498,0.9119987930083964
0.53,2.4151981505999167,1.3039269109966252,2.6567179656599085,1.4343196020962883,1.6906387054199417,0.9127488376976376
0.531,2.4281401942370695,1.3051766542824044,2.6709542136607767,1.4356943197106453,1.6996981359659487,0.9136236579976831
0.532,2.4411128110104094,1.306603075859792,2.6852240921114507,1.4372633834457718,1.7087789677072864,0.9146221531018545
0.533,2.454111972326987,1.3082045774952837,2.699523169559686,1.4390250352448126,1.7178783806288909,0.9157432042466986
0.534,2.46713364000711,1.3099795355011028,2.713847004007821,1.4409774890512135,1.726993548004977,0.916985674850772
0.535,2.4801737667612995,1.3119263009362307,2.7281911434374297,1.4431189310298542,1.7361216367329095,0.9183484106553615
