time,gyro_x,gyro_y,gyro_z,setpoint_roll,setpoint_pitch,setpoint_yaw,throttle
0.0,0.016472800395339868,0.2188101192160165,0.17431988926672776,0.0,0.1783068598768347,0.1932653061713073,0.3818910182129601
0.001,0.0027303893859816613,0.16893407944156985,0.17547385433355722,0.006785695469794662,0.18244377717738547,0.19448798360832317,0.3861211631117718
0.002,0.023348106417329578,0.1764439727187366,0.17929032426813174,0.013570522990037852,0.18656756783340503,0.1957051136472884,0.3839286297699732
0.003,-0.005650073173963268,0.16416855403556388,0.16003739182931664,0.020353614722196406,0.19067793514234255,0.19691666157189464,0.38853088124580193
0.004,-0.00723494759084595,0.1837844579535201,0.1779397570733561,0.027134103049759564,0.19477458336744344,0.19812259282505268,0.3940147932692571
0.005,-0.015429533903658213,0.147973444888816,0.16209082462625757,0.033911120689214716,0.19885721775902732,0.1993228730098782,0.39825695823693724
0.006,-0.04663966547347269,0.1424078486132483,0.16726265264580084,0.040683800800980455,0.20292554457569478,0.2005174678906727,0.3830318720463208
0.007,-0.0009173687403669318,0.19093891522177514,0.19118159712879373,0.047451277100282956,0.20697927110546196,0.20170634339390028,0.38718772210611857
0.008,0.01574959155297519,0.17823175676176423,0.17389146570255398,0.05421268396796135,0.21101810568682092,0.20288946560915913,0.37534782273100664
0.009,0.012441118640300633,0.17832768078292408,0.1608403589781942,0.060967156561187896,0.21504175772972411,0.2040668007901491,0.3945730309456351
0.01,0.0076956875663666754,0.17698230009862734,0.1695072028111079,0.067713830924089,0.2190499377364923,0.20523831535563422,0.38978972347619095
0.011,0.0007967505008704212,0.1350250463724554,0.16069914687261863,0.07445184409825262,0.22304235732264358,0.2064039758904003,0.3774290889059972
0.012,0.00570859713841477,0.14426816756122723,0.15913298339585133,0.08118033423310818,0.22701872923764224,0.20756374914620826,0.37199254517829755
0.013,0.018756742196972268,0.1696603948590749,0.14447901198206245,0.08789844069616477,0.23097876738556622,0.20871760204274242,0.38900091014229693
0.014,0.02430875701698421,0.15296846163488362,0.16209910782863107,0.09460530418309357,0.2349221868456914,0.20986550166855403,0.4029075979710464
0.015,0.0399132688753388,0.17139025042488715,0.17756922493422286,0.10130006682764033,0.23884870389299154,0.2110074152819999,0.406421172589854
0.016,0.05808824788750004,0.20543388834620577,0.1851927990413721,0.10798187231135387,0.24275803601855162,0.21214331031217656,0.3720223756398987
0.017,0.04457667158192443,0.1662877463255948,0.16377086772469063,0.11464986597311683,0.24664990194989436,0.2132731543598491,0.39891673021589547
0.018,0.05389904061668646,0.19572401337569528,0.17236883241788523,0.12130319491846409,0.2505240216712175,0.21439691519837514,0.39743075522536214
0.019,0.05603678462469069,0.19204813950277064,0.17732313913576775,0.12794100812867554,0.2543801164435405,0.2155145607746245,0.40463683458129374
0.02,0.060160082456740004,0.1745013681736001,0.16554305962046698,0.1345624565696287,0.25821790882475965,0.216626059209893,0.3938828470065594
0.021,0.038598389740745774,0.1673525554319242,0.16778596241340232,0.14116669330039763,0.26203712268960955,0.21773137880081186,0.3843215054002256
0.022,0.03822526029490249,0.19482946887419425,0.16314360855669896,0.14775287358158398,0.26583748324953044,0.21883048802025215,0.3979226205314536
0.023,0.07073057954141444,0.20908475331362864,0.18595408332273117,0.15432015498336663,0.2696187170724385,0.21992335551822387,0.35772717477585364
0.024,0.12681240210441452,0.21393239613347417,0.20085355302873464,0.16086769749325572,0.2733805521023993,0.2210099501227702,0.37690815931621147
0.025,0.1133370431046835,0.22866463677832605,0.19305128926580556,0.16739466362353755,0.2771227176792018,0.22209024084085657,0.37853016607233303
0.026,0.11417107364526805,0.2472201159044765,0.1874506406435707,0.1739002185183966,0.2808449445578323,0.22316419685925482,0.38104959389438603
0.027,0.10828269785150522,0.24227364276973762,0.18692744289416105,0.1803835300607009,0.2845469649278461,0.22423178754542192,0.37103833403840686
0.028,0.14516958977862934,0.19309360816526186,0.1945747314001108,0.1868437689784369,0.28822851243263614,0.22529298244837379,0.3826644362580047
0.029,0.11181959746297356,0.20319006229237593,0.17404803961424403,0.19328010895078082,0.2918893221885974,0.22634775129955387,0.38295048363614487
0.03,0.11897880759869076,0.2086546676810384,0.19581202611194054,0.19969172671379196,0.295529130804185,0.22739606401369641,0.3865892524331821
0.031,0.13960662677080826,0.24674523333197454,0.19410171639524948,0.20607780216571572,0.29914767639886425,0.22843789068968462,0.39331471003291407
0.032,0.1751583110244228,0.24703156207519644,0.19704153924910542,0.2124375184718814,0.30274469862195375,0.22947320161140367,0.37505112928963685
0.033,0.16381782003816767,0.2627297471880522,0.1884563322772351,0.21877006216918268,0.3063199386713566,0.23050196724858799,0.38478987255733227
0.034,0.16612713418250927,0.26173717350999354,0.176440926315424,0.2250746232701266,0.3098731393121811,0.23152415825766384,0.3892823041813257
0.035,0.15558114321646951,0.23802865099363646,0.17808642285293647,0.23135039536643792,0.313404044895249,0.23253974548258619,0.36829054289106133
0.036,0.14747576591072123,0.23513479143887012,0.18532345635099637,0.23759657573220588,0.3169124013754882,0.23354869995567032,0.389810590202657
0.037,0.1577611588996815,0.2481064717441082,0.19073495356992848,0.24381236542655987,0.32039795633021234,0.23455099289841808,0.3937163901627495
0.038,0.14440279494346606,0.25389808030960104,0.17622264903201845,0.24999696939586072,0.3238604589772811,0.23554659572233871,0.4001052583600882
0.039,0.17525046993796844,0.27774161728675234,0.20857894115541006,0.2561495965753951,0.3272996601931447,0.23653548002976438,0.37532705920930404
0.04,0.22223082859439974,0.281718434086888,0.20577300725061495,0.26226945999055973,0.33071531253076747,0.23751761761466006,0.38950353703284496
0.041,0.23921420001519522,0.29030907236444686,0.19802519664855053,0.26835577685752204,0.33410717023743164,0.23849298046342798,0.4063567852904767
0.042,0.20593657139182858,0.2781343642747618,0.20099676316066267,0.27440776868334515,0.3374749892724189,0.23946154075570703,0.37080552805227884
0.043,0.22286103501566928,0.2673211237742365,0.1975520923645884,0.28042466136556393,0.34081852732456913,0.2404232708651657,0.3917120238133653
0.044,0.20713290648691696,0.27877715385322144,0.2052474080610351,0.2864056852911996,0.34413754382971434,0.24137814336029068,0.3736797962816343
0.045,0.18927173543388204,0.2722861509502848,0.17477077863201557,0.29235007543519936,0.34743179998798657,0.24232613100516884,0.3869523442203537
0.046,0.22458321180980004,0.2582353367239572,0.19082801045947773,0.2982570714582905,0.35070105878100016,0.24326720676026434,0.3826034111941092
0.047,0.2213216877328715,0.3015700648636715,0.22912517439276697,0.30412591780423376,0.353945084988904,0.24420134378318967,0.39691130450780576
0.048,0.2582524451734716,0.316586226290751,0.20683087440587897,0.3099558637964663,0.35716364520730626,0.24512851542947142,0.38903377934909045
0.049,0.28538060334804666,0.32094051486890296,0.21956547818868977,0.31574616373411873,0.36035650786406714,0.24604869525331038,0.377413873303624
0.05,0.3102060428128741,0.32543597767675,0.22140273541261754,0.32149607698739796,0.36352344323596003,0.24696185700833562,0.41116842322285146
0.051,0.27732889373399155,0.31409698681854964,0.21351623684777388,0.327204868092319,0.3666642234652005,0.24786797464835308,0.3951828208906941
0.052,0.3088977003334195,0.30139306361115537,0.22334343164604628,0.3328718068447784,0.3697786225758397,0.24876702232808878,0.405044797074304
0.053,0.2771164387621334,0.3341971505815332,0.21614407957832793,0.3384961683939525,0.37286641649002406,0.2496589744039259,0.38021629485102937
0.054,0.28064625734665005,0.3125870472605674,0.22719453194858374,0.3440772333350133,0.37592738304411616,0.250543805434636,0.38879751467052
0.055,0.26267243278405245,0.31499925651333915,0.21486477643921975,0.3496142878011457,0.3789613020046805,0.2514214901821049,0.40566103767604544
0.056,0.30428692089653275,0.34513594694867045,0.235148446030403,0.3551066235548577,0.38196795508432807,0.2522920036120525,0.38482839450375284
0.057,0.32104115352245305,0.3374235936988878,0.2172414870499515,0.3605535380785704,0.3849471259574226,0.2531553208947469,0.3939233835662141
0.058,0.32563450331900223,0.3420819117452672,0.20705838583734676,0.36595433466447547,0.38789860027564443,0.25401141740571237,0.3933549416298622
0.059,0.31031443599046543,0.34284653396585957,0.20917530939222137,0.3713083225036507,0.390822165683413,0.2548602687264321,0.36594122568152126
0.06,0.3117454473427653,0.318541164519959,0.1874938003892115,0.37661481677442027,0.39371761183316567,0.2557018506450443,0.39362761304255184
0.061,0.31434959755579717,0.35314434229308195,0.19882284175497997,0.3818731387299493,0.3965847304004917,0.2565361391570331,0.3895824655365347
0.062,0.2916486029203804,0.31777042595415117,0.20399965690054744,0.3870826157850616,0.39942331509912116,0.25736311046591315,0.3927741654105145
0.063,0.31847052324695896,0.3192084245128416,0.21304140632088084,0.3922425816022693,0.40223316169576695,0.2581827409839082,0.38628703472081266
0.064,0.3446235630502434,0.376216824189358,0.23670202030651502,0.39735237617700286,0.40501406802481943,0.25899500733262415,0.37960987603747925
0.065,0.37473180364432224,0.37150226873293346,0.23480043340915616,0.402411345922032,0.4077658340028916,0.25979988634371565,0.3854702272402277
0.066,0.35749562515223826,0.37742705373979846,0.23510665380998774,0.4074188437510644,0.4104882616432153,0.2605973550595471,0.38906712987255143
0.067,0.3700331271218965,0.3642553025578157,0.22770336820678638,0.4123742291615143,0.41318115506988584,0.2613873907338475,0.4028275016695086
0.068,0.3569720017124993,0.3495107420963545,0.22728145185744467,0.41727686831642813,0.4158443205319554,0.262169970832359,0.3889821861536147
0.069,0.35219738320923916,0.3558405354294937,0.22171046152234528,0.4221261341255579,0.4184775664173728,0.2629450730334798,0.3971748809153302
0.07,0.29669026221422706,0.3111179680113374,0.20420847531402087,0.4269214063255712,0.42108070326677016,0.263712675228901,0.39842504875814944
0.071,0.3443569707136999,0.3602711209133465,0.2295878262540079,0.43166207155938857,0.42365354378709424,0.2644727555242368,0.3896763704688763
0.072,0.3839104591026553,0.39629101990866006,0.23466250696644378,0.43634752345463745,0.42619590286508174,0.2652252922396495,0.4079795985143427
0.073,0.4146415698164194,0.374539427409001,0.23929914547615394,0.4409771627012117,0.4287075975805783,0.26597026391046735,0.391977636055235
0.074,0.4086443327055774,0.3920834558429443,0.2392628646500632,0.4455503971279292,0.43118844721969934,0.2667076492877971,0.3899007156347703
0.075,0.3886043634114734,0.37386546068620735,0.21274719767728545,0.45006664177827566,0.43363827328783205,0.26743742733913023,0.4100476862582858
0.076,0.4379723347004346,0.3972711214648961,0.24504654536688714,0.4545253189852255,0.4360568995224782,0.26815957724894235,0.39858843070105254
0.077,0.4220330178851715,0.40588766128610304,0.24203372924879682,0.45892585844513056,0.43844415190593594,0.2688740784192873,0.3683990001012845
0.078,0.42117997249557904,0.3789739671060589,0.22680331746164487,0.46326769729066675,0.4407998586778199,0.2695809104703849,0.3653498296361717
0.079,0.4139459335896888,0.3827691223351177,0.24785299023624421,0.46755028016282996,0.44312385034741975,0.2702800532412015,0.41653195023834705
0.08,0.4429610580761669,0.39912021387548835,0.24541357551287316,0.4717730592819713,0.4454159597058945,0.27097148679002575,0.3985607317700841
0.081,0.4684964350892956,0.40623268455924527,0.23218885833199215,0.47593549451786243,0.4476760218383028,0.2716551913950371,0.39563461204581507
0.082,0.45358176888161333,0.40671326674602454,0.24468537249104003,0.48003705345878334,0.44990387413546895,0.27233114755486815,0.3712538883261682
0.083,0.434545844085315,0.3706450654917752,0.2271541728109739,0.48407721147962257,0.45209935630568215,0.27299933598916143,0.3962762543484107
0.084,0.4376531813612065,0.3843012178877752,0.23388598684617734,0.48805545180898097,0.4542623103862295,0.2736597376391187,0.3855303231123042
0.085,0.42756653647303944,0.3812694732904176,0.2328455757461836,0.4919712655952713,0.45639258075476075,0.274312333668045,0.3945544477611936
0.086,0.4118247778988408,0.37628033056685245,0.22618592135628593,0.4958241519718052,0.45849001414048574,0.27495710546188584,0.3897558620990937
0.087,0.432367366678334,0.3993059004863127,0.2348344132632694,0.4996136181208578,0.4605544596352021,0.2755940346297579,0.39517659966158697
0.088,0.48542504293519984,0.4125537929867164,0.25351765866326426,0.5033391793367038,0.4625857687041524,0.2762231030044739,0.401129068086365
0.089,0.4778614458565431,0.42219406536969456,0.23626111755648393,0.5070003590876154,0.46458379519671167,0.27684429264306076,0.4034345506101939
0.09,0.48398591562867654,0.43832765560156994,0.22579437363082103,0.510596689076815,0.4665483953569021,0.27745758582727104,0.3983320491993942
0.091,0.46425900945246923,0.4282918994390413,0.22773461762423924,0.5141277093023743,0.46847942783373725,0.2780629650640888,0.40054997051664726
0.092,0.4763735864655271,0.39572748340729347,0.24076226712153057,0.5175929681160526,0.4703767536913906,0.27866041308622824,0.3780121736406532
0.093,0.4524013099125502,0.4045545764147464,0.23397018635127614,0.5209920222810663,0.4722402364191934,0.27924991285262624,0.39857300921980715
0.094,0.45343501736683356,0.3980294332939108,0.22686086366499647,0.5243244370287835,0.4740697419414551,0.2798314475489285,0.40221773672343814
0.095,0.4617433509264251,0.42025131393171944,0.2439436316808174,0.5275897861143337,0.47586513862711116,0.28040500058796936,0.3989377334594647
0.096,0.516062733162251,0.4479978698915361,0.2669996745814098,0.530787651871129,0.47762629729919265,0.2809705556102443,0.41787414933804234
0.097,0.4897847127425501,0.45506391560344156,0.2626404236829157,0.5339176252642865,0.47935309124412145,0.2815280964843772,0.3970272577757535
0.098,0.5286002435213669,0.4441461069195799,0.24916993636676363,0.5369793059429488,0.48104539622082637,0.28207760730758025,0.3844606743318372
0.099,0.5256709660148219,0.43705515115463334,0.2499387488337305,0.5399723022914908,0.4827030904696825,0.2826190724061071,0.40050140419542013
0.1,0.5188999423417612,0.4161602892429094,0.2675604099536888,0.5428962314796117,0.4843260547212719,0.2831524763357008,0.39377028554593585
0.101,0.4950943855329192,0.4164588618271445,0.23148594361948185,0.5457507195113019,0.4859141722049642,0.2836778038820336,0.38011708876487327
0.102,0.5228054124093995,0.4487324448127798,0.26247330013822057,0.5485354012726805,0.487467328657319,0.28419504006114116,0.39731524739373897
0.103,0.5101603845709686,0.43542297157883664,0.24567992011373088,0.551249920578697,0.4889854123303065,0.2847041701198499,0.41883418038321885
0.104,0.5261664141269187,0.4590637669657221,0.25912012340803936,0.5538939302186895,0.4904683139993478,0.285205179536198,0.39685150453271295
0.105,0.55547711608704,0.4524728714511896,0.2551278387653765,0.5564670920007967,0.49191592697117337,0.28569805401984927,0.41443187414662364
0.106,0.5416646518367058,0.4342188129444177,0.2260857203172812,0.5589690767952155,0.4933281470914996,0.286182779512501,0.4101973584792999
0.107,0.5450034377450432,0.43180345419650557,0.23539579816336784,0.5613995645762992,0.4947048727525228,0.2866593421882848,0.4301431939327419
0.108,0.5129909307260571,0.42687702155382634,0.2220919371437233,0.5637582444634921,0.4960460049002293,0.2871277284541611,0.40734138913117957
0.109,0.5173900394272782,0.4257300835986227,0.24121680052714725,0.5660448147610933,0.4973514470415229,0.28758792495030694,0.4029658301399561
0.11,0.4873541568149243,0.4229112607867434,0.2401833054231491,0.5682589829968466,0.4986211052511668,0.28803991855049654,0.4032751163627037
0.111,0.5061912353691695,0.4694377619297339,0.2549444762429339,0.5704004659593499,0.49985488817854207,0.28848369636247634,0.40569801359732277
0.112,0.5585802898606479,0.47128596242083226,0.2781972074439502,0.5724689897342811,0.5010527070542197,0.28891924572833233,0.3993911784583388
0.113,0.5577929773972055,0.46050174510678393,0.2542832888417593,0.574464289739433,0.5022144756963476,0.2893465542248513,0.39656253906552996
0.114,0.5350509256821521,0.4756803338941436,0.25780910914900984,0.5763861107585568,0.5033401105168517,0.2897656096638748,0.40834996466727586
0.115,0.5498718441903222,0.47894613476622877,0.26852459226578,0.5782342069740058,0.5044295305274494,0.29017640009264756,0.3953795057229807
0.116,0.5333464247710553,0.42668714320571405,0.25342290533067596,0.5800083419981777,0.5054826573454771,0.2905789137941574,0.3807218253501178
0.117,0.5500268542891983,0.474203966589828,0.2633442204959072,0.581708288903751,0.5064994151995297,0.2909731392874704,0.3875547628025281
0.118,0.5350422381757381,0.4232634927344287,0.23840151731948298,0.5833338302527105,0.5074797309349116,0.2913590653280576,0.4231943729284685
0.119,0.5370807026436432,0.47402341444910423,0.255111526277719,0.5848847581241597,0.5084235340189011,0.29173668090811644,0.39975699689925986
0.12,0.5558761843602248,0.5008502196610358,0.2779961285417618,0.5863608741409161,0.5093307565458244,0.2921059752568839,0.4129585760070504
0.121,0.5758808768004273,0.4831610988284304,0.2795488625008553,0.5877619894948845,0.5102013332419421,0.29246693784094463,0.3955183740346188
0.122,0.5669342471345288,0.46646713664333583,0.24553745537348354,0.5890879249712079,0.5110352014701446,0.29281955836453066,0.41471640968025825
0.123,0.57470835056431,0.4856756967410001,0.25602129464059326,0.5903385109711906,0.5118323012344594,0.2931638267698154,0.4090266011743727
0.124,0.5780059920312305,0.46966787989405734,0.23881122107844707,0.5915135875339912,0.5125925751843682,0.29349973323720063,0.42824432732578516
0.125,0.5670935789489759,0.4503911974893462,0.24591394440875203,0.5926130043570826,0.5133159686189318,0.29382726818559624,0.4203042538988603
0.126,0.5529387880060698,0.4587641775276008,0.25282350242345625,0.5936366208154776,0.5140024294907273,0.2941464222726938,0.4134864155966181
0.127,0.585423158940617,0.4590192720728432,0.25524031103652417,0.5945843059797161,0.5146519084095917,0.2944571863952328,0.39774632932309284
0.128,0.5820543944274321,0.49853886822911164,0.26705559497774334,0.5954559386326114,0.5152643586461765,0.29475955168926066,0.3908551747157191
0.129,0.608587399296157,0.49128541224032285,0.2560287135977892,0.5962514072847557,0.5158397361353088,0.2950535095303852,0.40343405885236827
0.13,0.5851892110059196,0.4872301931123195,0.26009908755476374,0.5969706101887801,0.5163779994791624,0.29533905153402074,0.405498631322658
0.131,0.6091355024245897,0.4844635590880019,0.24603326802360884,0.5976134553523691,0.5168791099502363,0.2956161695556273,0.4005158889388768
0.132,0.5729405953253107,0.454875424702228,0.2565162513080183,0.5981798605500276,0.517343031494141,0.295884855690943,0.4140375783863435
0.133,0.5390243198213405,0.44446935505693025,0.24196924597165811,0.5986697533335973,0.5177697307321923,0.2961451022762092,0.4066588683421263
0.134,0.5299135418808076,0.434652084773768,0.22731622504702673,0.5990830710415246,0.5181591769638133,0.2963969018883895,0.4058524121002824
0.135,0.5499381279058729,0.48326255378147187,0.24976885744903296,0.5994197608068748,0.518511342168743,0.2966402473453811,0.4243234247754213
0.136,0.6121438772257449,0.4866254232625909,0.25935929565554255,0.5996797795640945,0.5188262010090525,0.29687513170621993,0.407442553749134
0.137,0.5906326434635022,0.4712406787249156,0.2639183365799732,0.5998630940545199,0.519103730830968,0.2971015482712785,0.3900762777801773
0.138,0.6160571303122239,0.4906465819926919,0.2755922738376824,0.5999696808306311,0.5193439116665003,0.29731949058245694,0.4187789765861086
0.139,0.6060409692058852,0.4876478223715237,0.2720602747873249,0.5999995262590511,0.5195467262348825,0.2975289524233673,0.40915851464013997
0.14,0.5725468818758644,0.4688414774955509,0.2709774884147077,0.5999526265222896,0.5197121599438121,0.29772992781951096,0.40352676169700435
0.141,0.5621027118187734,0.4435743255656903,0.26792347771309094,0.5998289876192316,0.5198402008905019,0.2979224110384488,0.3954777110516643
0.142,0.576438899775863,0.4710521531583144,0.2724710639338077,0.5996286253643694,0.5199308398625355,0.2981063965899648,0.4222359839222096
0.143,0.5757483936652191,0.47025512838067657,0.26956167243464113,0.5993515653857808,0.5199840703385311,0.29828187922622273,0.4275373605688088
0.144,0.6110533711465683,0.5218157108968902,0.27643935777159073,0.5989978431218499,0.51999988848861,0.2984488539419158,0.39933731038919246
0.145,0.6102754510268951,0.5290152118083594,0.26313519492598814,0.5985675038167351,0.5199782931746723,0.2986073159744093,0.41112935188133776
0.146,0.5705121254176074,0.48200138050663854,0.25692385194118705,0.5980606025145816,0.5199192859504789,0.2987572608038766,0.4129784882939097
0.147,0.5931791209686664,0.4868481320319129,0.26950064586553124,0.597477204052481,0.5198228710615397,0.298898684153428,0.3869400957663059
0.148,0.5981536665995082,0.4788528608475986,0.2546386135066438,0.5968173830521776,0.519689055444808,0.2990315819892327,0.407490252922138
0.149,0.5538430489165599,0.44657799902444745,0.24336212587850112,0.5960812239105241,0.5195178487281817,0.299155950520634,0.387272135514143
0.15,0.5890624423734983,0.44008634613293723,0.25116680577464223,0.5952688207886867,0.5193092632298102,0.2992717862002571,0.4080994094522835
0.151,0.5809118788169438,0.4704366494870388,0.2855023626959843,0.5943802776001001,0.5190633139572082,0.29937908572411065,0.43562662826536663
0.152,0.5974673596819883,0.5048578901922176,0.2777261709535484,0.5934157079971771,0.5187800186061763,0.2994778460316808,0.39123254134487534
0.153,0.6045329822973259,0.5202166262539496,0.2592969210445306,0.5923752353567712,0.5184593975595272,0.2995680643060185,0.431289165607836
0.154,0.5912844047480035,0.48869582877785295,0.2487707373370216,0.5912589927643949,0.5181014738856199,0.29964973797382,0.43024243147158214
0.155,0.5995216045630891,0.4618617802734322,0.23278938843846045,0.5900671229971978,0.517706273336699,0.29972286470549986,0.40901065543722065
0.156,0.5728762206469835,0.46158512012492336,0.24482916115565811,0.5887997785057041,0.5172738243470433,0.29978744241525784,0.4154110687543868
0.157,0.5754226185317455,0.44662816108831793,0.23884700560619965,0.5874571213943123,0.516804158030918,0.29984346926113825,0.4059798296221895
0.158,0.5471068538257954,0.4292378814876006,0.24487268821467428,0.5860393234005609,0.5162973081803379,0.2998909436450823,0.40416619144904653
0.159,0.5818596239315854,0.47638786698482766,0.2698742472050575,0.5845465658731619,0.5157533112626351,0.29992986421297396,0.41212378139922223
0.16,0.5997378051874778,0.5119129419245646,0.2813026052394111,0.5829790397488044,0.5151722064178357,0.29996022985467846,0.40053834204394356
0.161,0.5870537778158944,0.4944994365079131,0.2706802687776675,0.5813369455277321,0.514554035455843,0.2999820397040738,0.41566394519359834
0.162,0.6076352291718984,0.4904537652996977,0.2761962664782393,0.5796204932480982,0.5138988428534301,0.29999529313907575,0.41063604043325574
0.163,0.5846770907548199,0.49420623155115184,0.2716406606729633,0.5778299024590987,0.5132066757510398,0.29999998978165543,0.3974811853629361
0.164,0.582975859655247,0.4748794441762949,0.28724051181000715,0.575965402192891,0.5124775839493921,0.2999961294978501,0.41895494022134927
0.165,0.5754194989359319,0.47146472327820504,0.24962707093569209,0.5740272309352983,0.511711619905902,0.29998371239776694,0.419420180668181
0.166,0.5709750418608251,0.4523892385359655,0.26821649300942535,0.5720156365953051,0.5109088387309045,0.29996273883557995,0.42421892719439763
0.167,0.5689739162368368,0.5029097480097982,0.2777444572678296,0.5699308764733476,0.5100692981836904,0.29993320940951995,0.40513758504370495
0.168,0.6253152434254476,0.5130714528353653,0.2825256829345764,0.5677732172284031,0.5091930586683496,0.2998951249618575,0.4233922693805505
0.169,0.5813832177995668,0.49592710071067525,0.26365437395848096,0.5655429348438814,0.5082801832294255,0.2998484865788785,0.43719623535689156
0.17,0.5887590875754111,0.4858414495344023,0.25413886806914643,0.5632403145923244,0.507330737547379,0.2997932955908538,0.4117030398919529
0.171,0.5818815389655194,0.48234854170687985,0.2565239320012391,0.5608656509989173,0.5063447899338631,0.2997295535720009,0.4129219327066173
0.172,0.5249046346595209,0.45810402973614556,0.25404868715565326,0.5584192478038159,0.5053224113268076,0.29965726234043893,0.4197925690631182
0.173,0.5379841437666898,0.47029480381979033,0.257533933404455,0.5559014179232964,0.5042636752853149,0.2995764239581372,0.3858111793492905
0.174,0.5339591145992227,0.45523172589354527,0.2548277889290044,0.5533124834097296,0.5031686579843686,0.29948704073085614,0.3955567333798718
0.175,0.5724762512428735,0.4984215557512475,0.2648708547751234,0.5506527754103887,0.5020374382093516,0.29938911520808137,0.40549194606462224
0.176,0.5857182984211833,0.5087661049411453,0.2663022246343301,0.5479226341250918,0.5008700973503782,0.2992826501829514,0.4081588039553802
0.177,0.5456006288110421,0.4780245474376331,0.2574732462979697,0.5451224087626877,0.499666719396438,0.2991676486921775,0.4137481834837523
0.178,0.5601152802865254,0.4831191034401572,0.25839137196637113,0.5422524574963893,0.4984273909293529,0.2990441140159575,0.41575953383330977
0.179,0.5332299220778196,0.4566249916412066,0.24437562111353178,0.5393131474179597,0.4971522011175479,0.2989120496778819,0.39622688257714545
0.18,0.5236670723264295,0.42921291439288006,0.23888086239820536,0.5363048544907583,0.4958412417096352,0.2987714594448335,0.4266803178533517
0.181,0.5124592771291437,0.44248109380512507,0.25686973617879777,0.5332279635016516,0.4944946070278132,0.2986223473268802,0.4170011282389262
0.182,0.519307678072466,0.48009362256756094,0.2565981005201366,0.5300828680117955,0.4931123939610799,0.29846471757716003,0.4138716276916515
0.183,0.5413926535153217,0.4747256775346029,0.27318124985015624,0.526869970306296,0.49169470195826226,0.29829857469176047,0.41919071059854573
0.184,0.5603086598389883,0.4946066852825591,0.2605046609446799,0.5235896813427526,0.49024163302086043,0.29812392340958976,0.4060703465515097
0.185,0.5473507802882134,0.4910104728694039,0.26717478929175864,0.5202424206986941,0.4887532916957091,0.29794076871224195,0.4107422432190115
0.186,0.5493699353497372,0.45981575424129056,0.25536262122208925,0.51682861651791,0.48722978506745546,0.2977491158238548,0.40076234987408993
0.187,0.518417719954152,0.4558196274552673,0.26324119824840203,0.513348705455688,0.48567122275085467,0.2975489702109606,0.3874564768647564
0.188,0.5516215386159752,0.5062994536360249,0.28535110353038795,0.5098031326229618,0.48407771688288287,0.2973403375823306,0.4112179973293802
0.189,0.4927497026809309,0.45170454051911124,0.2645406323816492,0.5061923515293774,0.4824493821146695,0.2971232238888116,0.43489983258819026
0.19,0.5222144350701288,0.4800156039154094,0.3075050855570536,0.5025168240252851,0.48078633560324774,0.2968976353231571,0.40753026696528855
0.191,0.5439897962444156,0.4704543062870517,0.28035323296905745,0.4987770202426651,0.4790886970031258,0.2966635783198496,0.39582396768441136
0.192,0.5363535495842614,0.4791891513336893,0.2624473444377267,0.49497341853499355,0.47735658845767703,0.29642105955491777,0.4214307048525792
0.193,0.528500884130477,0.47852878910286945,0.2625775259225167,0.49110650541605705,0.4755901345903529,0.296170085945746,0.4090592014962137
0.194,0.521341214099657,0.420849576031777,0.24485961562158845,0.4871767754977224,0.47378946249571546,0.29591066465087695,0.4202018173026945
0.195,0.5312049336413608,0.4593831139577749,0.24973956368889488,0.4831847314266732,0.4719547017302938,0.2956428030698071,0.42303278256010163
0.196,0.5026213254230248,0.4587700008227786,0.24645640368950034,0.479130883820115,0.4700859843032623,0.2953665088427763,0.4091740893107606
0.197,0.47989485357529965,0.45092743800585067,0.25655964780133234,0.47501575120046413,0.4681834446669423,0.2950817898505493,0.42037947144035337
0.198,0.46168858137750257,0.4531670341294889,0.23548493251090288,0.4708398599290243,0.4662472197071289,0.2947886542141912,0.41512598827777236
0.199,0.483525586359641,0.47700613771723466,0.26254470557596776,0.46660374413865907,0.4642774487332422,0.2944871102948359,0.3920864027133536
0.2,0.5111269796741601,0.4791991848714045,0.27446690267021523,0.4623079456654735,0.46227427346830396,0.2941771666934473,0.40955517828062016
0.201,0.4790660811756953,0.45430088863265494,0.25805987764845073,0.457953013979507,0.46023783803874063,0.2938588322505744,0.4060423746469286
0.202,0.5126494458985769,0.44330071752810574,0.2717450821192922,0.4535395061144517,0.45816828896401357,0.2935321160460988,0.39805080073200233
0.203,0.48441848550008576,0.4379884846498789,0.24980299253916352,0.44906798659640407,0.45606577514607755,0.29319702739897585,0.40613028792579814
0.204,0.48430399564359977,0.41589269724882166,0.25063315609410136,0.4445390273716554,0.45393044785866726,0.29285357586696886,0.424501424073902
0.205,0.3958817249167771,0.3936715174474428,0.23822815178489798,0.43995320773353624,0.45176246073641274,0.29250177124637633,0.41676428488433476
0.206,0.4161385469543927,0.4514736863950884,0.2575386658038222,0.43531111424831875,0.4495619697637863,0.29214162357175283,0.39447613133528964
0.207,0.4704027457277833,0.4376305187357788,0.2616861273448665,0.43061334068019114,0.44732913326387946,0.29177314311562247,0.40356323600922905
0.208,0.45488590853086797,0.4546730527610769,0.26391625152435855,0.4258604879153081,0.4450641118870113,0.29139634038818607,0.41722501702485226
0.209,0.48393956784242675,0.4247109788932396,0.2723688561606713,0.42105316388493436,0.4427670685991699,0.2910112261370213,0.4171560476776855
0.21,0.4380769882295272,0.4267996479841479,0.25423123916105317,0.41619198348768316,0.4404381686702879,0.2906178113467762,0.41349528196141433
0.211,0.4619780162843406,0.41988148097502703,0.2608024948971536,0.41127756851086616,0.4380775796623506,0.2902161072388559,0.42652983399706235
0.212,0.4560850936096806,0.42705368115856385,0.2598175228429412,0.406310547550962,0.4356854714173404,0.2898061252711023,0.42206588370101583
0.213,0.38771316225738556,0.40038486285917374,0.26246884297561096,0.4012915559332121,0.43326201604501685,0.28938787713746755,0.41093005444514563
0.214,0.4595879602949107,0.42152376422671234,0.2750864795615578,0.39622123563035816,0.43080738791053325,0.2889613747676803,0.40983151502941845
0.215,0.484133077394575,0.4531996204277227,0.27753273254403527,0.3911002351805274,0.4283217636218917,0.2885266303269057,0.41566496625097976
0.216,0.48895360049847897,0.44166724430091053,0.260549033195359,0.3859292096042792,0.4258053220172362,0.288083656215398,0.3932299732518559
0.217,0.4533006150624265,0.40985875288636286,0.25328902511594154,0.38070882032082276,0.4232582441519852,0.2876324650681471,0.42188575142755813
0.218,0.4568217908462994,0.3998065460385797,0.26096942650819777,0.3754397350634147,0.4206807132858051,0.2871730697545184,0.40345100186773136
0.219,0.40249124316909657,0.416542373575414,0.24960125038281042,0.3701226277939518,0.41807291486942477,0.28670548337788515,0.43319136991939483
0.22,0.3011047781597142,0.38861154232320066,0.241891171677568,0.36475817861676313,0.4154350365312924,0.28622971927525515,0.39828154831967344
0.221,0.45119342392956985,0.3863075402663178,0.24128555795424625,0.3593470736916215,0.4127672680640761,0.2857457910168903,0.4234086665888854
0.222,0.44931784521747076,0.4082941992859126,0.24751782565329414,0.3538900051459753,0.4100698014110086,0.28525371240591924,0.3952268115541711
0.223,0.3850713126474952,0.42286896858057094,0.2626432359532991,0.3483876709864202,0.4073428306520769,0.284753497477944,0.4115219378193061
0.224,0.3408572633230311,0.4001398854869315,0.2581608455601127,0.34284077500941906,0.4045865519900584,0.2842451605006394,0.42416380890005184
0.225,0.3298868650358979,0.3847383399222234,0.27007987316558096,0.3372500267112783,0.4018011637364041,0.28372871597334637,0.4305740601390844
0.226,0.3238224482303816,0.3937717301200196,0.2500619710409562,0.3316161411973989,0.39898686629697105,0.2832041786266579,0.43011757362593334
0.227,0.3955567095395334,0.3907411660419266,0.24961124047582198,0.32593983909080704,0.39614386215760256,0.28267156342199956,0.4281086555740999
0.228,0.3151234331633005,0.3954344523582131,0.23876410344430749,0.32022184643998036,0.39327235586956,0.2821308855512021,0.4295878104803206
0.229,0.30499846639161643,0.3883921370264215,0.23529550050778683,0.314462894625981,0.39037255403480536,0.28158216043606843,0.4307498388131272
0.23,0.3768544801745541,0.3956313845819675,0.25615115895114043,0.30866372026890376,0.3874446652911363,0.28102540372793394,0.41351217524090567
0.231,0.3576428859584896,0.4059693460878622,0.270332369583779,0.30282506513365803,0.38448890029717525,0.28046063130721965,0.41579276928272846
0.232,0.40644034802902645,0.39644420333246005,0.25240888384736365,0.29694767603508804,0.3815054717172126,0.2798878592829796,0.4286349170229501
0.233,0.3547816684713306,0.3922780577674453,0.2505618864684048,0.29103230474244896,0.37849459420590553,0.2793071039924411,0.43379185976272705
0.234,0.43051550621393503,0.37292116171449696,0.24057243012113055,0.2850797078832503,0.37545648439283413,0.27871838200053894,0.41886496092294945
0.235,0.41316888744047087,0.38956289569695535,0.26592783719852675,0.2790906468464751,0.3723913608669146,0.2781217100994429,0.4143594325889014
0.236,0.3339061453735059,0.35206563350395237,0.2357857518166995,0.2730658876851924,0.36929944416067273,0.27751710530807866,0.41410495267354197
0.237,0.28407603674742754,0.36556612440292907,0.24041950562146508,0.2670062010185722,0.36618095673437623,0.27690458487164243,0.4111027218617227
0.238,0.34550244258756874,0.4066519000583989,0.2776399858561232,0.26091236193331707,0.3630361229600294,0.2762841662611091,0.42681387755334926
0.239,0.38718940893986264,0.36130809735135266,0.26121306203790634,0.2547851498845208,0.35986516910522903,0.27565586717273377,0.43492122908507785
0.24,0.39273458538239064,0.37034531913732394,0.2613711273854088,0.24862534859597057,0.3566683233168855,0.27501970552754734,0.42728834265014337
0.241,0.21636505126253652,0.3770813992390703,0.24928699165897142,0.2424337459599005,0.35344581560480776,0.27437569947084495,0.42139670613304103
0.242,0.33482933206440496,0.37111928220529516,0.22725769916624763,0.23621113393621407,0.35019787782515366,0.27372386737166865,0.4447756136201341
0.243,0.24923016227419967,0.3477141948836412,0.22986069650348134,0.22995830845118628,0.3469247436637489,0.27306422782228323,0.42199445321074325
0.244,0.26651229604103327,0.33084065469414903,0.23206145368550193,0.22367606929565592,0.343626648619273,0.27239679963764635,0.43879879569160896
0.245,0.2520475281580741,0.31272335707103105,0.238897947339366,0.21736522002272748,0.3403038299863159,0.27172160185487143,0.40933505469787745
0.246,0.2594373514517121,0.3666796643675497,0.25921040436308707,0.21102656784498783,0.3369565268383045,0.2710386537326849,0.42516380105975216
0.247,0.188704000744652,0.345053201288264,0.25691715442092083,0.20466092353125756,0.3335849800103019,0.27034797475087663,0.41093415972196984
0.248,0.2109961445459425,0.36423401465264865,0.2440846251695165,0.1982691013028873,0.3301894320816793,0.2696495846097448,0.41182559082746656
0.249,0.24077235687273274,0.3426723219158056,0.24881541442184826,0.19185191872961002,0.32677012735866223,0.26894350322953353,0.41333097305220584
0.25,0.2471986148754682,0.35402085633146485,0.2337436051877294,0.1854101966249685,0.3233273118567542,0.2682297507498647,0.4239784089871729
0.251,0.21348234335111016,0.32212841988714813,0.25036113158346984,0.17894475894132475,0.31986123328303484,0.26750834752916375,0.4178230659605708
0.252,0.20615296255509438,0.2857792177040243,0.22494911552788102,0.1724564326644698,0.31637214101833855,0.26677931414407896,0.39868700151111564
0.253,0.16341277961803824,0.31840505756162807,0.2312814751729991,0.1659460477078459,0.3128602860993115,0.2660426713888943,0.41845265963143463
0.254,0.18391469811524397,0.33787078451189834,0.24361081787446887,0.1594144368063915,0.30932592120034896,0.26529844027493676,0.4163199268238695
0.255,0.25653634376169776,0.35223408405316103,0.2585140744694416,0.15286243541002933,0.30576930061541724,0.26454664202997646,0.40298922537248066
0.256,0.2353194772983612,0.31899604791647274,0.25533533085661514,0.1462908815768032,0.30219068023975626,0.26378729809762164,0.42955588894241437
0.257,0.19878141619974687,0.33585727444434665,0.22948704100247044,0.13970061586568394,0.29859031755146875,0.2630204301367067,0.4322513735580143
0.258,0.19730335363340493,0.29253101109693247,0.2308650973183205,0.13309248122905526,0.2949684715929949,0.26224606002067474,0.43181588915696123
0.259,0.161283129651051,0.3284068521733979,0.2211757526404785,0.12646732290489107,0.29132540295247356,0.2614642098369535,0.44500000817979807
0.26,0.16303670221061003,0.27915386662091596,0.2312164067664121,0.11982598830864423,0.28766137374499484,0.26067490188632525,0.41124272741208917
0.261,0.16527781499532557,0.29668010423571356,0.24433394340321696,0.11316932692485288,0.2839766475937402,0.25987815868229086,0.4116841980660197
0.262,0.17792035569354314,0.3423499826733191,0.25407704945377596,0.1064981901984848,0.280271489611015,0.25907400295042754,0.4245860366129779
0.263,0.1819596536800821,0.3444125871281291,0.22572654314393079,0.09981343142603095,0.27654616637917445,0.2582624576277408,0.4237159903826682
0.264,0.17841083209933917,0.31045354623134874,0.2275523877231673,0.09311590564635953,0.2728009459314423,0.25744354586200996,0.42689335296628517
0.265,0.1598952630244424,0.2728681930477482,0.24415260779499628,0.0864064695313513,0.26903609773262743,0.25661729101112823,0.43546752972721225
0.266,0.1265495239690567,0.2496137297227689,0.2351505371983561,0.0796859812763215,0.2652518926597353,0.25578371664243615,0.42251159785787507
0.267,0.11784388333261736,0.2768271006193324,0.21874267958498517,0.07295530049025142,0.26144860298247863,0.25494284653204957,0.4381213260545951
0.268,0.09018992677354552,0.26585907327827757,0.20894041287066584,0.0662152880858351,0.25762650234368856,0.2540947046641814,0.41661668684050945
0.269,0.1388433550173956,0.2907723554296578,0.23323179060728969,0.05946680616936179,0.25378586573962497,0.2532393152304575,0.4199340321103004
0.27,0.10886547675737221,0.27432986487456723,0.2123529979590782,0.05271071793044589,0.2499269695001923,0.2523767026292269,0.41283002565257376
0.271,0.12017279949535017,0.2715910554540934,0.22895214579610573,0.04594788753161567,0.246050091269057,0.2515068914648655,0.3853706733077184
0.272,0.08471455044791211,0.2503942475460779,0.18428313941681543,0.03917917999778138,0.24215550998367152,0.25062990654707434,0.4054518388626647
0.273,0.08348375058402649,0.26509195592459883,0.22444104157372183,0.032405461105589284,0.23824350585520526,0.24974577289017236,0.43733805530080233
0.274,0.09185076857327429,0.28153051255819905,0.21215343448893212,0.025627597272681994,0.23431436034838346,0.24885451571238235,0.43997443483431264
0.275,0.06947777622824287,0.24563931487969373,0.21432051553434725,0.018846455446876947,0.23036835616123574,0.2479561604351121,0.4115395592279434
0.276,0.05051759901914655,0.24326001910229408,0.2248204285193208,0.012062902995274348,0.22640577720475707,0.24705073268222918,0.4382112193664757
0.277,0.06574649176179073,0.2569458287457284,0.2336698099945579,0.005277807593315524,0.22242690858248018,0.24613825827932978,0.3980377271958522
0.278,0.08803480922643009,0.26037201102037244,0.24442133959243817,-0.0015079628862022286,0.21843203656996266,0.24521876325300246,0.4149456415948111
0.279,0.0920400237333034,0.25770301891052816,0.23187837045895793,-0.008293540484133305,0.21442144859419,0.24429227383008556,0.42185733826950966
0.28,0.07034140645154545,0.2178935984099995,0.23044135908523009,-0.015078057266002542,0.21039543321289458,0.24335881643691928,0.4402576827550796
0.281,0.02862628167491838,0.23611161226073307,0.22338206868133093,-0.02186064543302344,0.20635428009379575,0.24241841769859196,0.44943477863883624
0.282,0.038378035469768666,0.2307760236706224,0.21138155980913373,-0.028640437433094836,0.20229827999375757,0.24147110443818043,0.42234472703913867
0.283,0.031231350200302717,0.2059012196131476,0.2024878317330102,-0.03541656607177123,0.19822772473786876,0.24051690367598497,0.4272256273930271
0.284,-0.014620018896639227,0.22529278219320986,0.21496120912201078,-0.04218816462318192,0.19414290719844748,0.23955584262875879,0.4406797699333272
0.285,0.011858514237222992,0.2520955038553,0.22346379212343478,-0.04895436694089434,0.190044121273968,0.23858794870893163,0.45530936014793777
0.286,0.07138460856115278,0.2646135491946973,0.24989213885924022,-0.055714307568700404,0.18593166186791615,0.23761324952382779,0.44273529260205025
0.287,0.0355027079607661,0.22738375154461635,0.228300122226334,-0.06246712185131779,0.1818058248675709,0.23663177287487872,0.414102470195506
0.288,0.014050431505736715,0.21186669257525143,0.2120240632697965,-0.0692119460449847,0.17766690712271535,0.23564354675683025,0.43927920656881053
0.289,-0.0008179944717011623,0.19966016577937173,0.20834766298384721,-0.07594791742794214,0.17351520642427923,0.23464859935694393,0.4211602896845152
0.29,-0.011748944339597289,0.20942432654981558,0.18647080669900093,-0.08267417441078267,0.1693510214829121,0.23364695905419278,0.44586847375865174
0.291,-0.06876330742794096,0.14508982485574815,0.17027234754602372,-0.08938985664665447,0.1651746519074927,0.23263865441845222,0.43679661821583793
0.292,-0.06578551214739074,0.17167416205697608,0.2110534108436545,-0.09609410514130898,0.16098639818357177,0.231623714209685,0.4170706112624244
0.293,-0.038996060930396335,0.20909751318967115,0.2057516936651691,-0.1027860623629717,0.1567865616517524,0.23060216737712103,0.4427504824325093
0.294,-0.024177717428032344,0.19067631052452078,0.21012368958641695,-0.10946487235202983,0.15257544448600902,0.2295740430584315,0.4359799309150282
0.295,-0.03307961704205766,0.2027940318842429,0.21535919691215766,-0.116129680830516,0.14835334967194577,0.2285393705788977,0.43455727171589426
0.296,-0.043033125031750614,0.165376224346125,0.20709003016535915,-0.12277963531137734,0.144120580984998,0.2274981794505748,0.4302797877323533
0.297,-0.04679433387794086,0.16742433545091887,0.19978442222239154,-0.12941388520751765,0.1398774429685752,0.2264504993714499,0.4237796970131229
0.298,-0.07531035075943542,0.17685128414915502,0.22011093264586223,-0.13603158194059278,0.13562424091214953,0.225396360224595,0.43761471249560213
0.299,-0.11559121556604027,0.1339632539019297,0.2010938166337437,-0.14263187904955343,0.13136128082929083,0.22433579207731477,0.4567697369304129
0.3,-0.09555951904417043,0.1863521792365369,0.2192753309155561,-0.14921393229891275,0.12708886943564843,0.22326882518028887,0.4533927077462994
0.301,-0.05526940664089705,0.2156330636660444,0.2338844971925215,-0.15577689978673312,0.12280731412688453,0.22219548996670893,0.42842491439994995
0.302,-0.05692873977769296,0.17136708915080864,0.22172569440871145,-0.16231994205231215,0.11851692295655647,0.22111581705141073,0.4055340658665565
0.303,-0.07568723337129449,0.1868463558961157,0.21053900973401615,-0.16884222218355602,0.1142180046139529,0.22002983723000064,0.42435320420895584
0.304,-0.11258370385083967,0.14806036415213186,0.2010612422398739,-0.1753429059240299,0.10991086840188405,0.2189375814779779,0.43282044671187825
0.305,-0.12484810753359434,0.13781244399611,0.2115805647544439,-0.1818211617796643,0.10559582421442688,0.2178390809498503,0.4346333832186147
0.306,-0.1382694912874621,0.1339187404326119,0.18426639116004798,-0.1882761611251123,0.10127318251462977,0.21673436697824625,0.44213513500348395
0.307,-0.15727496796556611,0.12989300503031315,0.19184981412171795,-0.19470707830973727,0.09694325431217424,0.21562347107302052,0.44021057968447486
0.308,-0.1321372230153481,0.11122946582428825,0.2115977344962361,-0.20111309076321984,0.09260635114099824,0.21450642492035568,0.44053086181447537
0.309,-0.11982977717869087,0.13294386965175892,0.21364899901876885,-0.2074933791007738,0.08826278503688187,0.21338326038185856,0.424181434814393
0.31,-0.1349438312911402,0.12541388558134547,0.2103347900941937,-0.21384712722795035,0.08391286851499578,0.2122540094936511,0.4256490317588101
0.311,-0.1344746587715495,0.14257921183061392,0.20294114733950727,-0.2201735224450254,0.07955691454741746,0.21111870446545705,0.41909068970073193
0.312,-0.1455501355870683,0.12260262568229754,0.19336562344860372,-0.2264717555509504,0.07519523654061226,0.20997737767968247,0.4353302796822347
0.313,-0.18252859597543736,0.07905692831794223,0.1982251900222198,-0.23274102094685536,0.07082814831288431,0.20883006169049276,0.4427356056303873
0.314,-0.20459605100901976,0.0932017660472349,0.14730261561398963,-0.2389805167390937,0.06645596407179788,0.20767678922288385,0.4453244799927115
0.315,-0.1841185465714611,0.09449868358679506,0.17666345873604036,-0.24518944484180935,0.06207899839156952,0.2065175931717491,0.40253945682090614
0.316,-0.18930802599022467,0.10005290767666461,0.1877356946146941,-0.2513670110790208,0.05769756619043623,0.20535250660094032,0.43842720615433634
0.317,-0.16556299319160342,0.1256542865117983,0.20292700145430273,-0.2575124252862022,0.05331198270799633,0.20418156274232555,0.42041902330230846
0.318,-0.19783108714356495,0.10198767106095874,0.19235605523228175,-0.2636249014113518,0.04892256348252869,0.2030047949948405,0.44014828861591426
0.319,-0.18535934918149097,0.10776881989257107,0.1808039614127088,-0.26970365761553616,0.044529624328290204,0.2018222369235363,0.42062408419051733
0.32,-0.21956719620934628,0.0965792910133314,0.19142204352530745,-0.2757479163728927,0.040133481312792346,0.20063392225862184,0.4421644516791691
0.321,-0.2174514732347859,0.08609813650261534,0.18231267181469504,-0.2817569045700832,0.035734450734061896,0.19943988489450212,0.42572348560666856
0.322,-0.22972044094391839,0.05855620113547608,0.1706940762909348,-0.2877298536051815,0.03133284909788261,0.1982401588888111,0.426119986133953
0.323,-0.25951059849855307,0.06398569898856861,0.19714307067230147,-0.2936659994859834,0.02692899309502323,0.19703477846144032,0.44341865563170885
0.324,-0.22705340956651004,0.10557244155617936,0.1942002289103699,-0.2995645829277295,0.02252319957845189,0.19582377799356274,0.4272991919806682
0.325,-0.2050697959061944,0.11649892163063823,0.19846532743114542,-0.3054248494502228,0.018115785540539105,0.1946071920266525,0.44556588090017696
0.326,-0.24175035355406624,0.07528800650518971,0.1785351189483409,-0.31124604947433443,0.013707068090249548,0.19338505526149918,0.44310516004430445
0.327,-0.2386933675353575,0.08464183692613718,0.18672995514199092,-0.3170274384178811,0.0092973644303278,0.19215740255721855,0.4330086002839369
0.328,-0.26036318436605205,0.04508831868244546,0.19454950286493253,-0.3227682767908627,0.0048869918344749816,0.19092426893025788,0.4290435259501643
0.329,-0.2743770563891033,0.02588430950637159,0.18327292509430204,-0.3284678302900513,0.00047626762452147457,0.18968568955339724,0.44994185211177257
0.33,-0.32487401736273736,0.024011164034599724,0.16245743150375233,-0.33412536989291275,-0.003934490852403827,0.18844169975474628,0.4447284965111852
0.331,-0.27566292199604336,0.033825400771494485,0.17349027724321203,-0.33974017195085743,-0.00834496624670725,0.18719233501673657,0.45462004424407476
0.332,-0.2279616731845504,0.039464430239032997,0.18805647008248919,-0.3453115182817987,-0.012754841229161935,0.18593763097510982,0.41413830248253086
0.333,-0.26864493570486714,0.049325438027169745,0.19106184347690694,-0.3508386962620167,-0.017163798513740277,0.18467762341790075,0.43172382208974897
0.334,-0.2929253287816137,0.07204732536065708,0.1767558143252297,-0.3563209989173084,-0.0215715208804421,0.18341234828441724,0.42986989050527313
0.335,-0.28361990340464743,0.0003469325660570219,0.1744372851542554,-0.3617577250134148,-0.02597769119811809,0.18214184166421424,0.44162164348813576
0.336,-0.3129701499225782,0.028153421231300706,0.17145707073478633,-0.3671481791457169,-0.03038199244728797,0.1808661397960651,0.4242275866952467
0.337,-0.3229196556687317,-0.003591347753480081,0.16774521517171856,-0.3724916718281819,-0.03478410774294835,0.17958527906692756,0.42605999905721914
0.338,-0.35851078493958344,-0.023903479578774506,0.16256362078654416,-0.377787519581556,-0.039183720357373227,0.17829929601090616,0.4363903774494544
0.339,-0.34085242120529996,0.0036743941446266016,0.16627968370323776,-0.3830350450207869,-0.043580513742901936,0.17700822730821006,0.4135317318734792
0.34,-0.30458949937010055,0.023501423618443602,0.17129679211456883,-0.3882335769416666,-0.047974171554714264,0.1757121097841066,0.41204132507649516
0.341,-0.370103132477255,-0.03466204013600544,0.12527481129210066,-0.39338245040668546,-0.05236437767359204,0.17441098040787112,0.4349394902732333
0.342,-0.34632763801515265,0.010616917757951263,0.17186241854134787,-0.3984810068300822,-0.05675081622866218,0.1731048762917325,0.4683115580946622
0.343,-0.36674440412041004,-0.006426162632510224,0.14455258545397878,-0.4035285940620838,-0.06113317162012424,0.17179383468981468,0.43796514807544806
0.344,-0.3228806940082042,-0.020171402431871262,0.1582429742083295,-0.40852456647232066,-0.06551112854195702,0.17047789299707383,0.43222504640693565
0.345,-0.36612887141316836,-0.04646181297039127,0.15409683880302222,-0.41346828503240896,-0.06988437200460518,0.16915708874823185,0.4420606876576733
0.346,-0.3873764131175844,-0.030584292577729752,0.1464456134183341,-0.4183591173976862,-0.07425258735764202,0.1678314596167057,0.4439650697281331
0.347,-0.3158699625723791,-0.00823473872314547,0.18417036878403623,-0.4231964379880962,-0.07861546031240775,0.1665010434135331,0.4356265803475669
0.348,-0.36155085190764336,-0.002903607233945141,0.1688090370743602,-0.42797962806820344,-0.08297267696462293,0.1651658780862937,0.4291913391717893
0.349,-0.34475502655813706,-0.018307370267981713,0.16567469429503515,-0.43270807582633736,-0.08732392381697333,0.1638260017180268,0.4186248802313813
0.35,-0.34079587144670737,-0.011262576209728922,0.17095658646625075,-0.4373811764528468,-0.09166888780166559,0.16248145252614513,0.4483931292678846
0.351,-0.3966708487330519,-0.031570744663238996,0.14842222973672572,-0.44199833221746015,-0.0960072563029529,0.1611322688613449,0.432077520441291
0.352,-0.38904438354997267,-0.0538358237412027,0.13731343804459212,-0.44655895254574185,-0.10033871717962618,0.15977848920651191,0.44355692581807094
0.353,-0.42957335552554726,-0.09594827796944112,0.13293092111247626,-0.45106245409463025,-0.10466295878747311,0.15842015217562352,0.4506859371467865
0.354,-0.42044065976428824,-0.07395284084328715,0.154541021839372,-0.45550826082705376,-0.10897967000170045,0.15705729651264763,0.43446336300422084
0.355,-0.38625294091472634,-0.03592825765719229,0.1586108723117266,-0.45989580408560976,-0.11328854023931889,0.1556899610904374,0.42070097307301235
0.356,-0.4084593701312252,-0.02615461394430658,0.15980194788767568,-0.4642245226653016,-0.11758925948149014,0.15431818490962287,0.4357079845844242
0.357,-0.41319839506897715,-0.09425749538259666,0.1545765769320495,-0.46849386288532147,-0.12188151829583102,0.15294200709749786,0.43669951946573493
0.358,-0.40909973705769337,-0.06965917630793118,0.15032223646599058,-0.4727032786598712,-0.12616500785867785,0.15156146690690464,0.4446466495210297
0.359,-0.44649623945592104,-0.06483238985955911,0.14245533867858104,-0.47685223156801015,-0.1304394199773056,0.15017660371511374,0.4319820210726053
0.36,-0.4460936403335705,-0.08371957691650872,0.12361712207798645,-0.4809401909225258,-0.13470444711210197,0.14878745702270113,0.43150905017047014
0.361,-0.4838199109430207,-0.09405083625090073,0.12790712885577807,-0.48496663383781213,-0.1389597823986954,0.1473940664524213,0.43449728747361904
0.362,-0.47272193455315314,-0.07646751377332593,0.146152481951704,-0.48893104529675147,-0.14320511967003222,0.14599647174807753,0.4437261683755917
0.363,-0.4305382569607017,-0.09505348644086994,0.13558280903019138,-0.49283291821659,-0.14744015347840617,0.14459471277338795,0.45020223609706617
0.364,-0.4391169482886653,-0.09143815182231,0.14259882375306754,-0.49667175351379667,-0.1516645791174345,0.14318882951084833,0.4675420057920571
0.365,-0.45911869085183027,-0.1368511275832709,0.13675578283153705,-0.5004470601679026,-0.15587809264398142,0.14177886206059198,0.46282802772155307
0.366,-0.4694890703807778,-0.12878628145348123,0.1059513919592336,-0.5041583552843051,-0.16008039090002713,0.14036485063924575,0.4382168789091968
0.367,-0.4594874317147321,-0.10835543694548783,0.11135111959060723,-0.5078051641560348,-0.16427117153447854,0.13894683557878337,0.4313336279117956
0.368,-0.4962171777905711,-0.11679377215023182,0.1209292190738052,-0.5113870203244751,-0.1684501330249239,0.13752485732537428,0.43261726719926685
0.369,-0.5168940742516782,-0.15235635594872188,0.14308641863490643,-0.5149034656390246,-0.17261697469932694,0.13609895643823086,0.4244856620993983
0.37,-0.4945916207339109,-0.11212500959488278,0.14373877216983033,-0.518354050315701,-0.1767713967576596,0.13466917358845082,0.4418677425524602
0.371,-0.463207284559118,-0.1013321384847718,0.13690409104102907,-0.521738332994671,-0.18091310029347318,0.13323554955785752,0.4286302624315517
0.372,-0.4445781252403013,-0.0982216054339656,0.13747024936566496,-0.5250558807967041,-0.18504178731540322,0.13179812523783652,0.427370488171586
0.373,-0.47305473513319424,-0.07825729616741403,0.15074980485956732,-0.5283062693785417,-0.18915716076861036,0.13035694162816963,0.42830065055638766
0.374,-0.4798266878276138,-0.13829584099876904,0.13268688253428512,-0.5314890829871745,-0.19325892455615304,0.12891203983586527,0.4515926595655614
0.375,-0.5252486432452798,-0.12963587995429365,0.15073127754574836,-0.5346039145130207,-0.19734678356029123,0.1274634610739856,0.4400786909659436
0.376,-0.5338976800561722,-0.13107413760305323,0.10946896227407037,-0.5376503655419993,-0.20142044366371992,0.12601124666047142,0.4248555032371847
0.377,-0.5421523871738382,-0.16564961618534682,0.11850272747778799,-0.5406280464064902,-0.20547961177073099,0.12455543801696364,0.4519207142812444
0.378,-0.4980420705553068,-0.17251655323790244,0.12617235567776242,-0.5435365762351766,-0.20952399582830034,0.12309607666762139,0.4557794376085867
0.379,-0.5415498820510612,-0.13792740443122498,0.12281183961404218,-0.5463755830017606,-0.21355330484710128,0.12163320423793866,0.43610613399799414
0.38,-0.5089370556248433,-0.11351144984041396,0.1143807150260738,-0.5491447035725505,-0.2175672489224409,0.12016686245355565,0.4323586340578406
0.381,-0.48928368968691416,-0.16757915409716395,0.09845427457477038,-0.5518435837529072,-0.22156553925511813,0.11869709313906941,0.43143111499114073
0.382,-0.5110580702802747,-0.19703935145562793,0.1163005592723238,-0.5544718783325493,-0.2255478881722035,0.11722393821684085,0.4452204234124937
0.383,-0.563176600522196,-0.1175473942813878,0.12046391664724354,-0.5570292511297089,-0.2295140091477355,0.11574743970579876,0.4531142013760101
0.384,-0.5188025888992366,-0.16743417541670058,0.11408757585366444,-0.5595153750341311,-0.2334636168233368,0.11426763972024125,0.4443358930168774
0.385,-0.46971687021779135,-0.17345532780466277,0.10926785220780984,-0.5619299320489154,-0.23739642702874517,0.11278458046863536,0.42630310406041044
0.386,-0.5523093562225678,-0.18538656755651559,0.12063099511059736,-0.5642726133311897,-0.2413121568022592,0.11129830425241179,0.4553589278085153
0.387,-0.5633162945897943,-0.1534476641999729,0.12263417728062093,-0.5665431192316144,-0.24521052441109767,0.10980885346475917,0.4420750244528531
0.388,-0.5209053730868076,-0.2303224665708598,0.10760543262115801,-0.5687411593327093,-0.24909124937166907,0.1083162705894148,0.44045259959558586
0.389,-0.5257950724797518,-0.22238105898807936,0.09336628519089755,-0.5708664524860013,-0.25295405246975255,0.10682059819945251,0.4481741725579953
0.39,-0.5970089649617003,-0.22804783372490778,0.10004043474669756,-0.5729187268479857,-0.2567986557805872,0.10532187895606936,0.4556601604243232
0.391,-0.5147875274065831,-0.21190163854965172,0.07330330782384484,-0.5748977199148971,-0.260624782688868,0.10382015560736733,0.4296129983182825
0.392,-0.6343458345303666,-0.31187584480787084,0.07663422196082975,-0.5768031785562859,-0.264432157908649,0.10231547098713506,0.4273155513127382
0.393,-0.5612383082449848,-0.08028132337722314,0.13374228601738894,-0.5786348590473961,-0.26822050750314863,0.10080786801362576,0.4429759597339631
0.394,-0.504315006226882,-0.19032532805043778,0.11493845771293723,-0.5803925271003395,-0.27198955890445997,0.0992973896883331,0.44325460813819306
0.395,-0.4682835161018376,-0.11016460347221965,0.12324159631586065,-0.5820759578940634,-0.2757390409331613,0.09778407909476441,0.45465377117226413
0.396,-0.5618120132688315,-0.18240939494522215,0.10952985531392943,-0.5836849361031076,-0.2794686838178274,0.09626797939721285,0.45917698410746527
0.397,-0.5272787692898481,-0.20704794109637734,0.10338448352366279,-0.5852192559251452,-0.28317821921443986,0.09474913383952462,0.43806339088546026
0.398,-0.5553432218130238,-0.19117370075243376,0.09693277975233348,-0.5866787211073078,-0.286867380225693,0.09322758574386662,0.44817681531611586
0.399,-0.6574405213813004,-0.23985482836321304,0.07127777918667047,-0.5880631449712872,-0.2905359014201978,0.09170337850949052,0.44988684006042357
0.4,-0.6046975404122396,-0.24050816196178956,0.08621726381464394,-0.5893723504372133,-0.29418351885157884,0.09017655561149476,0.45119195053245903
0.401,-0.6188409676048721,-0.1722743890545093,0.11044316126620363,-0.5906061700463041,-0.2978099700774653,0.0886471605995844,0.4251930010574742
0.402,-0.515262538536955,-0.24174033267060588,0.09578476261982706,-0.591764445982286,-0.30141499417837375,0.08711523709682985,0.4510440481751304
0.403,-0.6315947397322742,-0.21870918261574018,0.09157814816042432,-0.5928470300915784,-0.3049983317764802,0.08558082879842116,0.43494302748092445
0.404,-0.5373162673680825,-0.208342057466719,0.066902534289767,-0.5938537839022445,-0.3085597250542827,0.08404397947042265,0.4519198884056837
0.405,-0.5976217281094299,-0.26804074055886623,0.08114720780917374,-0.594784578641704,-0.31209891777315074,0.08250473294852438,0.431312402234895
0.406,-0.5706619576265844,-0.2997741362857602,0.0672885263797208,-0.5956392952532024,-0.31561565529176144,0.08096313313679152,0.4460328080549335
0.407,-0.626796878538918,-0.29555334811750356,0.057211985080670276,-0.5964178244110411,-0.319109684584421,0.07941922400641332,0.4417503100390192
0.408,-0.640885391207189,-0.24348637801857984,0.0812692807313003,-0.5971200665345601,-0.32258075425926963,0.07787304959444619,0.4711580403839323
0.409,-0.54559937645226,-0.27246536094769613,0.0883525344012047,-0.5977459318008752,-0.32602861457636817,0.07632465400256112,0.4349760091204272
0.41,-0.5473303860711574,-0.30384352717429985,0.08265948563409835,-0.5982953401563683,-0.3294530174656676,0.07477408139578302,0.4342105829109613
0.411,-0.618305560919527,-0.2624928001184315,0.0774456478411781,-0.5987682213269253,-0.3328537165448564,0.07322137600123226,0.4635782278496953
0.412,-0.4770845222239858,-0.24414408702589027,0.08347631182345673,-0.5991645148269259,-0.33623046713708915,0.07166658210686282,0.45631573404231396
0.413,-0.6378933003027742,-0.2719657577714488,0.06861031560293179,-0.5994841699669798,-0.33958302628858894,0.07010974406019924,0.4491326364026668
0.414,-0.5874101277176244,-0.30046874039808114,0.04948266878887204,-0.5997271458604106,-0.3429111527861287,0.06855090626707129,0.4401810147484154
0.415,-0.6069103154553351,-0.2522083877088742,0.06011587083404832,-0.5998934114284854,-0.346214607174386,0.06699011319034849,0.432240423811801
0.416,-0.6049136384568492,-0.3632556898611461,0.08318750420389881,-0.5999829454043898,-0.3494931517731716,0.06542740934867029,0.44100183143014887
0.417,-0.5558335963633653,-0.31311103689716735,0.08685320595559012,-0.5999957363359484,-0.3527465506945304,0.06386283931517732,0.43986953106924837
