time,roll_setpoint,roll_gyro,pitch_setpoint,pitch_gyro,yaw_setpoint,yaw_gyro
0.0,3.221088436188455,2.6074335127909443,3.543197279807301,0.08543058955742908,2.2547619053319186,3.6642941389837316
0.001,3.299582398918418,2.708694274497161,3.62954063881026,0.2989862643811521,2.3097076792428926,3.278325301890993
0.002,3.3777459409858164,2.187516254008848,3.7155205350843983,0.9381596199892215,2.364422158690071,2.885460592610606
0.003,3.455574210797501,2.1252840329765896,3.8011316318772517,0.9850033670275349,2.4189019475582505,2.4381462202433717
0.004,3.533062390490227,1.986670202518855,3.88636862953925,0.9788490489546813,2.473143673343159,2.158582211399635
0.005,3.6102056963405573,1.7005920031940778,3.9712262659746136,0.9786386717516691,2.52714398743839,1.9044939220995314
0.006,3.686999379171322,1.9289989334659796,4.055699317088455,0.6854736775302754,2.580899565419925,1.6794989049662505
0.007,3.763438724754603,1.645195576089399,4.139782597230063,0.7390818643689183,2.634407107328222,1.5647370055842507
0.008,3.839519054211185,1.2929533492560925,4.223470959632304,0.6299633699169173,2.6876633379478294,1.2828119380799325
0.009,3.9152357244064526,1.2190091465198496,4.3067592968470985,0.6289470815832707,2.740665007084517,0.9789189177861171
0.01,3.9905841283426917,0.9397936219211513,4.389642541176961,0.4792759666966644,2.793408889839884,0.8000272810015537
0.011,4.0655596955477415,1.1452855556368902,4.472115665102516,0.6725028184253822,2.845891786883419,0.5650569781117559
0.012,4.140157892459986,0.5997415192308719,4.5541736817059855,0.48858353293476475,2.8981105247219903,0.6407044448100706
0.013,4.214374222809629,0.47072222850671136,4.635811645090592,0.24614931815352512,2.95006195596674,0.5864165086385469
0.014,4.28820422799622,0.004932063738323278,4.7170246507958415,-0.018275374694204233,3.0017429595973537,0.4316990526060229
0.015,4.3616434874624,0.5409708014802768,4.797807836208641,0.48803516429291394,3.05315044122368,0.8889002565166086
0.016,4.4346876190638245,1.1562545168016973,4.878156380970207,0.7119555450912687,3.104281333344677,1.018760441063685
0.017,4.507332279435237,1.5803066194674122,4.958065507378761,1.2714927802365195,3.1551325956046656,1.2974591238093964
0.018,4.5795731643526425,2.079183620169619,5.0375304807879075,1.5750132686639713,3.2057012150468496,1.8163005496972129
0.019,4.651406009091567,2.043656231578437,5.116546610000724,1.9945323910729464,3.2559842063640967,1.9307306467166225
0.02,4.722826588781357,2.2850065026945483,5.195109247659493,2.268710438807154,3.30597861214695,2.190811154322417
0.021,4.793830718755473,2.4765016141240213,5.27321379063102,2.7748519228005204,3.3556815031288307,2.155624580384639
0.022,4.864414254897774,2.609148605608082,5.350855680387552,2.9564991481918916,3.4050899784284416,2.2408662141258056
0.023,4.934573093984735,2.5986811775824292,5.428030403383209,2.955987788075205,3.454201165789314,2.3534228152295817
0.024,5.004303174023567,2.8841675374314906,5.504733491425925,3.0581720394899428,3.5030122218164967,2.4374484914642083
0.025,5.073600474586228,2.7438577227176437,5.580960522044851,3.399033069323885,3.5515203322103592,2.344961419399676
0.026,5.142461017139256,2.899430514523337,5.656707118853182,3.2666277909079584,3.599722711997479,2.3102558650648377
0.027,5.210880865369442,3.074759494466732,5.731968951906387,3.5578728707801153,3.6476166057586092,2.234491652002827
0.028,5.278856125505255,3.129891326511984,5.8067417380557815,3.7907133485364364,3.6951992878536783,2.3784319462280745
0.029,5.346382946634043,2.980107577518537,5.881021241297448,3.867538988715242,3.7424680626438303,2.3413035105651816
0.03,5.413457521014937,3.194906910302817,5.954803273116432,3.8305244212070915,3.7894202647104556,2.3768088512335805
0.031,5.480076084387463,3.4224871893323523,6.028083692826209,3.9725998436149044,3.8360532590712237,2.284037135739733
0.032,5.546234916275796,3.4442666647356712,6.100858407903376,4.285196346597776,3.8823644413930567,2.294754857499642
0.033,5.611930340288663,3.58175008320572,6.17312337431753,4.198973744540504,3.928351238202064,2.5889024932632285
0.034,5.6771587244148485,3.5217804265501704,6.2448745968563335,4.425384217087024,3.974011107090394,2.589034360680278
0.035,5.741916481314269,3.9442945817180566,6.316108129445697,4.735600832386577,4.019341536919988,2.42321701232353
0.036,5.806200068604601,4.482616688345693,6.386820075465061,4.8811794317478805,4.064340048023221,2.677195865686688
0.037,5.8700059891434355,4.597308320096331,6.457006588057779,5.0024430230348305,4.109004192400405,2.870729817036243
0.038,5.933330791305923,4.77995958697021,6.526663870436516,5.244698424980551,4.153331553914145,3.0571459594018333
0.039,5.996171069257885,5.138784248467706,6.5957881761836745,5.267741786963612,4.19731974848052,3.1848148558016556
0.04,6.058523463224383,5.202019474003665,6.664375809546822,5.15277904250208,4.240966424257068,3.3352997857126874
0.041,6.120384659753688,5.475836321925453,6.732423125729057,5.52951578986633,4.284269261827581,3.185401187633476
0.042,6.181751391976656,5.199115318133297,6.7999265311743216,5.84666118848106,4.3272259743836585,3.2140798199361655
0.043,6.242620439861469,4.677596642269683,6.866882483847616,5.838973447922693,4.3698343079030275,3.273255933846182
0.044,6.302988630463721,4.885700008192364,6.933287493510094,5.864561097159778,4.4120920413246045,3.5203202896435903
0.045,6.3628528381718334,5.1332230296257695,6.999138121989017,6.262172956000098,4.453996986720283,3.3378486780920493
0.046,6.422209984947755,5.067785798372767,7.064430983442531,5.952732236066975,4.495546989463429,3.182254168901809
0.047,6.481057040562951,4.940295372718669,7.129162744619247,5.931292978352045,4.5367399283940655,3.279696648848926
0.048,6.5393910228296495,5.032350600316709,7.193330125112615,5.83491323842518,4.577573715980754,3.339009268332507
0.049,6.597208997827305,5.002966426165069,7.2569298976100365,5.95272060194477,4.618046298479113,3.5662568055517485
0.05,6.654508080124296,5.366829800268787,7.319958888136727,5.889419864129903,4.658155656087007,3.559034904300926
0.051,6.711285432994797,5.034847976685562,7.382413976294277,6.276220224736321,4.697899803096357,3.4941536148252443
0.052,6.76753826863083,5.065729475035378,7.444292095493913,6.222750769935107,4.73727678804158,3.6315688705780227
0.053,6.82326384834947,5.119399466614896,7.505590233184417,6.100590307639591,4.776284693844628,3.6019179693709886
0.054,6.878459482795181,5.027810730829406,7.566305431074699,5.942204579049763,4.814921637956626,3.564613432492308
0.055,6.933122532137267,5.219344080935584,7.626434785350994,6.018425059328976,4.8531857724960865,3.5460061278736945
0.056,6.987250406262419,5.275262659446982,7.685975446888661,5.73568547403109,4.891075284383692,3.809477567989563
0.057,7.0408405649623464,5.645006392710009,7.744924621458582,5.961739443690032,4.928588395473642,3.9438234975391064
0.058,7.093890518116458,6.094896886482257,7.803279569928105,6.378341383832235,4.96572336268152,3.9131875228290456
0.059,7.1463978258696095,5.510563538197873,7.861037608456571,6.160959917910836,5.002478478108726,4.158253809594261
0.06,7.198360098804855,5.713562923659185,7.918196108685342,6.294955575966249,5.038852069163398,4.236703477446403
0.061,7.249774998111233,5.602238821183379,7.974752497922357,6.30414092139397,5.074842498677863,4.160015607466607
0.062,7.30064023574654,6.0340857375813215,8.030704259321194,6.20829549118439,5.110448165022578,4.205203294128622
0.063,7.350953574595092,6.126012328404861,8.086048932054602,6.0528104065312185,5.145667502216564,4.36159111825023
0.064,7.400712828620459,5.936167601930448,8.140784111482505,6.243862537797291,5.180498980034321,4.250364997354929
0.065,7.449915863013141,5.852309957633387,8.194907449314455,6.245270219708286,5.214941104109198,4.3172826588490505
0.066,7.498560594333212,5.697070478234311,8.248416653766535,6.089784624523077,5.248992416033248,4.166398906817195
0.067,7.546644990647877,5.869246855004274,8.301309489712665,6.407736811662073,5.282651493453514,4.400485994072172
0.068,7.594167071663945,5.622881470214357,8.35358377883034,6.506521800701141,5.315916950164761,4.357681973270053
0.069,7.641124908855225,5.655426108737677,8.405237399740749,6.736572260255891,5.348787436198657,4.4470852423747225
0.07,7.687516625584808,5.421969438329752,8.45626828814329,7.180675381242018,5.381261637909366,4.501380586917018
0.071,7.733340397222232,5.738646049800627,8.506674436944456,7.311276335253447,5.413338278055562,4.722549194943798
0.072,7.77859445125553,5.799826613963127,8.556453896381084,7.333496558690093,5.445016115878871,4.686119883742912
0.073,7.8232770673981396,5.992636186472264,8.605604774137953,7.27062099240189,5.476293947178697,4.698106964853042
0.074,7.867386577690672,6.074699455467977,8.65412523545974,7.432860340189105,5.50717060438347,4.840774678177734
0.075,7.910921366597526,5.826122507168448,8.702013503257279,7.653197032393876,5.5376449566182675,5.149929929017051
0.076,7.953879871098349,5.854013187177409,8.749267858208185,7.951355240405942,5.567715909768844,5.256923033587638
0.077,7.996260580774324,5.993875902117051,8.795886638851757,7.543424009134712,5.597382406542026,5.301787437823489
0.078,8.038062037889294,5.957534597014555,8.841868241678224,7.695798567102643,5.626643426522505,5.298491772293874
0.079,8.07928283746568,5.800104083013728,8.887211121212248,7.847403749647997,5.655497986225976,5.042679081735416
0.08,8.119921627355257,6.390152940683109,8.931913790090784,8.342472110180374,5.68394513914868,4.926846647379879
0.081,8.159977108304703,6.232492605065275,8.975974819135175,8.415349241624517,5.711983975813292,4.933366324019879
0.082,8.199448034015951,6.181360760922734,9.019392837417547,8.166292674649688,5.739613623811166,5.1579116946550485
0.083,8.238333211201375,6.316410824109548,9.062166532321514,8.12359892823463,5.766833247840962,4.954518724510388
0.084,8.27663149963373,6.365435453464852,9.104294649597104,8.184500098782046,5.79364204974361,4.969413226341106
0.085,8.314341812190914,6.56256453061349,9.145775993410007,8.055637481757817,5.820039268533639,4.72324067424845
0.086,8.351463114895509,6.5067007998406945,9.186609426385061,7.734358255303474,5.846024180426856,4.757558562624669
0.087,8.387994426949106,6.553703637373493,9.226793869644018,7.9123176100787544,5.871596098864374,4.645833906479725
0.088,8.423934820761426,6.773494237620952,9.26632830283757,7.484945140429244,5.896754374532998,4.683551695119801
0.089,8.459283421974213,6.899850550145172,9.305211764171634,7.417928495217026,5.921498395381949,4.46144548790448
0.09,8.494039409479925,7.215056961322244,9.343443350427918,7.666741890103684,5.9458275866359465,4.387910419474034
0.091,8.528202015435198,7.284940020351156,9.38102221697872,7.7630878910942425,5.969741410804638,4.590776251786389
0.092,8.5617705252691,7.274268232697558,9.417947577796012,7.6325618636899115,5.9932393676883695,4.627555914057066
0.093,8.594744277686168,7.555126554110606,9.454218705454785,7.802423368536658,6.016320994380317,4.697301119304065
0.094,8.627122664664231,7.444991149126323,9.489834931130655,7.807620951385505,6.038985865264961,4.781529266337766
0.095,8.65890513144703,7.44508577706452,9.524795644591734,8.108303099445484,6.061233592012921,4.85759038602409
0.096,8.690091176531613,7.4537748515891185,9.559100294184775,7.636712000740193,6.083063823572129,4.825322650004314
0.097,8.720680351650541,7.633478329273955,9.592748386815597,7.987017878869183,6.104476246155379,5.077399378795102
0.098,8.750672261748878,7.856963833154487,9.625739487923767,7.937281274168466,6.125470583224215,5.440647443540356
0.099,8.780066564955995,7.847902527278821,9.658073221451595,7.84226435181496,6.146046595469196,5.355292445372309
0.1,8.80886297255217,7.827503731787131,9.689749269807388,7.713731250394256,6.166204080786518,5.4349296089273755
0.101,8.837061248930006,7.818788620680467,9.720767373823007,7.926254032529132,6.185942874251004,5.5683585062494
0.102,8.864661211550661,7.891729854183378,9.751127332705728,8.181473265712468,6.205262848085463,5.654199270145035
0.103,8.891662730894913,8.00462517196176,9.780829003984405,8.514669360520053,6.224163911626438,5.719383364328447
0.104,8.918065730409031,8.178702744355526,9.809872303449936,8.591580212718286,6.242646011286322,5.730779498949276
0.105,8.943870186445512,7.8494066615487,9.838257205090065,8.989862967997363,6.260709130511858,5.744613517197607
0.106,8.969076128198637,7.768100850623575,9.865983741018502,9.169460212813203,6.278353289739045,5.730159264147386
0.107,8.9936836376349,8.029272502496275,9.893052001398392,8.989933212427701,6.29557854634443,5.889785250318392
0.108,9.017692849418289,7.815737904032005,9.919462134360119,8.864790722516716,6.312384994592802,5.8034395024975085
0.109,9.04110395083043,7.601413077512531,9.945214345913472,9.214714985009495,6.3287727655813,5.638908493748883
0.11,9.063917181685632,7.768041873041007,9.970308899854196,9.114238855401856,6.344742027179942,5.5582291806139175
0.111,9.086132834240804,7.518979646045968,9.994746117664885,9.00985932534623,6.360292983968562,5.734790443602021
0.112,9.107751253100284,7.740480896097397,10.018526378410314,9.229581091830163,6.375425877170199,5.6196578693491
0.113,9.128772835115576,7.999012991993714,10.041650118627135,9.438151929879208,6.390140984580903,5.787668798572606
0.114,9.149198029280011,8.335107710343367,10.064117832208014,9.46842537552699,6.404438620496007,5.830429914054718
0.115,9.169027336618353,8.426839868415573,10.085930070280188,9.557595002917115,6.418319135632847,5.818887632362742
0.116,9.18826131007134,8.501847103874239,10.107087441078475,9.336183805582836,6.431782917049937,5.794872996957468
0.117,9.206900554375213,7.978045944195247,10.127590609812735,9.010853156769203,6.444830388062649,5.823694671273192
0.118,9.224945725936184,7.930646546870224,10.147440298529803,8.902098874257302,6.4574620081553284,5.939325857730786
0.119,9.242397532699936,8.263033745745435,10.16663728596993,9.11721024738606,6.469678272889955,5.882098067717186
0.12,9.259256734016097,8.063845360257684,10.185182407417708,9.066686935092214,6.481479713811267,5.731472997315577
0.121,9.275524140497758,7.975438877579965,10.203076554547534,9.396429621461863,6.492866898348431,5.960690185478777
0.122,9.291200613876011,8.143731473032354,10.220320675263613,9.401319572822617,6.5038404297132075,6.210843817368187
0.123,9.306287066849553,8.34844767262695,10.236915773534509,9.113407735429599,6.514400946794686,6.3178589594217724
0.124,9.32078446292935,8.49969433398074,10.252862909222285,8.938131720578026,6.524549124050544,6.350527591544855
0.125,9.334693816278396,8.665660129157942,10.268163197906237,8.732982960702751,6.534285671394876,6.411411896959742
0.126,9.34801619154658,8.904575971935989,10.28281781070124,8.88161042617971,6.543611334082606,6.275228581843131
0.127,9.360752703700658,9.061130540376018,10.296827974070725,9.075992955226805,6.5525268925904605,6.212345158417444
0.128,9.372904517849397,9.281715952668524,10.310194969634338,9.267331332588219,6.561033162494578,6.51666150647663
0.129,9.384472849063851,9.189709204953656,10.322920133970237,9.109505561032384,6.569130994344695,6.3321367730839055
0.13,9.395458962192835,9.034606043397956,10.33500485841212,9.345324198704306,6.576821273534985,6.351600829390944
0.131,9.405864171673603,9.354133943732565,10.346450588840964,9.63230499220402,6.584104920171521,6.287749401624298
0.132,9.415689841337734,9.332567260826847,10.357258825471508,9.576792243485718,6.590982888936414,6.2646827002380086
0.133,9.42493738421227,9.37670942616146,10.367431122633498,9.664918971532803,6.5974561689485895,6.189186449200369
0.134,9.433608262316135,9.251307788622483,10.37696908854775,9.513872164108458,6.6035257836212935,6.122189961479279
0.135,9.441703986451794,8.920867600643072,10.385874385096974,9.570081505582568,6.609192790516255,5.928706321701431
0.136,9.449226115992277,9.127672408977324,10.394148727591505,9.690384213290452,6.614458281194593,6.027314551132317
0.137,9.4561762586635,9.27647140757438,10.401793884529852,9.805565585313436,6.61932338106445,5.992492233107389
0.138,9.462556070321966,9.39183308948925,10.408811677354164,9.46892006509482,6.623789249225376,6.029778819117279
0.139,9.468367254727813,9.077978034261406,10.415203980200594,9.404036086711615,6.627857078309469,6.151204627892557
0.14,9.473611563313298,9.09037173400632,10.42097271964463,9.533870113476171,6.631528094319308,5.999738050859764
0.141,9.478290794946707,9.281559717409547,10.426119874441378,9.612228977186389,6.634803556462694,5.972690854993075
0.142,9.482406795691702,9.015525253718728,10.430647475260873,9.756378013010126,6.637684756984191,5.884341224123253
0.143,9.485961458562159,8.818865282903346,10.434557604418375,9.789411422239565,6.640173020993511,5.922236060719916
0.144,9.488956723272521,8.894889622536265,10.437852395599775,9.558251103990612,6.642269706290764,5.957135398752768
0.145,9.49139457598367,8.682302782164534,10.440534033582036,9.903450459099034,6.6439762031885685,5.965500762937355
0.146,9.493277049044373,8.210501019145832,10.44260475394881,10.05035583220481,6.645293934331061,6.232046667878677
0.147,9.494606220728304,8.190981199764467,10.444066842801135,9.807002540405533,6.646224354509813,6.330676813774758
0.148,9.495384214966695,8.110519418548446,10.444922636463366,9.870562832393933,6.646768950476686,6.132211299448099
0.149,9.495613201076615,8.310289387929616,10.445174521184278,9.951346816382031,6.6469292407536305,6.177229462667014
0.15,9.495295393484954,8.568927059451955,10.44482493283345,9.80566356425859,6.646706775439467,5.975608417997011
0.151,9.494433051448059,8.472309633525443,10.443876356592865,9.670787401904951,6.646103136013641,6.064714163159426
0.152,9.493028478767169,9.022607418526587,10.442331326643886,9.735129491531197,6.645119935137018,5.946304614653262
0.153,9.491084023499546,9.090745681229954,10.440192425849501,9.137310698528227,6.643758816449682,5.893838722748719
0.154,9.488602077665455,8.93264782611076,10.437462285432002,9.344399081033789,6.642021454365818,5.974448122597412
0.155,9.485585076950926,9.069350798303322,10.43414358464602,9.363009401745314,6.639909553865648,5.81583886078788
0.156,9.482035500406411,9.153243848362468,10.430239050447053,9.476977667906427,6.6374248502844875,5.9517498028325
0.157,9.477955870141287,9.247979838658434,10.425751457155416,9.924233624524863,6.6345691090989005,5.92919897031294
0.158,9.473348751014328,9.556673766345774,10.42068362611576,9.970421232999868,6.631344125710029,5.851294375347822
0.159,9.46821675032008,9.293003814079066,10.415038425352089,9.84208586687057,6.627751725224056,5.822513020647256
0.16,9.462562517471255,9.405420422809234,10.408818769218382,9.524056199474881,6.623793762229878,5.752437707746842
0.161,9.456388743677138,9.384734990756627,10.402027618044853,9.6657084720618,6.619472120573996,5.686900056214877
0.162,9.449698161618043,8.982337015902361,10.394667977779848,9.458399068105381,6.61478871313263,5.76502546524639
0.163,9.442493545115852,8.671767844283774,10.386742899627437,9.325683573872936,6.609745481581096,6.0712221967838165
0.164,9.434777708800691,8.952006651080593,10.378255479680762,9.592795951683856,6.604344396160483,6.183252628324959
0.165,9.426553507773752,9.130928419813479,10.369208858551128,9.665552699530462,6.598587455441626,6.1021792329306095
0.166,9.417823837266303,9.446445962632248,10.359606220992934,9.476510906755768,6.592476686086411,6.055317245949854
0.167,9.408591632294945,9.460889098036343,10.34945079552444,9.49444601607204,6.586014142606461,5.8763760917949766
0.168,9.398859867313115,9.041581235328751,10.338745854044427,9.573643330054965,6.57920190711918,5.888310482235239
0.169,9.388631555858904,8.986777676096521,10.327494711444794,9.586574963020409,6.572042089101233,5.87042732007186
0.17,9.377909750199194,8.946219564742098,10.315700725219115,9.496517594077952,6.564536825139435,5.827321485253519
0.171,9.3666975409702,8.934394006773962,10.303367295067222,9.55949949442434,6.55668827867914,5.953813584020184
0.172,9.354998056814399,8.729589991101399,10.290497862495839,9.717177506535197,6.548498639770079,5.952464252896098
0.173,9.342814464013909,9.042126579763206,10.2770959104153,9.763457176258727,6.539970124809736,6.032395124424371
0.174,9.330149966120391,8.855526861705075,10.26316496273243,9.876280556528387,6.531104976284274,6.123885027921322
0.175,9.31700780358143,8.874794104259417,10.248708583939573,10.008677086968007,6.521905462507,6.148912721535133
0.176,9.303391253363527,8.723397811548958,10.23373037869988,9.779048779765994,6.512373877354468,6.196578508378319
0.177,9.289303628571663,8.889236317556996,10.21823399142883,9.822364043943404,6.502512540000163,6.189103961859712
0.178,9.274748278065541,8.628190409634817,10.202223105872095,9.621532632652306,6.492323794645879,6.317012357915762
0.179,9.259728586072473,8.378148573981557,10.18570144467972,9.840363026934714,6.481810010250731,6.406874579292591
0.18,9.244247971797048,8.643901747231444,10.168672768976753,10.06327778020197,6.470973580257933,6.287683070743183
0.181,9.22830988902751,8.76604037900869,10.151140877930262,10.035439576421716,6.459816922319257,6.46642747285984
0.182,9.211917825738986,9.13577594177072,10.133109608312886,9.987405570526196,6.44834247801729,6.410960315581455
0.183,9.195075303693534,9.16045157707094,10.114582834062888,10.099942628908051,6.436552712585473,6.403905500704886
0.184,9.177785878037115,9.191042767792206,10.095564465840827,10.129256393061512,6.42445011462598,6.444480169193394
0.185,9.160053136893463,8.96670396396887,10.07605845058281,10.241619825472212,6.412037195825424,6.566556189068688
0.186,9.141880700954951,9.207182873504403,10.056068771050448,9.845987520275068,6.399316490668466,6.613361082912155
0.187,9.123272223070467,9.378096246519894,10.035599445377514,9.937428378333964,6.386290556149326,6.609115698176975
0.188,9.104231387830358,9.535487660736592,10.014654526613395,9.747467167381807,6.37296197148125,6.534041845288433
0.189,9.084761911148467,9.532910342590146,9.993238102263314,9.795561339890249,6.3593333378039265,6.326684927398611
0.19,9.064867539841323,9.360678589522928,9.971354293825456,9.932645430149414,6.345407277888926,6.483716131498208
0.191,9.044552051204521,9.31500927308943,9.949007256324974,10.007705424721559,6.331186435843164,6.572349211294631
0.192,9.023819252586343,9.318885013759248,9.926201177844977,9.58728066593641,6.31667347681044,6.478756985740834
0.193,9.002672980958634,9.238323488586998,9.902940279054498,9.477564400747085,6.301871086671043,6.523836700296069
0.194,8.98111710248504,9.133196141958132,9.879228812733546,9.60736157488705,6.2867819717395275,6.398792103277879
0.195,8.959155512086577,9.261991323672905,9.855071063295235,9.513174855344714,6.271408858460603,6.516930667267141
0.196,8.936792133004632,9.43636698644626,9.830471346305096,9.396556355559003,6.255754493103242,6.669150899278394
0.197,8.914030916361419,9.183506096983105,9.805434007997562,9.712831731516475,6.239821641452993,6.800303508328547
0.198,8.890875840717941,9.182490900220502,9.779963424789736,9.530247005674571,6.2236130885025585,6.87423129478121
0.199,8.8673309116295,9.472271366130325,9.75406400279245,9.76460014487609,6.207131638140649,6.848423888146389
0.2,8.843400161198787,9.254653103507184,9.727740177318665,9.421964769003596,6.190380112839151,6.950468988637314
0.201,8.819087647626652,9.14361120867862,9.700996412389319,9.41971157463112,6.173361353338656,6.890191669846061
0.202,8.794397454760514,8.939736959212647,9.673837200236566,9.308559612907155,6.156078218332359,6.477468700775347
0.203,8.769333691640556,8.895361056926772,9.646267060804613,9.586207515171894,6.138533584148389,6.302370025248261
0.204,8.74390049204365,8.93436092387799,9.618290541248015,9.603371348312741,6.120730344430555,6.120476170703791
0.205,8.718102014025147,8.926848925866116,9.589912215427663,9.701002643499246,6.102671409817603,6.1292039090333335
0.206,8.691942439458552,9.072225705109386,9.561136683404408,9.37581569574967,6.084359707620986,6.241061175283835
0.207,8.665425973573068,9.046409864788457,9.531968570930376,9.672750915476517,6.0657981815011475,6.167667129376721
0.208,8.63855684448918,9.079733972761032,9.502412528938098,9.658622356474613,6.046989791142426,6.194049129639153
0.209,8.611339302752206,8.936141941041027,9.472473233027427,9.841853089231456,6.027937511926544,6.126810604773527
0.21,8.583777620863946,8.66750584397935,9.442155382950341,9.525644621039891,6.008644334604762,6.295178221008205
0.211,8.555876092812435,9.036976609313323,9.411463702093679,9.8053347727807,5.9891132649687036,6.267691764800832
0.212,8.52763903359985,9.117522177187439,9.380402936959836,9.709388166566109,5.969347323519895,6.042857305629325
0.213,8.499070778768669,8.900673287797774,9.348977856645536,9.65386013766091,5.949349545138068,5.994969539330248
0.214,8.470175683926028,8.853116395482651,9.317193252318631,9.973309365463617,5.929122978748219,5.954476781975427
0.215,8.440958124266466,8.947716210372871,9.285053936693114,10.046202664778557,5.908670686986525,5.93245237634535
0.216,8.411422494092951,8.822322605525372,9.252564743502248,9.887818888297268,5.887995745865066,5.837987390889267
0.217,8.381573206336393,8.776797931448051,9.219730526970032,9.522039121087829,5.867101244435474,5.938280830169097
0.218,8.351414692073535,8.841717507507107,9.186556161280889,9.65430802130923,5.8459902844514735,6.117282274072527
0.219,8.32095140004344,8.869004991596062,9.153046540047784,9.288926546467147,5.8246659800304075,6.018578510735054
0.22,8.29018779616245,8.494324295309676,9.119206575778694,9.25728910134055,5.8031314573137145,5.894401353532071
0.221,8.25912836303783,8.464794951402837,9.085041199341614,8.749947321261532,5.7813898541264805,5.861431537422626
0.222,8.227777599480001,8.094892725024327,9.050555359428003,8.478582356014916,5.759444319636001,5.950315624344682
0.223,8.196140020013551,8.162918807257645,9.015754022014907,8.777301861361712,5.737298014009486,5.779699269524194
0.224,8.164220154386934,8.222046804134234,8.980642169825629,9.140671363200102,5.714954108070853,5.95341294498314
0.225,8.13202254708104,8.231863010891244,8.945224801789143,9.542523396499893,5.6924157829567275,5.860886371223104
0.226,8.099551756816574,8.345480259125063,8.909506932498232,9.578990633615021,5.669686229771601,5.766889964169587
0.227,8.066812356060401,7.946269127449648,8.873493591666442,9.44684789263984,5.64676864924228,5.81732250651266
0.228,8.033808930530784,7.881479870446984,8.837189823583863,9.186586345343464,5.6236662513715485,5.499847173364193
0.229,8.000546078701703,7.7662575768641195,8.800600686571874,8.996354432034874,5.6003822550911915,5.646637329492957
0.23,7.967028411306167,7.692528428652779,8.763731252436784,8.956952911222125,5.5769198879143165,5.982625468516542
0.231,7.933260550838723,7.552599111154732,8.726586605922595,8.572290716709308,5.553282385587106,6.188943853754944
0.232,7.899247131057032,7.472693834814687,8.689171844162736,8.68948332966567,5.529472991739922,6.232682823158858
0.233,7.86499279648276,7.251849668769165,8.651492076131037,8.875596002824777,5.505494957537931,6.289421822086436
0.234,7.830502201901646,7.2928666717160455,8.61355242209181,8.43849600080664,5.4813515413311515,6.198530755206343
0.235,7.795780011862973,7.39578956691331,8.575358013049271,8.582297375097315,5.457046008304081,6.120865269723675
0.236,7.760830900178323,7.597188634762458,8.536913990196156,8.461534869791935,5.432581630124826,5.897536117145674
0.237,7.725659549419841,7.558410329815904,8.498225504361825,8.503848323100682,5.4079616845938885,5.769861274981902
0.238,7.690270650417884,7.723672955479747,8.459297715459673,8.77914141461731,5.383189455292518,5.610651316891022
0.239,7.654668901758282,7.677060454323355,8.420135791934111,9.030447631761184,5.358268231230797,5.675749970778106
0.24,7.61885900927909,7.912951529791711,8.380744910207,9.120585353569528,5.333201306495362,5.616635498129033
0.241,7.582845685567045,7.951814235750417,8.34113025412375,9.126117536980791,5.307991979896931,5.543332482704449
0.242,7.54663364945363,7.833210420431509,8.301297014398994,8.643322539933688,5.2826435546175405,5.542100444191897
0.243,7.510227625510939,8.024429255766378,8.261250388062033,8.632168516159878,5.257159337857657,5.560635301315837
0.244,7.47363234354725,7.839676327310154,8.220995577901975,8.447539895506488,5.231542640483075,5.665958332153234
0.245,7.436852538102515,7.890991059455643,8.180537791912768,8.286038985118887,5.20579677667176,5.434404506885802
0.246,7.3998929479436475,7.68426011195188,8.139882242738013,8.40300519948487,5.179925063560553,5.430822706525268
0.247,7.3627583155598275,7.866305556079184,8.09903414711581,8.437217987065566,5.153930820891879,5.557426021712877
0.248,7.3254533866577285,8.15638144066637,8.057998725323502,8.191970739982542,5.127817370660409,5.649539383984748
0.249,7.287982909656843,7.701387165606795,8.016781200622528,8.278065937882596,5.1015880367597894,5.89117023126356
0.25,7.2503516351848445,7.631692102828269,7.97538679870333,8.026393668760695,5.075246144629391,5.7943488773011795
0.251,7.212564315573152,8.006771376247436,7.933820747130468,8.478552280242688,5.048795020901206,5.842975041054671
0.252,7.174625704352627,7.757876731494136,7.89208827478789,8.596279878332771,5.022237993046838,5.475922880660991
0.253,7.136540555749578,7.637031597252315,7.850194611324537,8.477861869633623,4.995578389024704,5.426575058222634
0.254,7.098313624182009,7.614235274413283,7.808144986600211,8.120967651970812,4.968819536927406,5.350198281281635
0.255,7.059949663756272,7.475070218438582,7.7659446301319,7.841648836764002,4.94196476462939,5.476025525717561
0.256,7.0214534277640634,7.758282344924915,7.7235987705404705,7.808714916113567,4.915017399434844,5.523224910362367
0.257,6.982829668179929,7.948925393436166,7.681112634997922,7.70288581580959,4.88798076772595,5.370798855412526
0.258,6.944083135159224,7.557552425349003,7.638491448675147,7.8242565151759145,4.860858194611457,5.269813443158992
0.259,6.905218576536675,7.439527563849818,7.595740434190343,7.225983337326165,4.833653003575672,5.108565574803984
0.26,6.866240737325496,7.739926258451191,7.552864811058046,7.099420285695902,4.806368516127847,5.208937862240209
0.261,6.827154359217225,7.519652032469136,7.509869795138948,7.789078639400165,4.779008051452057,5.257845813716398
0.262,6.7879641800821995,7.498855387785249,7.46676059809042,8.251440487890157,4.75157492605754,4.92113693681726
0.263,6.748674933470865,7.182725022649871,7.423542426817953,8.320550531198824,4.7240724534296055,4.726231501911054
0.264,6.709291348115822,7.305583027690522,7.380220482927404,8.474013534629076,4.696503943681075,4.703672088695887
0.265,6.6698181474348015,7.338931525788793,7.336799962178282,8.445257785525783,4.668872703204361,4.833855415503751
0.266,6.630260049034488,7.127681318055135,7.293286053937938,7.693056690099197,4.6411820343241414,4.589306306099031
0.267,6.59062176421538,7.2422991841025,7.249683940636919,7.866623550745882,4.613435234950766,4.655822362235389
0.268,6.550907997477579,6.979204396320391,7.205998797225337,8.224171906002312,4.5856355982343056,4.5535513426009135
0.269,6.5111234460277165,7.171181234381678,7.162235790630489,8.126516680743984,4.557786412219401,4.556522956912034
0.27,6.471272799286959,7.3383988471343,7.118400079215656,7.8361426859283405,4.529890959500871,4.5866932191186365
0.271,6.431360738400166,7.403120836331891,7.074496812240183,7.855341433482929,4.501952516880116,4.5968644732718795
0.272,6.391391935746305,7.3548774515740805,7.030531129320936,7.835772668657096,4.473974355022413,4.275445085231558
0.273,6.351371054450077,7.107054993885536,6.986508159895085,8.042985963690356,4.445959738115054,4.732683668220553
0.274,6.311302747894917,6.8255523437214976,6.942433022684409,8.046627435145474,4.417911923526441,4.883716968963635
0.275,6.271191659237288,6.95309379139254,6.898310825161017,7.953784567013934,4.389834161466101,4.867785814869546
0.276,6.23104242092246,6.469589643803536,6.854146663014706,8.260012921738998,4.361729694645722,4.738609104942176
0.277,6.1908596542016845,6.268471495757819,6.809945619621853,8.349986450597644,4.333601757941179,4.7326469415717956
0.278,6.150647968650945,6.34121438382172,6.7657127655160405,8.116729347163695,4.305453578055661,4.601806942585044
0.279,6.110411961691203,6.210465031690379,6.721453157860324,7.717021705877736,4.277288373183842,4.56686889996625
0.28,6.070156218110315,6.537886256157229,6.677171839921346,7.686870008600671,4.24910935267722,4.703956909831038
0.281,6.029885309586552,6.322218540008866,6.632873840545208,7.8486692719107705,4.220919716710586,4.589771024441821
0.282,5.989603794213879,6.145048095134238,6.588564173635268,7.71528280233523,4.192722655949716,4.615595625599494
0.283,5.94931621602894,6.0202173566288195,6.5442478376318345,7.761107239159242,4.164521351220258,4.726405742707619
0.284,5.9090271045398755,5.793984320359636,6.499929814993863,7.436541268917421,4.136318973177913,4.800881725549517
0.285,5.868740974256994,6.044791584450674,6.455615071682694,7.362625420913423,4.108118681979896,4.762724475003009
0.286,5.82846232422531,5.682338944855942,6.411308556647842,7.365396986548266,4.079923626957717,4.622784642441967
0.287,5.788195637559081,5.716067887858619,6.36701520131499,7.196626306928607,4.051736946291356,4.8123071225186
0.288,5.7479453809782655,6.05034001692993,6.322739919076093,7.127187233712232,4.023561766684786,4.9525634197210575
0.289,5.707716004347111,6.171159323417337,6.278487604781822,6.93346078272095,3.9954012030429773,4.792810699168257
0.29,5.667511940214732,6.173585807378351,6.234263134236206,7.0238126503843805,3.9672583581503122,4.7944569986164876
0.291,5.627337603357918,5.9964569706624475,6.19007136369371,6.778386539495113,3.9391363223505422,4.600073584690049
0.292,5.5871973903260335,5.906219723197371,6.145917129358637,6.302515819995071,3.9110381732282233,4.471616267959221
0.293,5.547095678988222,6.006576294359908,6.101805246887045,6.351460984669163,3.882966975291755,4.664316513810974
0.294,5.507036828082819,6.356967016299704,6.057740510891101,6.071359358796959,3.8549257796579726,4.518444543266368
0.295,5.467025176769138,6.215459744387278,6.013727694446052,5.904593964898671,3.826917623738396,4.438438234611743
0.296,5.427065044181566,5.773826749555654,5.969771548599723,5.863122234151471,3.798945530927096,4.455570650672505
0.297,5.387160728986127,5.991496456588119,5.9258768018847405,5.468562738062806,3.771012510290289,4.41248679366283
0.298,5.347316508939439,5.963140146394429,5.882048159833384,5.22472715685546,3.743121556257607,4.404433212032855
0.299,5.307536640450233,5.944602187638855,5.838290304495257,5.481837500058232,3.715275648315163,4.429122729763459
0.3,5.267825358143346,5.781027342996367,5.794607893957681,5.393641857122004,3.6874777507003422,4.070989738135866
0.301,5.228186874426374,5.567310540248882,5.751005561869012,5.932825502462447,3.6597308120984615,4.116993339532645
0.302,5.188625379058888,5.207001499116875,5.707487916964777,6.048671003517663,3.6320377653412215,4.088349925740776
0.303,5.149145038724393,5.297229110529009,5.664059542596833,6.266640675074612,3.604401527107075,3.6865705088401657
0.304,5.109749996604938,5.465164218319495,5.620724996265432,6.299028904602004,3.5768249976234565,3.611815347081096
0.305,5.070444371958542,5.553191686075845,5.5774888091543975,6.087979042896194,3.549311060370979,3.734182793030984
0.306,5.03123225969939,5.398719614607193,5.534355485669329,6.079367394797349,3.521862581789573,3.8178096471424006
0.307,4.9921177299809045,5.828674083173422,5.491329502978996,5.955812544967478,3.494482410986633,3.8243270935955316
0.308,4.953104827781667,6.0575938485244665,5.448415310559834,6.329250175987147,3.467173379447167,3.703739381178541
0.309,4.914197572494326,6.117822918778321,5.40561732974376,6.026684491217815,3.4399383007460282,3.754470151255517
0.31,4.875399957517412,5.961029278993485,5.362939953269153,5.966323430366396,3.412779970262188,3.6739368038209546
0.311,4.836715949850232,6.065941578822912,5.320387544835255,5.902234041364202,3.3857011648951625,3.6285649068729606
0.312,4.798149489690758,5.93730831683573,5.277964438659834,6.055245875741013,3.3587046427835303,3.390247252062913
0.313,4.759704490036671,6.119319040772334,5.235674939040338,6.185593330390127,3.3317931430256693,3.2817464413218502
0.314,4.721384836289494,6.011651002592237,5.193523319918444,6.358293286530264,3.3049693854026456,3.42973213121093
0.315,4.683194385861908,5.75783389921637,5.1515138244481,6.223575618114398,3.2782360701033353,3.5476318162378333
0.316,4.645136967788326,5.911298726557828,5.109650664567159,6.7245831701545224,3.251595877451828,3.477857432990292
0.317,4.6072163823386525,6.084533133321609,5.067938020572518,7.08369318990748,3.2250514676370567,3.3026608042309116
0.318,4.569436400635408,6.016339100224193,5.02638004069895,6.625477124998888,3.1986054804447854,3.4556345690309875
0.319,4.5318007642741245,5.959359839607819,4.984980840701537,6.106052489505339,3.172260534991887,3.3740498759525224
0.32,4.494313184947167,6.044872389940114,4.943744503441884,5.983077515811864,3.1460192294630165,3.544286422707035
0.321,4.456977344070912,5.5824175985541435,4.902675078478004,5.9972463768841875,3.1198841408496385,3.529442796818028
0.322,4.419796892416423,5.608537135609047,4.861776581658066,6.102131833053136,3.0938578246914963,3.3648267591033854
0.323,4.382775449743562,5.539321414790339,4.821052994717919,6.278645531527103,3.0679428148204932,3.4324384923490934
0.324,4.345916604438667,5.323569259202783,4.780508264882534,6.145439576158717,3.042141623107067,3.357006877567477
0.325,4.309223913155743,5.345020725704329,4.740146304471318,6.056571933085253,3.01645673920902,3.259268165180789
0.326,4.2727009004612935,5.700494672118358,4.699970990507423,5.591126349257047,2.9908906303229053,3.2359039095285396
0.327,4.236351058482729,5.346753742373403,4.659986164331002,5.353292269193935,2.96544574093791,3.0429925988819613
0.328,4.200177846560496,5.340993849222654,4.620195631216546,5.375361223851752,2.9401244925923473,3.113621026762748
0.329,4.164184690903849,5.1741042189538735,4.580603159994235,5.322405233498426,2.9149292836326945,3.0248213085416045
0.33,4.128374984250415,4.930630338446397,4.541212482675458,5.030297643416867,2.8898624889752904,2.7468064589079506
0.331,4.092752085529465,4.7681001956751885,4.502027294082412,4.98641199082843,2.8649264598706257,2.624383595573015
0.332,4.057319319529055,4.864361356366288,4.463051251481962,5.0691975119843775,2.8401235236703384,3.189553600993202
0.333,4.022079976566935,4.784491292391109,4.4242879742236285,4.8405167049288575,2.8154559835968542,3.1280962560837144
0.334,3.987037312165387,4.877891570889777,4.385741043381926,4.871297387224291,2.7909261185157708,3.2682576533824275
0.335,3.9521945467299187,4.719491050167337,4.347414001402911,4.777558687475806,2.7665361827109427,2.9283587734707472
0.336,3.917554865231928,4.8484753726604355,4.309310351755121,5.061803328944615,2.7422884056623493,2.9049633248047777
0.337,3.883121416895297,4.508793971778336,4.271433558584827,5.23059386786977,2.718184991826708,2.6798586795239054
0.338,3.848897314887025,4.650221952724915,4.233787046375728,4.473445537244017,2.694228120420917,2.535893841719572
0.339,3.8148856360118426,4.261898556354154,4.196374199613027,4.6630783507510785,2.6704199452082897,2.4874415621147326
0.34,3.781089420410936,4.312925142004081,4.15919836245203,4.559557544408348,2.646762594287655,2.7551355011863996
0.341,3.7475116712647107,4.228396955256857,4.122262838391182,4.3665086827976065,2.6232581698852973,2.9121911433030347
0.342,3.7141553544997175,3.8646338735799572,4.08557088994969,4.283690284134689,2.599908748149802,2.7701994921443704
0.343,3.6810233984996916,4.024774235376165,4.0491257383496615,4.290711499822804,2.576716378949784,2.8201046820988265
0.344,3.6481186938207983,4.1061657285386595,4.012930563202879,4.329900228270272,2.5536830856745585,2.820587203645602
0.345,3.615444092911062,4.0442925402760475,3.9769885022021687,4.301139659847703,2.5308108650377434,2.680835104211059
0.346,3.5830024098340374,3.569718520198509,3.9413026508174416,4.088495587331433,2.508101686883826,2.3896624880491686
0.347,3.5507964199967583,3.6915673186277225,3.9058760619964343,4.102544245290827,2.4855574939977307,2.602402508840364
0.348,3.5188288598819355,3.7249115277647187,3.8707117458701292,4.193597322142983,2.4631802019173548,2.748892189135228
0.349,3.48710242678452,3.2458370451024265,3.835812669462972,4.258580226174666,2.4409716987491636,2.7414063607249752
0.35,3.4556197785525606,3.4051410532650657,3.801181756407817,4.443031462021899,2.418933844986792,2.636333857146562
0.351,3.4243835333324704,3.767006351606848,3.7668218866657175,4.639581831850503,2.397068473332729,2.590106603875468
0.352,3.3933962693186492,3.4189930322441673,3.7327358962505146,5.196936430524351,2.3753773885230545,2.593316794493874
0.353,3.3626605245075565,3.2608322242877206,3.6989265769583124,5.01203586218802,2.353862367155289,2.7410589355331725
0.354,3.3321787964562013,3.359309597308041,3.6653966761018215,5.386750406488619,2.3325251575193406,2.676718614279411
0.355,3.30195354204512,3.7162609244894274,3.632148896249632,5.596688063657031,2.311367479431584,2.5522185656274967
0.356,3.271987177245819,3.7044398203548434,3.599185894970401,5.239654174282437,2.2903910240720733,2.5786696801170508
0.357,3.242282076892762,3.7620547801438837,3.5665102845820384,4.990977432460963,2.2695974538249333,2.575558322275464
0.358,3.2128405744598574,3.318019046395836,3.5341246319058435,4.62727085077355,2.2489884021219,2.6564333451811186
0.359,3.18366496184154,3.4239705408693166,3.5020314580256944,4.307670429112125,2.228565473289078,2.2373805371517808
0.36,3.154757489138409,3.345790299791216,3.4702332380522503,4.210297919280177,2.2083302423968862,2.1449969194871086
0.361,3.126120364447458,3.448665172697696,3.438732400892204,3.772437120482548,2.1882842551132207,2.155159228610876
0.362,3.0977557536569647,3.678684851654321,3.407531329022661,3.2966758954482174,2.168429027559875,1.9647568980163856
0.363,3.069665780245983,3.9684298166371317,3.3766323582705815,3.3922930328223413,2.148766046172188,2.0377721760567025
0.364,3.041852525088518,4.069656926418506,3.34603777759737,3.248467160875153,2.1292967675619625,1.9042948653301375
0.365,3.014318026262373,3.937017856515789,3.3157498288886105,3.61958871949195,2.110022618383661,1.8619669623090744
0.366,2.987064278862709,3.6940147787305326,3.28577070674898,3.357627242053661,2.090944995203896,1.827490366162488
0.367,2.9600932348203015,3.4403752665189082,3.2561025583023318,3.3226195270877823,2.072065264374211,2.12381885798925
0.368,2.933406802724554,3.2988529549948185,3.22674748299701,2.962606862931543,2.053384761907188,2.06354588810352
0.369,2.9070068476512523,3.607082408745493,3.197707532416378,3.1172013396603577,2.0349047933558766,2.155128294436026
0.37,2.880895190995096,3.377815356495225,3.168984710094606,2.8328359591815886,2.0166266336965673,1.9325233455675765
0.371,2.8550736103070076,3.1666249658081402,3.1405809713377084,3.0141823384720565,1.9985515272149053,2.172682353192563
0.372,2.829543839136263,3.060016177298388,3.112498223049889,2.916640912796287,1.980680687395384,2.0598116889694293
0.373,2.804307566877406,2.9958727322242757,3.084738323565147,3.314128960201604,1.963015296814184,1.9638488307805395
0.374,2.779366438622046,2.8206538589697994,3.0573030824842506,3.4227959457756763,1.945556507035432,1.9017918863396628
0.375,2.7547220550154448,2.9199029161871994,3.0301942605169896,3.7320396568040737,1.9283054385108112,1.7965041029739783
0.376,2.7303759721180167,3.0245897613862875,3.0034135693298185,3.4369895744441274,1.9112631804826117,1.6729293223528414
0.377,2.7063297012716676,2.941857177790258,2.9769626713988346,3.6104484140656887,1.8944307908901672,1.8624595000919042
0.378,2.6825847089710386,2.9277575127567905,2.950843179868143,3.4047319014754738,1.8778092962797268,1.8413089643747245
0.379,2.659142416739649,2.8354264852330724,2.9250566584136144,3.608418577058462,1.8613996917177542,1.753695283115158
0.38,2.63600420101094,3.033574323614942,2.8996046211120343,4.0119286241709835,1.845202940707658,2.0112646676891694
0.381,2.613171393014259,2.8619720737768124,2.874488532315685,3.946418619623413,1.8292199751099811,1.8505648859709165
0.382,2.59064527866576,2.659514072322705,2.8497098065323363,3.9081379374778797,1.813451695066032,1.878104062370077
0.383,2.568427098464264,3.083016854274991,2.825269808310691,3.7862326602809775,1.7978989689249847,1.5969475324238993
0.384,2.5465180473920634,2.773937736187957,2.8011698521312702,3.3728837152053437,1.7825626331744442,1.4493925156676781
0.385,2.524919274820694,2.8529813794908208,2.7774112023027637,3.0423351406086114,1.7674434923744855,1.505841815859006
0.386,2.503631884421682,2.72937166753509,2.7539950728638507,2.9934081896200406,1.7525423190951772,1.6193116356060782
0.387,2.4826569340822626,2.9864509465596347,2.730922627490489,2.66600444993844,1.7378598538575838,1.5733342501267686
0.388,2.4619954358261067,2.7374393972076745,2.7081949794087175,2.893330003014906,1.7233968050782746,1.8495151449345721
0.389,2.4416483557390185,2.773321287086376,2.6858131913129206,3.1140843687376014,1.7091538490173128,1.6857193887830997
0.39,2.4216166138996558,2.825681747380313,2.6637782752896215,3.429825480381185,1.695131629729759,1.5939333046025959
0.391,2.401901084315253,3.0103562987570056,2.6420911927467787,3.3051262731963447,1.681330759020677,1.49826787706935
0.392,2.382502594862352,2.8989829839019876,2.6207528543485874,3.2747643232443395,1.6677518164036462,1.5126309643035245
0.393,2.3634219272325687,3.2085425929839086,2.5997641199558257,3.5766610638137983,1.654395349062798,1.7542643044635777
0.394,2.3446598168833717,3.2308508685083055,2.579125798571709,3.346415667481652,1.64126187181836,1.9834444080674023
0.395,2.326216952993895,3.3714072053263475,2.5588386482932846,3.2424339047075303,1.6283518670957264,1.7956167884065015
0.396,2.308093978425778,3.504616790112382,2.538903376268356,3.0696087768898273,1.6156657848980447,1.6283780568736557
0.397,2.2902914896890554,3.4087959789352418,2.519320638657961,2.8447751055982438,1.6032040427823386,1.3527206448953897
0.398,2.2728100369130715,3.2457969185104725,2.500091040604379,2.7343351036053876,1.59096702583915,1.4769473930127606
0.399,2.2556501238224396,3.001236252815094,2.4812151362046837,2.6147881709788345,1.5789550866757076,1.6841666409256608
0.4,2.2388122077180492,2.9807103626932214,2.4626934284898545,2.552086481048952,1.5671685454026343,1.6508906993110033
0.401,2.222296699463114,2.769710786744295,2.444526369409426,2.720914530548417,1.5556076896241797,1.6661217040009508
0.402,2.2061039634742547,2.7680176437319175,2.4267143598216805,2.5595300857369216,1.5442727744319782,1.737207777633235
0.403,2.1902343177176444,2.9332795799211606,2.409257749489409,2.5704561305995184,1.533164022402351,1.552704412767854
0.404,2.174688033710181,2.780099638145253,2.3921568370811994,2.9225615028176835,1.5222816235971266,1.5363537993643854
0.405,2.159465336525713,2.4234579435962145,2.3754118701782847,3.202347015340553,1.511625735567999,1.3476981601013236
0.406,2.1445664048063042,2.370016053901994,2.3590230452869347,2.8765187245400434,1.501196483364413,1.469790995098167
0.407,2.129991370778531,2.306225662151644,2.3429905078563844,2.621148059657339,1.4909939595449715,1.4632725070291093
0.408,2.1157403202748313,2.3582199971355413,2.3273143523023148,2.589002376574471,1.4810182241923817,1.418862312672148
0.409,2.1018132927598687,2.361310940789267,2.3119946220358556,2.4552925230148817,1.471269304931908,1.4199682526666961
0.41,2.088210281361948,2.352601051600244,2.297031309498143,2.3557341470774507,1.4617471969533635,1.3454400263835347
0.411,2.074931232909436,2.419723212785613,2.2824243562003796,2.471311675334425,1.4524518630366052,1.3664025903679085
0.412,2.061976047972218,2.4818665539115115,2.26817365276944,2.738036307762324,1.4433832335805523,1.2962897039586374
0.413,2.0493445809081665,2.59101068282616,2.2542790389989835,2.319850260092054,1.4345412066357164,1.4795818003077832
0.414,2.037036639914625,2.407886693681003,2.2407403039060876,2.3079759835053575,1.4259256479402374,1.278270694331301
0.415,2.0250519870848827,2.2863094688669117,2.227557185793371,2.477993793327737,1.4175363909594179,1.5193118598180457
0.416,2.0133903384696703,2.135788300440168,2.2147293723166377,2.2627922531860865,1.409373236928769,1.5611334725850974
0.417,2.0020513641436244,2.2394410176628012,2.202256500557987,2.2589595020160838,1.401435954900537,1.6432720949269255
0.418,1.9910346882767485,2.07575553769427,2.1901381571044234,2.1881639727415707,1.3937242817937239,1.235761084270302
0.419,1.9803398892108435,2.022627757768891,2.178373878131928,1.9148375087319136,1.3862379224475903,1.2320182731041256
0.42,1.969966499540913,2.4656306195218862,2.1669631494950043,1.2976157066304554,1.378976549678639,1.0373771217712626
0.421,1.9599140062015126,2.526896697385688,2.155905406821664,1.3856590144220167,1.3719398043410587,1.0845785270107489
0.422,1.9501818505580548,2.5561727961111917,2.1452000356138603,1.3689475646674223,1.3651272953906384,0.8852251180743903
0.423,1.9407694285030574,2.3542616481169123,2.134846371353363,1.3394623042101865,1.3585385999521402,1.0865202912860328
0.424,1.9316760905572998,2.5319829671584753,2.12484369961303,1.1333872600954882,1.3521732633901098,1.246385866526801
0.425,1.9229011419759177,2.422870229215119,2.11519125617351,1.4121040124731206,1.3460307993831422,1.2848580046638904
0.426,1.9144438428593826,2.615503556991755,2.105888227145321,1.3597970747714565,1.3401106900015678,1.1529397225591314
0.427,1.9063034082693822,2.4820473232289926,2.0969337490963205,1.242704632879718,1.3344123857885675,1.1980112433087886
0.428,1.898479008349577,2.119597916174797,2.088326909184535,1.3478799741598628,1.3289353058447038,1.1998896182150418
0.429,1.8909697684512272,2.0078992726995195,2.08006674529635,1.5707222660411226,1.323678837915859,0.9769565950426665
0.43,1.883774769263657,1.949920987968472,2.072152246190023,1.6585097486077816,1.3186423384845598,1.0307359052023324
0.431,1.8768930469495766,1.8564199327766924,2.0645823516445345,1.8825231557985285,1.3138251328647035,0.9403953601089028
0.432,1.8703235932852076,1.9885897716098708,2.0573559526137286,1.9290277780176093,1.3092265152996452,1.0381044539875859
0.433,1.864065355805229,2.3033473671139637,2.050471891385752,2.4176592550532523,1.3048457490636602,1.1888540018229539
0.434,1.858117237952511,1.860142503964635,2.0439289617477625,2.598203864234462,1.3006820665667576,1.0504319978299808
0.435,1.85247809923262,1.695280585707596,2.037725909155882,2.542059523732833,1.2967346694628339,0.9133395644096214
0.436,1.8471467553730863,1.8076465253528755,2.031861430910395,2.3202902931063276,1.2930027287611603,0.9982493191935153
0.437,1.842121978487417,1.5992165447464617,2.026334176336159,2.0004180347001967,1.2894853849411918,0.8465452610000739
0.438,1.8374024972438239,1.8401332383064652,2.0211427469682066,2.0217145886666734,1.2861817480706765,0.9626202587310151
0.439,1.8329869970386614,1.6424616472187927,2.0162856967425276,1.92216285127221,1.283090897927063,1.004726659954818
0.44,1.8288741201745573,1.7216447570764262,2.011761532192013,2.1171617013245463,1.2802118841221901,0.9893788638278639
0.441,1.8250624660431978,1.500408938164439,2.007568712647518,1.9426706351660468,1.2775437262302383,1.062518025691975
0.442,1.821550591312775,1.578827725601542,2.0037056504440525,1.9891270952047568,1.2750854139189425,1.033055614024351
0.443,1.8183370101200547,1.238251346493437,2.00017071113206,1.9657063597913238,1.2728359070840383,0.8284742008667563
0.444,1.8154201942670474,1.1920195440052672,1.9969622136937524,1.9752367782768019,1.270794135986933,0.7338529009398501
0.445,1.8127985734222793,1.2082972434571453,1.9940784307645074,1.9941045816446128,1.2689590013955954,0.9267430652678932
0.446,1.8104705353266182,1.4385829478888712,1.9915175888592802,2.164284180615212,1.2673293747286327,0.979277307518079
0.447,1.8084344260036413,1.6523500779724025,1.9892778686040056,2.1799734782034625,1.265904098202549,1.1024666652317756
0.448,1.806688549974532,1.6629807172454998,1.9873574049719853,2.0650828649271737,1.2646819849821722,1.111433667709095
0.449,1.8052311704774624,1.85533991082478,1.9857542875252088,1.7567416307602033,1.2636618193342235,1.029239278967197
0.45,1.8040605096914613,1.7105874579382165,1.9844665606606076,1.9350752466873378,1.2628423567840228,1.133963880942798
0.451,1.803174748964727,1.9356760020058084,1.9834922238611998,1.8084513072592165,1.2622223242753088,1.1756970528185997
0.452,1.8025720290473677,2.1106600416723236,1.9828292319521046,1.7591762164239844,1.2618004203331572,1.0169004839741451
0.453,1.8022504503285388,2.128018897265076,1.9824754953613928,1.6749080799755744,1.2615753152299771,1.2101580545246635
0.454,1.8022080730779644,2.2363828648647344,1.982428880385761,1.4569848495015356,1.261545651154575,1.3710319638342594
0.455,1.8024429176918,2.0756124414368844,1.9826872094609802,1.302030117793235,1.26171004238426,1.2169000025377537
0.456,1.802952964942829,2.0516236278350135,1.983248261437112,1.3321365310035178,1.2620670754599803,1.2515209236271427
0.457,1.80373615623495,2.2271504976393723,1.9841097718584453,1.2957192085062168,1.262615309364465,1.353631996900453
0.458,1.8047903938619356,2.2121684317145793,1.9852694332481293,1.1359066305318037,1.2633532757033548,1.32495998355868
0.459,1.8061135412704337,2.1039091783497375,1.9867248953974772,1.3312562579828813,1.2642794788893035,1.5906720793081475
0.46,1.8077034233271956,2.10680295856649,1.9884737656599154,1.5977993179895122,1.2653923963290368,1.4965588110593642
0.461,1.8095578265904706,1.710532880327031,1.990513609249518,1.699413748574706,1.2666904786133293,1.4616069888071863
0.462,1.8116744995855782,1.7891945840444194,1.9928419495441363,1.7485434290342903,1.2681721497099048,1.7645806290523447
0.463,1.814051153084601,1.5644618496279477,1.9954562683930614,1.2104213387019063,1.2698358071592206,1.5626521992516227
0.464,1.816685460390171,1.2875290907553207,1.9983540064291883,1.159301376376145,1.2716798222731196,1.5344109572444384
0.465,1.8195750576233425,1.298323067135325,2.001532563385677,1.405452597161045,1.2737025403363396,1.5740165491078821
0.466,1.8227175440154886,1.5196940752598245,2.0049892984170374,1.428973462888751,1.275902280810842,1.6318755630604784
0.467,1.826110482204212,1.461823364944697,2.0087215304246335,1.5392953164151797,1.2782773375429484,1.4801187415643229
0.468,1.8297513985332339,1.51328506305428,2.0127265383865574,1.7567826342282187,1.2808259789732637,1.6143642220295051
0.469,1.833637783356227,1.6276235526656984,2.01700156169185,1.9979796864956607,1.2835464483493588,1.560029508027503
0.47,1.837767091344562,1.6615505481947836,2.0215438004790185,2.10209925419764,1.2864369639411934,1.4423035438496732
0.471,1.842136741798937,1.7285828708561528,2.026350415978831,2.377184721010619,1.2894957192592558,1.5500768308749047
0.472,1.846744118964848,1.6688297240407304,2.031418530861333,2.1938003629546383,1.2927208832753934,1.3461936704166746
0.473,1.851586572351887,1.533191380208427,2.036745229587076,2.181023108684676,1.2961106006463208,1.333233509836123
0.474,1.8566614170568054,1.5672360410050303,2.0423275587624863,2.103383753604122,1.2996629919397638,1.2868684748795975
0.475,1.8619659340903398,1.8250110045422243,2.048162527499374,1.78846255835913,1.3033761538632378,1.2524385105387699
0.476,1.867497370707739,1.6937468415377184,2.054247107778513,1.7250633941792064,1.307248159495417,1.3696547444972134
0.477,1.8732529407429737,1.6769289229123794,2.060578234817271,1.7253011450065434,1.3112770585200815,1.2920479133541765
0.478,1.8792298249465933,1.6158294744342219,2.0671528074412526,1.792039820460337,1.3154608774626153,1.1710038360868322
0.479,1.8854251713271757,2.0438500129092363,2.073967688459893,1.978887394877978,1.319797619929023,1.0156694422577357
0.48,1.8918360954963678,2.208865772014865,2.0810197050460046,1.7291260510036486,1.3242852668474574,1.2424598210946858
0.481,1.8984596810174428,2.0556606293523756,2.0883056491191874,2.2661049658554937,1.32892177671221,0.9922169139829509
0.482,1.9052929797573674,1.5094403888919228,2.095822277733104,1.9636313956400753,1.3337050858301571,1.0161682759279416
0.483,1.9123330122423248,1.6399326153864566,2.1035663134665574,1.9761269966172137,1.3386331085696273,1.0987538067012244
0.484,1.9195767680166638,1.5347489671902406,2.1115344448183304,1.8774081281063055,1.3437037376116645,1.101522160050525
0.485,1.9270212060052332,1.1167469725737298,2.1197233266057567,1.5529788566367169,1.3489148442036631,1.1171016068999944
0.486,1.9346632548790637,1.0496943524919051,2.12812958036697,1.7295642052591567,1.3542642784153445,1.125742146468592
0.487,1.9424998134243556,1.4039283273172916,2.1367497947667915,1.7789875159228976,1.359749869397049,1.0738829006771695
0.488,1.9505277509147518,1.5232151251156112,2.1455805260062273,1.9985425469615843,1.3653694256403262,1.179674749628182
0.489,1.9587439074868187,1.4263060830318932,2.154618298235501,1.5900990440621965,1.371120735240773,0.8449321801529931
0.49,1.967145094518746,1.4826646648194806,2.163859603970621,1.2913088652858309,1.377001566163122,0.9679355966391812
0.491,1.9757280950121707,1.5416099523611195,2.173300904513388,1.276837686219087,1.3830096665085194,1.2080359876473625
0.492,1.9844896639771443,1.7376699805714846,2.182938630374859,1.604028141253193,1.389142764784001,1.1818329599595931
0.493,1.9934265288201418,1.7943013350798016,2.192769181702156,1.7005115673273017,1.3953985701740992,1.2669590266603081
0.494,2.0025353897351255,1.8814402741245941,2.2027889287086384,1.5998227899368205,1.4017747728145877,1.2003194052211685
0.495,2.0118129200975825,1.7220350085961458,2.212994212107341,1.6935030241181002,1.4082690440683077,1.233097725529949
0.496,2.0212557668615254,1.8311998365606326,2.223381343547678,1.913556490593444,1.4148790368030677,1.0951935184376116
0.497,2.0308605509593827,1.3216014854317923,2.233946606055321,1.9765620155347239,1.4216023856715678,1.1056609279396128
0.498,2.0406238677047766,1.6062345026601947,2.2446862544752544,1.954925362033685,1.4284367073933435,1.24277387367633
0.499,2.0505422871980974,1.5161118831667484,2.255596515917907,1.8605388928735802,1.4353796010386681,0.9707676014519169
0.5,2.0606123547348876,1.6741485487744208,2.2666735902083763,1.8034451791882387,1.4424286483144213,0.919016420728606
0.501,2.0708305912169314,1.6873809616296995,2.2779136503386246,1.751420118682472,1.449581413851852,0.8639036422640993
0.502,2.0811934935660705,1.3176964533165982,2.2893128429226777,1.9978400863660795,1.4568354454962493,1.2489220741336953
0.503,2.0916975351406473,1.0659471959766234,2.3008672886547124,1.6796760065748577,1.464188274598453,1.3383754944129795
0.504,2.1023391661545654,1.287457495655341,2.312573082770022,1.7629752841532784,1.4716374163081958,1.2923314665942929
0.505,2.1131148140989167,1.2579652621232067,2.3244262955088084,1.8983010393973212,1.4791803698692416,1.5560593117773787
0.506,2.1240208841661135,1.0886577632111076,2.336422972582725,1.8903145873107612,1.4868146189162794,1.6850661217237763
0.507,2.1350537596765173,1.2449518212964947,2.348559135644169,2.111644079244292,1.4945376317735621,1.5676826384543976
0.508,2.146209802507475,1.3968820203104588,2.3608307827582227,2.1331006177016545,1.5023468617552325,1.5542618662845262
0.509,2.1574853535247573,1.3587470929479046,2.373233888877233,2.2406854694294394,1.5102397474673301,1.7278143714530856
0.51,2.1688767330163254,1.6062659345537165,2.3857644063179584,2.1753797723240322,1.5182137131114277,1.8325964152586631
0.511,2.180380241128406,1.4076998513295564,2.398418265241247,2.5757806506609002,1.5262661687898842,1.7830265493190522
0.512,2.191992158303792,1.3344003037658905,2.4111913741341713,2.2491314638180318,1.5343945108126542,1.828328227003634
0.513,2.203708745722372,1.2514369515000938,2.4240796202946093,1.9677221092643222,1.5425961220056603,1.8439063957332082
0.514,2.215526245743802,1.6943710271798376,2.437078870318182,1.6205267291801786,1.5508683720206613,1.9206388825123342
0.515,2.227440882352285,1.4819924153803359,2.4501849705875136,2.045645397650502,1.5592086176465996,1.7732489476618456
0.516,2.239448861603425,1.6694544301538274,2.4633937477637677,2.261574536407375,1.5676142031223974,1.608614545509699
0.517,2.2515463720730913,1.9060737445094287,2.4767010092804007,2.4896295761099623,1.5760824604511638,1.586867301832748
