time,gyro_x,gyro_y,gyro_z,throttle,setpoint_roll,setpoint_pitch,setpoint_yaw
0.0,-0.0032240665978682465,-0.009566007456959184,-0.031125108276902548,0.3927183627708272,0.0,0.0,0.0
0.001,0.16761415841300045,0.13046317315138317,0.17149663848732277,0.3359446355644487,0.006785695469794662,0.004398172994429682,0.0015079581236456586
0.002,0.10498871627232507,0.1083563662145015,0.10917202311286234,0.3637941691001913,0.013570522990037852,0.008796005670549861,0.0030158781470191955
0.003,0.08571857813443362,0.11708753169849148,0.10310586343844597,0.3641490237602904,0.020353614722196406,0.013193157736383907,0.004523721970811135
0.004,0.06690706220446774,0.04749927563893519,0.03907452687129365,0.3603111982492891,0.027134103049759564,0.017589288952618912,0.006031451497637273
0.005,0.03962047052268784,0.03106774374925006,0.003970309482580141,0.36701572853012787,0.033911120689214716,0.02198405915893245,0.007539028633001243
0.006,-0.046656399261763355,-0.08605884696616965,-0.11681523721632599,0.3574146008113255,0.040683800800980455,0.026377128300313236,0.009046415286257025
0.007,0.1170906907444514,0.08781720744726881,0.0359983677356639,0.3524811833440261,0.047451277100282956,0.03076815645337361,0.010553573371571347
0.008,0.12950056371795135,0.0729323413957024,0.06204820803232852,0.35302473145593627,0.05421268396796135,0.0351568038526519,0.01206046480888596
0.009,0.04890158229145347,0.024912307935353754,-0.012885408427831964,0.36100367700560604,0.060967156561187896,0.03954273091690246,0.013567051524879782
0.01,-0.003972638475198763,0.029450462341408877,-0.03135637654150114,0.38244037648229245,0.067713830924089,0.04392559827537158,0.015073295453930866
0.011,0.039198192241178875,0.0276882750646704,-0.07779910430945514,0.3517861197036379,0.07445184409825262,0.04830506679405701,0.016579158539078154
0.012,0.05373505079157391,0.03212633114432127,-0.055714803377497284,0.3552463573716796,0.08118033423310818,0.052680797601949186,0.018084602732983054
0.013,0.08848652978011083,0.04591113139611111,-0.026810290245867154,0.35227882091853685,0.08789844069616477,0.05705245211725215,0.01958958999889072
0.014,0.3175024488585661,0.3058194008097283,0.19914943540611812,0.35797085096628056,0.09460530418309357,0.06141969207358205,0.02109408231159114
0.015,0.29916847935703705,0.26708019386880133,0.18737394416488914,0.35091645581624326,0.10130006682764033,0.06578217954614125,0.022598041658379815
0.016,0.30344746439807196,0.22480331369704687,0.0918119891992591,0.3377675573255258,0.10798187231135387,0.07013957697786599,0.024101430040018267
0.017,0.21749536968795768,0.15399107255736388,0.07455283847092004,0.3462438834555057,0.11464986597311683,0.07449154720554561,0.025604209471694086
0.018,0.189264323597299,0.08416417367640325,-0.022189541797364213,0.3554275361978184,0.12130319491846409,0.07883775348591131,0.027106341983980674
0.019,0.12381424019448684,0.052421641479403445,-0.0805463890558663,0.33950466572592203,0.12794100812867554,0.0831778595216924,0.028607789623796585
0.02,0.06780700026016817,-0.027107149281605993,-0.14232894722387765,0.3403464961940348,0.1345624565696287,0.08751152948763802,0.030108514455364468
0.021,0.26717665723509143,0.21647655957105616,0.10328069807550912,0.3463705429315584,0.14116669330039763,0.09183842805650237,0.03160847856116951
0.022,0.20105304421368225,0.12271455444555168,0.04293344774054195,0.37624851683945065,0.14775287358158398,0.09615822042499139,0.03310764404291752
0.023,0.2345607397207352,0.17066531195304105,0.06836269184022906,0.35203629185391283,0.15432015498336663,0.10047057233966891,0.034605973022492464
0.024,0.26210417990558027,0.20308807006889046,0.10782799136038959,0.33292596111135553,0.16086769749325572,0.10477515012282028,0.036103427642913445
0.025,0.31038891022665493,0.23991086427631372,0.07657188463660612,0.3280605989977445,0.16739466362353755,0.10907162069827127,0.03759997006929128
0.026,0.22304815734326644,0.16941829150258755,0.0414902258842896,0.34447405039030876,0.1739002185183966,0.11335965161716079,0.039095562489784345
0.027,0.45990271409365174,0.3503759605027282,0.26226696797733196,0.3802427586098979,0.1803835300607009,0.11763891108366469,0.04059016711655409
0.028,0.527045963007343,0.40425290605695063,0.25754503478362556,0.3470351612371174,0.1868437689784369,0.12190906798066922,0.042083746186719596
0.029,0.30257798081959675,0.17537465825742243,0.0486524040120079,0.39865979636884197,0.19328010895078082,0.12616979189539204,0.04357626196331184
0.03,0.3140233950094304,0.21120312345868755,0.0620349054695442,0.36226272811505067,0.19969172671379196,0.13042075314494847,0.045067676736227115
0.031,0.21901718991242414,0.11491720716082243,-0.05645121948908885,0.37544458355754456,0.20607780216571572,0.13466162280186159,0.04655795282317982
0.032,0.3828101945719768,0.27516898782104,0.13998160982127772,0.40608348126242855,0.2124375184718814,0.13889207271951362,0.04804705257065454
0.033,0.194080063249823,0.05157075871535731,-0.07912880161781084,0.3422351401240154,0.21877006216918268,0.14311177555753704,0.049534938354857415
0.034,0.3822653816237259,0.21707058577910865,0.03464277720597072,0.3911009243347974,0.2250746232701266,0.14732040480714328,0.05102157258266674
0.035,0.286203689538811,0.13867486694609718,-0.07170195181026534,0.31977318818356343,0.23135039536643792,0.15151763481638697,0.05250691769258282
0.036,0.42759601624851695,0.23544714770557895,0.0860845443045716,0.3972791346303517,0.23759657573220588,0.1557031408153641,0.05399093615567693
0.037,0.39409371150376926,0.28279675134491244,0.09284365909451359,0.37830723143229833,0.24381236542655987,0.1598765989413417,0.055473590476539665
0.038,0.44346912432576696,0.2900771533745084,0.21899421030808733,0.34444815194176337,0.24999696939586072,0.16403768626381748,0.05695484319422816
0.039,0.47337243690468284,0.28544604019576114,0.19889673912064815,0.3276872484596828,0.2561495965753951,0.1681860808095073,0.05843465688321266
0.04,0.539659003439776,0.45108263418925887,0.09418311068727885,0.3783418425330319,0.26226945999055973,0.17232146158725853,0.05991299415432211
0.041,0.5571448891702742,0.39256437867947735,0.2544182134674896,0.3619695846964404,0.26835577685752204,0.17644350861288746,0.061389817655688794
0.042,0.5607538795547456,0.4384763166525058,0.16304718960847975,0.343152573413841,0.27440776868334515,0.18055190293393875,0.06286509007369216
0.043,0.41148837635885455,0.26893839655166496,0.19441574428547137,0.3609393461463032,0.28042466136556393,0.18464632665436512,0.06433877413390149
0.044,0.42185284182385796,0.24174533756984426,0.05809589567580645,0.34989829230485636,0.2864056852911996,0.18872646295912535,0.06581083260201775
0.045,0.3627119195632696,0.20552788524289076,0.03592212723567609,0.355622031917482,0.29235007543519936,0.19279199613869824,0.06728122828481435
0.046,0.5836104237118247,0.421736836821734,0.22636307030975983,0.378175613871104,0.2982570714582905,0.19684261161351171,0.0687499240310768
0.047,0.5290267745852829,0.382230049121392,0.23059055700716163,0.38647121067096746,0.30412591780423376,0.20087799595828376,0.07021688273254148
0.048,0.45343891907967715,0.2688017102891481,-0.3423690952310252,0.31911931481888633,0.3099558637964663,0.2048978369262746,0.07168206732483318
0.049,0.5087208355940982,0.3159082016429599,-0.1413482865312493,0.4087751415739965,0.31574616373411873,0.20890182347344752,0.07314544078840153
0.05,0.6408787726472022,0.4297145566385239,0.08807153027570513,0.3543065838326075,0.32149607698739796,0.21288964578253633,0.07460696614945643
0.051,0.6243445991647162,0.42850247676725534,0.15994075552574785,0.3481820597904497,0.327204868092319,0.2168609952870184,0.07606660648090215
0.052,0.5975732280103452,0.403197033969929,0.28443770784234,0.33405056577746006,0.3328718068447784,0.22081556469499067,0.07752432490327038
0.053,0.4536672422988291,0.30332658039847454,0.12622592245660758,0.34928858451306294,0.3384961683939525,0.22475304801294677,0.07898008458565207
0.054,0.5362492040707215,0.38543959320521437,0.11447303688972496,0.37621042387020376,0.3440772333350133,0.2286731405694543,0.08043384874662786
0.055,0.5894879154259864,0.3768909340550861,0.036338697293904515,0.36486831976137174,0.3496142878011457,0.23257553903872916,0.08188558065519756
0.056,0.5366635541979787,0.37933262001234724,0.1688833518804086,0.35901880131127245,0.3551066235548577,0.23645994146410626,0.08333524363170818
0.057,0.5515308541699764,0.36832009018719075,0.3247610268595209,0.3483905444975466,0.3605535380785704,0.2403260472814039,0.08478280104878054
0.058,0.569802002774968,0.3907186640708823,0.017472238795505964,0.37907178314780193,0.36595433466447547,0.24417355734218077,0.0862282163322349
0.059,0.6640336850323162,0.46344785016655055,0.23112040414441645,0.3699666617353077,0.3713083225036507,0.24800217393688304,0.08767145296201495
0.06,0.7682623183712961,0.5633358764890976,0.1819829924661802,0.3673518562155743,0.37661481677442027,0.2518116008178804,0.08911247447311048
0.061,0.5686553476231394,0.31732653699460855,0.2869975949383085,0.338383464149205,0.3818731387299493,0.25560154322238887,0.09055124445647879
0.062,0.8265852235799969,0.6012699839449872,0.5798680614453049,0.3436434243780308,0.3870826157850616,0.25937170789527875,0.09198772655996458
0.063,0.7412383345366972,0.5545198463062753,0.15831324046733108,0.3968516229583204,0.3922425816022693,0.26312180311176564,0.09342188448921845
0.064,0.7981651435171807,0.5511003092082859,0.15408854813095266,0.34405058194100574,0.39735237617700286,0.2668515386999837,0.09485368200861391
0.065,0.713780013353979,0.508476815380819,0.0852040410038169,0.34015670143093507,0.402411345922032,0.2705606260634379,0.09628308294216284
0.066,0.7900567934741185,0.5796148943439265,0.18394993031595994,0.3687237417591216,0.4074188437510644,0.2742487782033352,0.09771005117442962
0.067,0.644339577661953,0.38751553987385107,0.1440767662919554,0.38635716276402715,0.4123742291615143,0.27791570974079144,0.09913455065144362
0.068,0.6719136555040757,0.4246816966555524,0.09462728887477626,0.36918043912825377,0.41727686831642813,0.2815611369389132,0.10055654538161
0.069,0.5106769848432618,0.37050560700401386,-0.28906294043079817,0.38572864263417755,0.4221261341255579,0.28518477772475276,0.10197599943661934
0.07,0.5759417398401995,0.37391109420538066,0.20226538360070356,0.37722370660493115,0.4269214063255712,0.2887863517111338,0.10339287695235512
0.071,0.8815187891660028,0.6684262538566778,0.09363886833544662,0.38605973981933933,0.43166207155938857,0.29236558021834724,0.1048071421298001
0.072,0.8463128804562255,0.5915716463110395,0.521355615149329,0.38477702822340454,0.43634752345463745,0.29592218629571476,0.1062187592359407
0.073,0.7893945300869724,0.5921334233671418,0.2843525707452593,0.3955111748389071,0.4409771627012117,0.2994558947430179,0.10762769260466985
0.074,0.7664142428306702,0.5529442779016072,-0.09859172587293664,0.33366984830034807,0.4455503971279292,0.30296643213179314,0.10903390663768818
0.075,0.9702801639113019,0.6887933593085517,0.31480766814280936,0.3492865233568488,0.45006664177827566,0.3064535268264882,0.11043736580540338
0.076,0.8227062207930328,0.5993509753912445,0.3137992406894045,0.35752787377209916,0.4545253189852255,0.30991690900548113,0.11183803464782796
0.077,0.7848633685158213,0.5435650396099311,-0.03300334499562333,0.38438883329979373,0.45892585844513056,0.3133563106819579,0.1132358777754752
0.078,0.6329994609480593,0.43427732813320796,-0.31923891013645295,0.41513627656051216,0.46326769729066675,0.3167714657246484,0.11463085987025319
0.079,0.7178607978321582,0.4621940270261311,0.174830686106088,0.36596479361896866,0.46755028016282996,0.3201621098784197,0.11602294568635732
0.08,0.6092728373543503,0.3785803083047549,0.36587445086237985,0.3539145599458557,0.4717730592819713,0.3235279807847221,0.11741210005116072
0.081,0.8994938983713413,0.6497596471299795,0.3553705552844465,0.4076220422848064,0.47593549451786243,0.3268688180018911,0.11879828786610296
0.082,0.7461402598778454,0.46889462986706587,0.16393034631325212,0.3816270181035548,0.48003705345878334,0.3301843630252984,0.12018147410757687
0.083,0.7941215273787198,0.5261441167207723,0.273730622086226,0.367785343419477,0.48407721147962257,0.3334743593073552,0.12156162382781342
0.084,0.9541633161711279,0.7137811679096384,0.256215499678002,0.389548297580225,0.48805545180898097,0.33673855227736255,0.12293870215576476
0.085,1.0097661853693578,0.7416794264848655,0.5222597404861467,0.37354647073862274,0.4919712655952713,0.3399766893612096,0.12431267429798523
0.086,0.9585920649028166,0.6263701972642347,0.15221661805235653,0.3838912817368354,0.4958241519718052,0.343188520000917,0.12568350553951046
0.087,1.0358070415159186,0.7980258830301181,0.21361149759390663,0.3600673334831994,0.4996136181208578,0.34637379567402443,0.12705116124473453
0.088,0.8510831154298163,0.6035684144224277,0.03631493155721803,0.3699997499244617,0.5033391793367038,0.34953226991282044,0.12841560685828507
0.089,0.9006424504409472,0.5886609414063826,0.10568154201955351,0.36227731358553583,0.5070003590876154,0.35266369832341354,0.12977680790589624
0.09,0.9075580744217715,0.6493508489136103,0.24578604147446478,0.39007279991734356,0.510596689076815,0.35576783860464267,0.13113472999527986
0.091,0.9149876380831324,0.6405523054465593,0.41454519768390674,0.38126189507585156,0.5141277093023743,0.3588444505668258,0.1324893388169944
0.092,0.6993112230265814,0.48911421177970593,0.07669799866237317,0.35725191984013827,0.5175929681160526,0.36189329615034516,0.1338406001453117
0.093,0.8682882139481863,0.6190114598702816,0.10666752718486222,0.37176413038660056,0.5209920222810663,0.36491413944406764,0.13518847983908197
0.094,0.7910277046142594,0.4995252694560427,0.009998167093201768,0.3364777357630676,0.5243244370287835,0.36790674670359885,0.1365329438425961
0.095,0.811397424023348,0.5110326348450747,0.21846554715731284,0.34315190262759976,0.5275897861143337,0.3708708863693696,0.13787395818644635
0.096,0.7667953992607269,0.5467722834688516,0.14232931052111047,0.3319302156252204,0.530787651871129,0.37380632908455347,0.13921148898838448
0.097,0.8334374181019256,0.564224871337322,0.22572506618535915,0.37209901795469796,0.5339176252642865,0.37671284771281366,0.140545502454178
0.098,0.9960186828453719,0.7245546863321981,0.24088628581347896,0.3846078937646527,0.5369793059429488,0.3795902173558782,0.14187596487846374
0.099,0.9337484024488955,0.6994730074757636,0.19033907019831087,0.37718175080680405,0.5399723022914908,0.38243821537094214,0.1432028426455998
0.1,1.0537011163709822,0.8181574802114004,0.39719541616369386,0.3621140546102461,0.5428962314796117,0.38525662138789457,0.1445261022305146
0.101,0.8942013190852225,0.704154803085809,0.3037928786823413,0.3951983797807115,0.5457507195113019,0.38804521732637076,0.145845710199554
0.102,0.8987418110753572,0.6661989599449959,0.2004976944423124,0.3606481115675458,0.5485354012726805,0.3908037874126262,0.1471616332113262
0.103,0.8968130620454974,0.69581921065596,0.27286982355362066,0.3816122897749833,0.551249920578697,0.39353211819623285,0.14847383801754394
0.104,0.7503585166614574,0.4714612310312328,0.007944537745144968,0.36982867616369913,0.5538939302186895,0.39622999856659524,0.14978229146386468
0.105,0.9859051888852053,0.7162409350300115,0.23825982151800293,0.3760383607776235,0.5564670920007967,0.39889721976928544,0.15108696049072823
0.106,1.0596992610330553,0.7547402960102985,0.4753664277759389,0.41027985797769717,0.5589690767952155,0.4015335754221963,0.152387812134192
0.107,1.0958970281608882,0.8189121713765098,0.17025696810186713,0.3615717418203427,0.5613995645762992,0.40413886153151024,0.153684813526764
0.108,0.8908274214246757,0.6622781171980554,0.16908904288993182,0.3830978598234722,0.5637582444634921,0.4067128765074841,0.15497793189823314
0.109,0.9456033214415943,0.7114889394469974,0.5376468891565501,0.3731687357029368,0.5660448147610933,0.40925542118004743,0.1562671345764973
0.11,1.0656066174265904,0.8387619531698057,0.20433014676909828,0.34794306873151337,0.5682589829968466,0.41176629881421367,0.15755238898838872
0.111,0.9776673554881404,0.7462927641627861,0.17787021405269934,0.31340136615836633,0.5704004659593499,0.41424531512530305,0.15883366266049714
0.112,0.9626901762260338,0.664998089672205,0.290803813457542,0.38408556161681584,0.5724689897342811,0.41669227829397576,0.1601109232199902
0.113,0.9433799548161762,0.7102860471887448,0.3543063996253466,0.35925181065399947,0.574464289739433,0.41910699898107434,0.1613841383954314
0.114,1.017478703592794,0.7682183475236019,0.3632333481057418,0.3952309238262173,0.5763861107585568,0.4214892903422743,0.16265327601759533
0.115,0.9015896547294214,0.6360010301899021,0.0981327962062066,0.3852940789903172,0.5782342069740058,0.4238389680425416,0.16391830402028074
0.116,0.9473149608220172,0.6959595780064634,0.17077424123888338,0.39825230759678604,0.5800083419981777,0.4261558502703959,0.16517919044112045
0.117,1.0166925104701496,0.8157778168330704,0.6599811354286704,0.3807665566904503,0.581708288903751,0.4284397577519786,0.1664359034223892
0.118,1.0107386331749852,0.7574248159186758,0.46026151001760307,0.3940113796152154,0.5833338302527105,0.4306905137649249,0.16768841121180827
0.119,0.9425070362831741,0.7477312781043006,0.23300058359067033,0.3439548855478328,0.5848847581241597,0.4329079441520375,0.16893668216334792
0.12,1.0096080735134703,0.7718397410196417,0.35685889273961546,0.3828353053949526,0.5863608741409161,0.43509187733476284,0.17018068473802694
0.121,1.0290454278609975,0.81473242332829,0.19253151628104448,0.36976737400979276,0.5877619894948845,0.43724214432646713,0.17142038750470953
0.122,1.1021360239588138,0.8320525874268904,0.3124854346449895,0.3597415475358034,0.5890879249712079,0.4393585787455124,0.1726557591408993
0.123,1.08443538433789,0.8630836606693595,0.6579329400116839,0.3826712348887484,0.5903385109711906,0.4414410168281301,0.17388676843353099
0.124,0.843637930183733,0.6504037647237738,0.3881782887454173,0.36677863081500317,0.5915135875339912,0.4434892974410932,0.17511338427975867
0.125,1.0717344528180162,0.8862114312583202,0.38072211212992957,0.33887271712370814,0.5926130043570826,0.4455032620941839,0.17633557568774194
0.126,1.0061156766394572,0.7410534672003434,0.23748828819997164,0.3698209694988685,0.5936366208154776,0.4474827549524574,0.17755331177742886
0.127,0.8422052990682157,0.5850793941275193,0.2461057506208823,0.3828415539406934,0.5945843059797161,0.44942762284829973,0.17876656178133607
0.128,0.8236351221247439,0.6267695309011649,0.4040930698546329,0.3428112131947616,0.5954559386326114,0.4513377152932796,0.1799752950453264
0.129,0.8491772827173862,0.6157076889600599,-0.044263616341617434,0.3757706225387846,0.5962514072847557,0.45321288448979263,0.18117948102938308
0.13,1.0276672170914687,0.7959748729132718,0.4922953629314611,0.39446388541141714,0.5969706101887801,0.45505298534249783,0.18237908930838162
0.131,1.1764359479106274,0.9496129105047098,0.5855596298509134,0.37272482107794025,0.5976134553523691,0.4568578754695442,0.1835740895728584
0.132,1.004925094419884,0.792790119739652,0.42894304170174546,0.354928520277395,0.5981798605500276,0.45862741521358824,0.18476445162977653
0.133,1.1044723390433995,0.8932680368361964,0.44729150697499814,0.3678917922683961,0.5986697533335973,0.4603614676526,0.18595014540328866
0.134,1.0136585543330734,0.8253242576058069,0.5392354081320031,0.3962407496127619,0.5990830710415246,0.4620598986104579,0.18713114093549707
0.135,0.9710674303419466,0.7832634122208698,0.42731742824889113,0.37119637337840466,0.5994197608068748,0.4637225766673307,0.18830740838721016
0.136,1.127529028631904,0.8879174501730412,0.07911926077017843,0.34548151866895993,0.5996797795640945,0.4653493731698466,0.18947891803869685
0.137,0.9375754923553171,0.7131836525584604,0.43705015425490384,0.37098506349090166,0.5998630940545199,0.46694016224104806,0.1906456402904372
0.138,0.9255733110169372,0.7406320543108739,0.48200021519695285,0.3828604139880331,0.5999696808306311,0.46849482079013155,0.19180754566387045
0.139,1.0586312753765725,0.8907365071917166,0.39371767381910866,0.3958210856753478,0.5999995262590511,0.4700132285219723,0.1929646048021396
0.14,0.8403367327432291,0.6985473173697768,0.25411800142745156,0.3839199817227169,0.5999526265222896,0.4714952679464322,0.1941167884708333
0.141,0.8435207433463086,0.6434360889263727,-0.0015716182582189708,0.3467446057368081,0.5998289876192316,0.47294082438745105,0.19526406755872455
0.142,1.0545342175049903,0.8808685832230871,0.25992362184946927,0.353911544572954,0.5996286253643694,0.4743497859919195,0.19640641307850615
0.143,1.1074143070692164,0.9153378896690738,0.3714292710456573,0.34607238690911124,0.5993515653857808,0.4757220437383344,0.197543796167523
0.144,1.1574415896145174,0.9572398610450153,0.6740410066376026,0.4035319442591568,0.5989978431218499,0.47705749144523424,0.19867618808850143
0.145,0.9510963903216776,0.7810955107922088,0.41643485203024294,0.35807559620601953,0.5985675038167351,0.4783560257794152,0.19980356023027546
0.146,0.9888409008174636,0.7753234876765727,0.5490645692184747,0.3545642788223056,0.5980606025145816,0.4796175462639271,0.20092588410850934
0.147,1.006960938159503,0.8684925534580663,0.12800677505731795,0.38627172910126584,0.597477204052481,0.48084195528584756,0.2020431313664175
0.148,0.8916888412416147,0.7210563575786064,0.4230892141155147,0.37915400445384695,0.5968173830521776,0.4820291581038354,0.20315527377548095
0.149,0.8235651713560033,0.6187355069312197,0.2326621444218101,0.4012832698179353,0.5960812239105241,0.4831790628554612,0.20426228323616044
0.15,0.9059233989441763,0.7407418380796487,0.35811116594327286,0.39892775060709795,0.5952688207886867,0.48429158056431554,0.20536413177860657
0.151,1.026485496293463,0.8681351226273724,0.4886873210131424,0.3728575393868493,0.5943802776001001,0.48536662514689366,0.20646079156336633
0.152,0.8224108105225542,0.6693824896196335,0.22683542729867562,0.3563067442714373,0.5934157079971771,0.4864041134192563,0.20755223488208657
0.153,0.9887346883479495,0.8600681030964595,0.4603105571327177,0.4040410682029336,0.5923752353567712,0.48740396510346645,0.20863843415821406
0.154,1.0928113378104056,0.9284259759876018,0.5302734967760782,0.35958458069948124,0.5912589927643949,0.4883661028338008,0.20971936194769225
0.155,1.1543945700821805,1.0429271183314437,0.5040838959372017,0.4086034680101962,0.5900671229971978,0.48929045216273603,0.21079499093965476
0.156,0.95650962303079,0.7950420242715961,0.35633259923583543,0.3390217666352741,0.5887997785057041,0.4901769415667098,0.2118652939571152
0.157,0.9167893840882404,0.795099853350145,0.5394129040967602,0.391213553122263,0.5874571213943123,0.4910255024516546,0.21293024395765403
0.158,0.9398147134555283,0.8226644123501071,0.28802192289745265,0.4013774096075497,0.5860393234005609,0.4918360691583054,0.21398981403410183
0.159,1.0639407906377416,0.884043910139234,0.07883585142785238,0.3924361143746936,0.5845465658731619,0.49260857896728044,0.21504397741521894
0.16,0.9119441108030567,0.8501413260620589,0.32448044473480553,0.39107807295106,0.5829790397488044,0.493342972103934,0.21609270746637207
0.161,0.9855420278859869,0.8314688505687907,0.28122666780258676,0.3859699193586958,0.5813369455277321,0.4940391917429819,0.2171359776902071
0.162,0.8040078661023496,0.6762125589056317,0.07294140054374124,0.3993072071981154,0.5796204932480982,0.4946971840128981,0.21817376172731875
0.163,0.8895979564037276,0.7906500195592259,0.42273100117914697,0.38688036872826936,0.5778299024590987,0.49531689800008344,0.21920603335691638
0.164,0.9061311401546824,0.7820785045357572,0.1868958977217175,0.39242610041887915,0.575965402192891,0.4958982857528051,0.22023276649748655
0.165,0.9304435533942635,0.7989265648654391,0.17795402013662956,0.3792324122429883,0.5740272309352983,0.49644130228490685,0.22125393520745218
0.166,1.1736826019528486,1.0487146153602127,0.604998658249603,0.38921562234934765,0.5720156365953051,0.49694590557929014,0.22226951368582762
0.167,1.0025881494345896,0.906398034703915,0.4794832896970902,0.3954035564209656,0.5699308764733476,0.49741205659116516,0.22327947627287098
0.168,0.901291720023097,0.7355798980339548,0.13453898138268308,0.40086803466670734,0.5677732172284031,0.49783971925107207,0.22428379745073207
0.169,1.1373193852627155,1.0297953946234142,0.7420567124109083,0.377814044630252,0.5655429348438814,0.49822886046767184,0.22528245184409737
0.17,1.123647093983938,1.0090825987801197,0.5322450583774352,0.3727918799621266,0.5632403145923244,0.49857945013030697,0.2262754142208311
0.171,0.8776256890088613,0.8332879320244166,0.21080158010735373,0.3607473902021668,0.5608656509989173,0.4988914611113311,0.22726265949261276
0.172,0.9138949425681853,0.7995573651557248,0.017116719760238392,0.4117674295022891,0.5584192478038159,0.4991648692682083,0.22824416271557088
0.173,0.9565387983740076,0.8469950143315432,0.3374634240149324,0.4204754717940179,0.5559014179232964,0.499399653445381,0.2292198990909135
0.174,0.8565848888178009,0.7917736202973826,0.2561705389287208,0.3942788770836984,0.5533124834097296,0.4995957954759072,0.23018984396555453
0.175,0.9050890231877246,0.8242861261199947,0.3422624271047369,0.3864557933322271,0.5506527754103887,0.4997532801828658,0.23115397283273673
0.176,0.8704530322075922,0.7854036407795034,0.44990038188854975,0.35968630693556797,0.5479226341250918,0.4998720953805311,0.23211226133265087
0.177,0.870130924615396,0.7823095918837502,0.6566193650906236,0.3900692466938694,0.5451224087626877,0.499952231875316,0.23306468525305124
0.178,0.8812087132270069,0.8498911326264043,0.5350046391123079,0.38737907541512856,0.5422524574963893,0.4999936834664829,0.23401122052986736
0.179,0.8257897212582771,0.7890217987436595,0.18217992415538078,0.35907598391571854,0.5393131474179597,0.49999644694662365,0.23495184324781207
0.18,0.8653003044663623,0.8017846467490725,0.14298595510077924,0.3525965689935448,0.5363048544907583,0.49996052210190806,0.23588652964098564
0.181,0.929146466697821,0.891088401889746,0.5254640763628139,0.38726464805870775,0.5332279635016516,0.4998859117120999,0.23681525609347634
0.182,0.948866037297986,0.9158441946693829,0.4414723910474879,0.4007019113547243,0.5300828680117955,0.49977262155034224,0.23773799913995713
0.183,0.7905410498098576,0.7914815783189918,0.45001963188179894,0.3818416628343796,0.526869970306296,0.49962066038271047,0.23865473546627847
0.184,0.7879013608688697,0.7437118399128712,0.18512587185347812,0.3836188459512652,0.5235896813427526,0.49943003996753427,0.23956544191005744
0.185,0.8375173162024314,0.8258946822649071,0.3307260007593037,0.369275529563853,0.5202424206986941,0.4992007750544875,0.24047009546126294
0.186,0.7535074965331718,0.715335036284077,0.31253190457656277,0.4021628643912527,0.51682861651791,0.4989328833834471,0.2413686732627971
0.187,0.7106164137102313,0.7017567153253929,0.20377476954237017,0.3757216754044852,0.513348705455688,0.4986263856831204,0.24226115261107256
0.188,0.8260159164925597,0.8165210221140222,0.40012264317508284,0.3600974450411585,0.5098031326229618,0.498281305669441,0.24314751095658665
0.189,0.8680526512036596,0.8852488524108405,0.4505365007909107,0.4101986663149186,0.5061923515293774,0.49789767004373414,0.24402772590449046
0.19,0.7885775647582498,0.8332858441057781,0.3573060518554454,0.38708964566544285,0.5025168240252851,0.4974755084906501,0.24490177521515516
0.191,0.8810715116205693,0.8747948942210099,0.4583072842535365,0.4359236200084146,0.4987770202426651,0.4970148536758676,0.24576963680473363
0.192,0.8030717233764081,0.7626315540699459,0.33622514614671584,0.3817805204673128,0.49497341853499355,0.49651574124356623,0.24663128874571869
0.193,0.6529498660466259,0.6587034628037808,0.22590245132214395,0.422920039516266,0.49110650541605705,0.49597820981366825,0.24748670926749675
0.194,0.602056597754232,0.6291203033652548,0.2693541875854701,0.3959828609204949,0.4871767754977224,0.4954023009788504,0.24833587675689833
0.195,0.7108441095587562,0.8007685207625077,0.39012129085448205,0.3848311121451602,0.4831847314266732,0.49478805930132547,0.24917876975874376
0.196,0.781203155705147,0.8327963069609869,0.37238273547118766,0.3797678649605739,0.479130883820115,0.4941355323093944,0.25001536697638543
0.197,0.7739264652309225,0.7992801464578254,0.42839632468093725,0.3944209089552725,0.47501575120046413,0.4934447704937684,0.2508456472722459
0.198,0.7432934364554163,0.7916342880719396,0.35423003913137896,0.3641227007259413,0.4708398599290243,0.4927158273036623,0.2516695896683519
0.199,0.9110382142300161,0.9186316804157166,0.5208234694875554,0.41015285454020023,0.46660374413865907,0.49194875914265895,0.2524871733468644
0.2,0.7764067053113206,0.8438360921122724,0.4825692193650135,0.3914867681624957,0.4623079456654735,0.49114362536434436,0.25329837765060453
0.201,0.896437564931644,0.9174334814288028,0.530404141223834,0.40388612493623355,0.457953013979507,0.4903004882677156,0.2541031820835756
0.202,0.7088755330016309,0.8080932961804116,0.3813544039648123,0.4093957400156136,0.4535395061144517,0.4894194130923601,0.2549015663114809
0.203,0.8105765769915195,0.8891973264831627,0.49468931518741205,0.3978754848296154,0.44906798659640407,0.4885004680134075,0.2556935101622375
0.204,0.9204456830981701,0.9335106952579998,0.5710350100151881,0.37100379695093955,0.4445390273716554,0.48754372413625463,0.2564789936264859
0.205,0.7452903597839742,0.8216142264024451,0.4241769885082167,0.38309497450641006,0.43995320773353624,0.4865492554910633,0.25725799685809564
0.206,0.8361166371812888,0.9027245094480559,0.5048041570785037,0.3597090693114852,0.43531111424831875,0.48551713902703236,0.25803050017466655
0.207,0.5515502974547921,0.6793357267240213,0.32003758464121673,0.3749156374787749,0.43061334068019114,0.4844474546064435,0.25879648405802624
0.208,0.5504162309269665,0.6992413341880318,0.29351829512959415,0.38962917669025915,0.4258604879153081,0.4833402849984815,0.25955592915472336
0.209,0.7474490511751561,0.8379264129659273,0.45256277014471746,0.39181815994274816,0.42105316388493436,0.4821957158728301,0.26030881627651614
0.21,0.7820415980545304,0.9017018924269515,0.5452234303163354,0.41608568560259523,0.41619198348768316,0.48101383579304297,0.2610551264008577
0.211,0.7044517661261905,0.8330072258976616,0.45556582322539946,0.39705142745183025,0.41127756851086616,0.4797947362096909,0.2617948406713763
0.212,0.6394330506441628,0.7535294293259925,0.40441950977255287,0.37592510221005637,0.406310547550962,0.4785385114532856,0.2625279403983521
0.213,0.6267109142712302,0.755918476896039,0.3974890799661488,0.37386419080792344,0.4012915559332121,0.47724525872698076,0.26325440705918907
0.214,0.5982756155837579,0.7207733911216881,0.40759087639761954,0.4108609864895844,0.39622123563035816,0.4759150780990507,0.2639742222988831
0.215,0.6055650567565196,0.732568880513625,0.35645577811284807,0.3906215120075132,0.3911002351805274,0.4745480724951473,0.264687367930486
0.216,0.5924460853936218,0.7520666312616548,0.42444870024576753,0.4166623781503781,0.3859292096042792,0.473144347690336,0.2653938259355645
0.217,0.6143463435672799,0.7479884328994634,0.42883261821541474,0.39315763085350514,0.38070882032082276,0.47170401230091114,0.2660935784646559
0.218,0.48863699330948546,0.6984878540399131,0.34426880456334147,0.39652502410902385,0.3754397350634147,0.4702271777759915,0.2667866078377191
0.219,0.5034758944986466,0.7327724512203745,0.36323530320484576,0.3989898818606648,0.3701226277939518,0.468713958388897,0.267472896544581
0.22,0.5478268862574963,0.775965232120658,0.4519101693711494,0.39639915415768995,0.36475817861676313,0.46716447122830607,0.26815242724537913
0.221,0.45140964343158196,0.63289207742549,0.2801883492236275,0.3700965633345709,0.3593470736916215,0.4655788361891959,0.26882518277099965
0.222,0.6407232668825961,0.8249984315128552,0.47735293410426377,0.3902196640685237,0.3538900051459753,0.46395717596356534,0.2694911461235113
0.223,0.5274714094479716,0.7933594084702188,0.47633647110372274,0.37444416270776576,0.3483876709864202,0.4622996160309414,0.2701503004765948
0.224,0.5133952725453316,0.7317900303389289,0.40177503820706517,0.4011097687499013,0.34284077500941906,0.4606062846486697,0.27080262917596776
0.225,0.6285182460533154,0.8414259054763406,0.5406536023729125,0.3907774780890845,0.3372500267112783,0.45887731284199057,0.2714481157398059
0.226,0.5565894612157275,0.7330447962874123,0.4495418831299754,0.3531412345172307,0.3316161411973989,0.4571128343939005,0.27208674385915904
0.227,0.3487828883440663,0.6148242692735106,0.2577917993678329,0.4100591686362649,0.32593983909080704,0.4553129858348005,0.2727184973983636
0.228,0.409419503516554,0.6841880809994855,0.3183216957314937,0.4049626306519738,0.32022184643998036,0.45347790643193175,0.27334336039545
0.229,0.5822821422799028,0.8769309367445318,0.5394921830953051,0.38999868723690284,0.314462894625981,0.45160773817859934,0.27396131706254584
0.23,0.4448375880124485,0.662986574752934,0.3802903856715632,0.3800657259704563,0.30866372026890376,0.4497026257831855,0.27457235178627526
0.231,0.3921043139881401,0.6653399069376494,0.3470244170663251,0.3606455458379452,0.30282506513365803,0.44776271665795225,0.2751764491281529
0.232,0.4359155766810676,0.7135954309232968,0.38891500962387054,0.39753534331388046,0.29694767603508804,0.445788160907635,0.27577359382497446
0.233,0.45208776287626723,0.6949152536069081,0.4262225578733302,0.36434694500759135,0.29103230474244896,0.44377911131782816,0.2763637707892018
0.234,0.43390255471579825,0.7024452863811944,0.4094209586833981,0.38690963275238477,0.2850797078832503,0.4417357233431629,0.27694696510934474
0.235,0.4614134565372515,0.755610917208109,0.44616416921919216,0.3832978829491479,0.2790906468464751,0.43965815509527817,0.2775231620503374
0.236,0.48043261239813323,0.795645260888155,0.511986803213065,0.4432620118337938,0.2730658876851924,0.4375465673305869,0.27809234705391056
0.237,0.5677735250926301,0.8599197287152603,0.6437512076250459,0.4047274724632123,0.2670062010185722,0.4354011234378369,0.27865450573895967
0.238,0.5874989544129893,0.8629885571146081,0.6170529864925551,0.3659992126970187,0.26091236193331707,0.43322198942546863,0.27920962390190796
0.239,0.5136944504288443,0.8625231547051531,0.5717749794397523,0.45048165826678943,0.2547851498845208,0.43100933390876917,0.27975768751706553
0.24,0.3459706288096647,0.6578148938109944,0.3879618843089825,0.4030167534400047,0.24862534859597057,0.42876332809682616,0.2802986827369836
0.241,0.40682640829733585,0.6854278707665766,0.43656040158830206,0.3947192524561059,0.2424337459599005,0.42648414577927957,0.2808325958928044
0.242,0.3844264702640652,0.7253538393658641,0.4995604255432916,0.405553754966164,0.23621113393621407,0.42417196331287427,0.28135941349460664
0.243,0.22270750628423958,0.5638218148807871,0.34506513668062466,0.4008202413103128,0.22995830845118628,0.4218269596078146,0.28187912223174605
0.244,0.3001696590388982,0.6149416508797172,0.4098106639290175,0.3816027600526899,0.22367606929565592,0.41944931611391995,0.28239170897319205
0.245,0.320933246350969,0.6337569677681929,0.41869295686081553,0.3700735636123517,0.21736522002272748,0.4170392168065856,0.2828971607678593
0.246,0.5005967319818141,0.8674973713051451,0.6373165783374394,0.39706227050594217,0.21102656784498783,0.4145968481725468,0.28339546484493505
0.247,0.46649677348399604,0.7850973376250546,0.5484827054548324,0.3967447562208358,0.20466092353125756,0.41212239919544835,0.28388660861420156
0.248,0.4289218120564098,0.7642925729349109,0.6104446993740058,0.4253215208949801,0.1982691013028873,0.4096160613412228,0.28437057966635465
0.249,0.462106174485488,0.8260759360975273,0.6336107296249365,0.40475509370702856,0.19185191872961002,0.4070780285432746,0.28484736577331665
0.25,0.3649712664741812,0.7564461366876019,0.5645427205397099,0.3901536137674816,0.1854101966249685,0.4045084971874737,0.285316954888546
0.251,0.2900149147608459,0.6650239405781965,0.43069866474179597,0.4028650461032286,0.17894475894132475,0.40190766609696094,0.2857793351473412
0.252,0.24508339630265435,0.645175961925508,0.4323505644291573,0.40162645080264314,0.1724564326644698,0.3992757365167625,0.28623449486714053
0.253,0.35269309245309804,0.7564261397270298,0.5587490478873096,0.37853119990039696,0.1659460477078459,0.3966129120982187,0.2866824225478175
0.254,0.3567105781978775,0.7673391023248854,0.5579020048132008,0.423784544400683,0.1594144368063915,0.393919398883226,0.28712310687197135
0.255,0.23548146651991136,0.678446577293601,0.45142637027669597,0.4484421896373456,0.15286243541002933,0.3911954052882941,0.28755653670521275
0.256,0.34525337345071083,0.7737063722614813,0.6018964364207132,0.40199301601794596,0.1462908815768032,0.3884411420884188,0.2879827010964455
0.257,0.33092994335435305,0.7514529760833678,0.5865316315916262,0.4188374222186038,0.13970061586568394,0.3856568224007734,0.28840158927814297
0.258,0.26504181643844915,0.656905409112519,0.5016384667646444,0.38790434043462935,0.13309248122905526,0.3828426616682183,0.28881319066662015
0.259,0.2015067933781679,0.6323147289772982,0.47041989103801296,0.43165452881502153,0.12646732290489107,0.37999887764262974,0.28921749486230125
0.26,0.24105631376855502,0.7187340865480372,0.5951185910762229,0.397630653522972,0.11982598830864423,0.377125690368052,0.28961449164998215
0.261,0.09934750490155446,0.5658904521429029,0.4146060430250986,0.4005500485776375,0.11316932692485288,0.37422332216367005,0.2900041709990889
0.262,0.24783982420609602,0.7297484797199222,0.5501186431788716,0.4044831085775867,0.1064981901984848,0.3712919976066077,0.2903865230639307
0.263,0.12903648182971172,0.5813112593083115,0.44693652836370956,0.3940993469213184,0.09981343142603095,0.36833194351455034,0.2907615381839491
0.264,0.2641338470219862,0.6922353645561957,0.6318085799333889,0.42969855741505303,0.09311590564635953,0.36534338892819396,0.2911292068839618
0.265,0.07205055457082266,0.5383816096279542,0.4537956608894898,0.38826149905357255,0.0864064695313513,0.3623265650935233,0.2914895198744022
0.266,0.0753428658977024,0.4951591423648356,0.40880026856349766,0.3833675273071059,0.0796859812763215,0.35928170544391835,0.2918424680515538
0.267,0.043904762872909,0.5250200716497674,0.41367121189756506,0.36584294506538506,0.07295530049025142,0.35620904558209165,0.29218804249778074
0.268,0.2193704127273966,0.7196874670658254,0.6179257235663523,0.4052865092787578,0.0662152880858351,0.3531088232618586,0.29252623448175274
0.269,0.25684366103567047,0.7600224274415357,0.6236912832405662,0.4185207849088592,0.05946680616936179,0.3499812783697406,0.2928570354586658
0.27,-0.07598709775320134,0.4965058435604297,0.3496786519687098,0.3642557563452431,0.05271071793044589,0.34682665290640247,0.29318043707045804
0.271,0.14843642529710083,0.6406253314407907,0.5017715459675754,0.40270326874305756,0.04594788753161567,0.3436451909679285,0.293496431146021
0.272,0.17043242891558902,0.6532224673040284,0.5478403121069765,0.381183987971472,0.03917917999778138,0.34043713872693415,0.293805009701406
0.273,0.062450223976910094,0.5653618835696763,0.49854731795748725,0.4107275354991619,0.032405461105589284,0.3372027444135175,0.2941061649400259
0.274,0.05727000723742399,0.5737920698414891,0.5133960303877717,0.39409548678762896,0.025627597272681994,0.33394225829605306,0.29439988925285204
0.275,0.008896284548847585,0.531612091369998,0.5112717430724668,0.3922280000425963,0.018846455446876947,0.3306559326618259,0.2946861752186066
0.276,0.02249703207837554,0.5259064515118631,0.470986617083646,0.38889316026090376,0.012062902995274348,0.3273440217975102,0.29496501560394994
0.277,-0.0895461901386699,0.4289553588944883,0.36485458724307407,0.40996871319814354,0.005277807593315524,0.32400678196949395,0.2952364033636635
0.278,-0.05102082648004259,0.4947780522561628,0.45501325219022287,0.3825608903093778,-0.0015079628862022286,0.3206444714040495,0.29550033164082784
0.279,0.03650065220393265,0.5746675039241702,0.5293038587294927,0.39110974753870625,-0.008293540484133305,0.3172573502673521,0.29575679376699565
0.28,-0.15164594820253943,0.4281748920218131,0.38712641254849645,0.448493825701326,-0.015078057266002542,0.3138456806453503,0.2960057832623604
0.281,0.04351404252851753,0.6079341238328818,0.5561586072236587,0.4004042329447269,-0.02186064543302344,0.3104097265234848,0.2962472938359203
0.282,-0.10736030712033148,0.47344221731601366,0.4490814204735657,0.39655093606508285,-0.028640437433094836,0.30694975376626393,0.2964813193856366
0.283,0.09853173169764497,0.6753178435797965,0.6540263842006105,0.3983861495023696,-0.03541656607177123,0.3034660300966899,0.29670785399858857
0.284,-0.10094923266443767,0.49843222610719984,0.4676944399512571,0.4140532587091727,-0.04218816462318192,0.2999588250755441,0.29692689195112226
0.285,-0.23296348210011725,0.3775747242048703,0.36849646111203244,0.4047835853039683,-0.04895436694089434,0.29642841008052967,0.29713842770899535
0.286,-0.1669191944599676,0.4502469667793789,0.4474489183445775,0.4099271294523655,-0.055714307568700404,0.2928750582852723,0.297342455927517
0.287,-0.1066488081757684,0.45022650161505345,0.5145201101756405,0.3922488425336091,-0.06246712185131779,0.2892990446381827,0.29753897145168307
0.288,-0.027957853609585658,0.619481609864357,0.6145481008398342,0.3577942410931642,-0.0692119460449847,0.28570064584118254,0.2977279693163057
0.289,-0.09983053165189258,0.5352525245903457,0.5163554556234898,0.44070763209293107,-0.07594791742794214,0.282080140328294,0.29790944474613973
0.29,-0.13300541957774334,0.4755859194098467,0.5003957987988416,0.4006155496036784,-0.08267417441078267,0.2784378082440941,0.2980833931560025
0.291,-0.03869110392246045,0.5526470712590971,0.6179350915560177,0.4215650638671327,-0.08938985664665447,0.2747739314220397,0.2982498101508902
0.292,-0.17423849400430708,0.48822891370819865,0.4978119482923512,0.45092867364597994,-0.09609410514130898,0.271088793362659,0.2984086915260888
0.293,-0.1873855590324196,0.45133190703683734,0.4562847100457352,0.3867070669535091,-0.1027860623629717,0.2673826792116147,0.29856003326728003
0.294,-0.09547934996708024,0.540345055715339,0.5771645386458171,0.40548129441308917,-0.10946487235202983,0.2636558757376414,0.29870383155064323
0.295,-0.18363089907860075,0.46375238677141867,0.4892879646197326,0.4048567826001043,-0.116129680830516,0.2599086713103549,0.29884008274295176
0.296,-0.19259642842426414,0.4153211792676194,0.511218781659698,0.40157898257524327,-0.12277963531137734,0.25614135587794007,0.2989687834016646
0.297,-0.15437460576559342,0.464918364539794,0.539254286950348,0.40802734342903696,-0.12941388520751765,0.25235422094471527,0.2990899302750138
0.298,-0.24165553135679504,0.37148785394601314,0.4848531086970563,0.3863286918971214,-0.13603158194059278,0.24854755954857552,0.299203520302086
0.299,-0.26531401577658664,0.3699942913343626,0.4578149960454086,0.4425901326975585,-0.14263187904955343,0.24472166623831956,0.29930955061290065
0.3,-0.07995660270143615,0.5941853359104412,0.6889244170521207,0.42964136108442874,-0.14921393229891275,0.2408768370508578,0.2994080185284815
0.301,-0.15019211581996306,0.5058592010073244,0.6253407888209043,0.42991881164734835,-0.15577689978673312,0.23701336948830512,0.29949892156092495
0.302,-0.24155556918891422,0.44236420375998875,0.535684104012156,0.39919393260569624,-0.16231994205231215,0.23313156249496234,0.29958225741346295
0.303,-0.2555699726119305,0.43507625148234313,0.5115148622119717,0.4070805403129238,-0.16884222218355602,0.22923171643418402,0.29965802398052055
0.304,-0.22876743821462273,0.4480459537677074,0.547396653029949,0.46389574779149984,-0.1753429059240299,0.22531413306513673,0.2997262193477696
0.305,-0.2675534666182063,0.39821635843764436,0.5422287999024886,0.39935496555154426,-0.1818211617796643,0.22137911551945075,0.29978684179217674
0.306,-0.23578789375519627,0.4996464317003567,0.5393139347467981,0.4168382743781386,-0.1882761611251123,0.21742696827776425,0.29983988978204723
0.307,-0.1767166104233295,0.49857069768872536,0.6330915788322048,0.3726344719808347,-0.19470707830973727,0.21345799714616265,0.2998853619770634
0.308,-0.18664819614038702,0.5061365431885113,0.6636976769337425,0.3982607653502097,-0.20111309076321984,0.20947250923251745,0.29992325722831864
0.309,-0.4856243301900917,0.24766443587300002,0.35100885721952313,0.3921423626745395,-0.2074933791007738,0.2054708129227225,0.29995357457834654
0.31,-0.1814287256347418,0.4193099320229137,0.6269479577620575,0.38031885857353137,-0.21384712722795035,0.20145321785683135,0.2999763132611448
0.311,-0.3275526563402538,0.30471649215378305,0.506191861305125,0.45198774681599857,-0.2201735224450254,0.1974200349050994,0.2999914727021949
0.312,-0.293979124425367,0.3842967453711798,0.5735687338658092,0.4179518311765381,-0.2264717555509504,0.19337157614392897,0.2999990525184762
0.313,-0.2932115896434028,0.3833003839442307,0.576523865735043,0.40120703124943025,-0.23274102094685536,0.18930815483172114,0.2999990525184762
0.314,-0.5188767773278279,0.11522607921873851,0.37076207128046473,0.39517262283205457,-0.2389805167390937,0.18523008538463812,0.2999914727021949
0.315,-0.47829517771474633,0.23665058686024176,0.442722298315754,0.420430025837437,-0.24518944484180935,0.1811376833522729,0.2999763132611448
0.316,-0.28165644397587103,0.5022643260260835,0.6660351527969571,0.39338917193637435,-0.2513670110790208,0.1770312653932345,0.29995357457834654
0.317,-0.425599917725909,0.23614380360432455,0.5077255372150427,0.4650209570612817,-0.2575124252862022,0.17291114925064496,0.29992325722831864
0.318,-0.5527757887499513,0.2750182785112674,0.3647036936788344,0.4129690473317312,-0.2636249014113518,0.16877765372755293,0.2998853619770634
0.319,-0.4878783154816147,0.1704899630078052,0.4600950364780975,0.4085745338203818,-0.26970365761553616,0.16463109866226655,0.29983988978204723
0.32,-0.4959895829827572,0.03411071278265221,0.48310913950153106,0.41395499124444957,-0.2757479163728927,0.16047180490360485,0.29978684179217674
0.321,-0.3716509766637153,0.07424241618591385,0.6383294996890692,0.43585157202988883,-0.2817569045700832,0.15630009428607058,0.2997262193477696
0.322,-0.5309096293291887,0.13699274248780455,0.43100293282955043,0.4305414741665774,-0.2877298536051815,0.15211628960494897,0.29965802398052055
0.323,-0.5532723437404377,0.4479416855528705,0.45783494987674467,0.39684514761581774,-0.2936659994859834,0.14792071459132994,0.29958225741346295
0.324,-0.5173280147502981,0.18734206053219737,0.48919983682289264,0.4057695071717622,-0.2995645829277295,0.14371369388705818,0.29949892156092495
0.325,-0.4100557705489569,0.4029049255478139,0.569553199780044,0.4025223399075376,-0.3054248494502228,0.13949555301961455,0.2994080185284815
0.326,-0.4994301753142992,0.3260059176412359,0.5113898923708816,0.4075883624912218,-0.31124604947433443,0.13526661837692688,0.29930955061290065
0.327,-0.5976947097303106,-0.05175947539076276,0.3871127034401296,0.39462472346268884,-0.3170274384178811,0.1310272171821146,0.299203520302086
0.328,-0.6949396945072,0.20061962511905215,0.3396665115298126,0.44327430377057103,-0.3227682767908627,0.12677767746817017,0.2990899302750138
0.329,-0.522585867292102,0.42925054152804254,0.5348920241964599,0.38744777974012556,-0.3284678302900513,0.12251832805257629,0.2989687834016646
0.33,-0.6442586694570973,0.038090988410367954,0.3763300006351386,0.4251101946208674,-0.33412536989291275,0.1182494985118623,0.29884008274295176
0.331,-0.7201112653288719,0.08205679045812551,0.3258064004210253,0.41252921212369004,-0.33974017195085743,0.11397151915610367,0.29870383155064323
0.332,-0.7305077430385783,0.07626633880645567,0.37126399852858843,0.4088824947145011,-0.3453115182817987,0.10968472100336296,0.29856003326728003
0.333,-0.6579476718880748,0.1765469302756626,0.396474685008975,0.4173000285655121,-0.3508386962620167,0.10538943575407589,0.2984086915260888
0.334,-0.572985466203723,0.2860992394104354,0.49705747724291827,0.3497665767910981,-0.3563209989173084,0.10108599576538682,0.2982498101508902
0.335,-0.7462117895139334,0.2708332722881194,0.324964663576502,0.40349237694892676,-0.3617577250134148,0.09677473402543012,0.2980833931560025
0.336,-0.48704879836653553,0.18117686200513788,0.6236660647313956,0.4319373422923833,-0.3671481791457169,0.09245598412756603,0.29790944474613973
0.337,-0.5545959192968388,0.29791659621279537,0.5478958314447353,0.4656797891655687,-0.3724916718281819,0.08813008024456749,0.29772796931630574
0.338,-0.6679721748349194,-0.09395026609173993,0.4339424960217943,0.43700678692439265,-0.377787519581556,0.0837973571027621,0.29753897145168307
0.339,-0.5115262467734822,0.15933072887582547,0.6033241673813363,0.40998879816218897,-0.3830350450207869,0.07945814995613326,0.29734245592751707
0.34,-0.6650224408265287,0.21716421162388108,0.4675480528787298,0.42616023272420517,-0.3882335769416666,0.07511279456037856,0.29713842770899535
0.341,-0.6971034827933885,-0.004994290239266497,0.47145536940055427,0.41250363366996395,-0.39338245040668546,0.07076162714692916,0.29692689195112226
0.342,-0.6513319049874039,0.0011473011609867707,0.5010126587795879,0.40923302417309004,-0.3984810068300822,0.06640498439693458,0.29670785399858857
0.343,-0.6185821283923999,0.312658000367627,0.5268496441816645,0.4163697080368919,-0.4035285940620838,0.06204320341521053,0.2964813193856366
0.344,-0.6357989498318453,0.13682690510516532,0.5621571997871323,0.38702676643019424,-0.40852456647232066,0.05767662170415426,0.2962472938359203
0.345,-0.7334386219531169,-0.28618664188384185,0.41287457741940525,0.41686496590326816,-0.41346828503240896,0.053305577137630025,0.29600578326236043
0.346,-0.6696655213345653,0.20479772369712929,0.4892375066598241,0.4277014278534436,-0.4183591173976862,0.04893040793482598,0.29575679376699565
0.347,-0.850998016186594,0.00018748165358063382,0.3416014801182834,0.3910480737279941,-0.4231964379880962,0.04455145263408223,0.29550033164082784
0.348,-0.6348387144719279,0.21323593832534482,0.5250651980485019,0.45467648119993676,-0.42797962806820344,0.04016905006669738,0.2952364033636635
0.349,-0.7658088921961246,-0.16308095210225731,0.45828496818162967,0.4133220606646332,-0.43270807582633736,0.035783539330709026,0.29496501560394994
0.35,-0.8055999009096417,0.21335100508779034,0.4269204428372375,0.4102824579741304,-0.4373811764528468,0.03139525976465679,0.2946861752186066
0.351,-0.7362011801783884,0.04860553952196429,0.4917278731468872,0.41728748159889567,-0.44199833221746015,0.027004550921324623,0.29439988925285204
0.352,-0.7856494722214274,0.05461381403743298,0.4356505296510994,0.43846277968676894,-0.44655895254574185,0.02261175254146647,0.2941061649400259
0.353,-0.5530742863389748,0.03219219741504023,0.6779637945022317,0.3963163840856723,-0.45106245409463025,0.01821720452751944,0.293805009701406
0.354,-0.7861829197279391,-0.015559395593916475,0.46253627944979914,0.4219144164383528,-0.45550826082705376,0.013821246917302412,0.293496431146021
0.355,-0.9261599942161629,0.10904658942321255,0.3603850929621762,0.40019441183788435,-0.45989580408560976,0.009424219857704228,0.29318043707045804
0.356,-0.7253125655359097,0.34353708455361626,0.5436186037864553,0.4294640556864991,-0.4642245226653016,0.005026463578365386,0.2928570354586658
0.357,-0.8797225772998938,-0.05739879199461615,0.3487928047350327,0.420683278479254,-0.46849386288532147,0.0006283183653513626,0.29252623448175274
0.358,-0.6889123236362789,0.10379332278120201,0.5640334027346975,0.43717313362318366,-0.4727032786598712,-0.0037698754651784277,0.29218804249778074
0.359,-0.7572373017693044,0.17665743645077167,0.5309258248247442,0.42668490091343725,-0.47685223156801015,-0.00816777759330202,0.2918424680515538
0.36,-0.7512598055295256,-0.0010171376824000093,0.5239796946373452,0.4244856722461619,-0.4809401909225258,-0.012565047721668563,0.2914895198744022
0.361,-0.8567652706159773,0.2682720733742667,0.45188665746514733,0.4138637634547196,-0.48496663383781213,-0.01696134560183024,0.2911292068839619
0.362,-0.707507973369311,0.05235795220469032,0.5905340232869547,0.4052204935618729,-0.48893104529675147,-0.021356331060568425,0.2907615381839491
0.363,-0.8638322740384682,0.08692929220831082,0.47291624277149863,0.42760466078028175,-0.49283291821659,-0.02574966402621597,0.2903865230639307
0.364,-0.7296153178259531,0.11518526492998304,0.5298319170674375,0.4017207814058181,-0.49667175351379667,-0.030141004554971686,0.2900041709990889
0.365,-0.6257311382672619,0.05663752963000436,0.6820583687610199,0.3853507389012289,-0.5004470601679026,-0.034530012857202905,0.28961449164998215
0.366,-0.9134210507539146,-0.4487205880520514,0.38498927021222207,0.43904386734726186,-0.5041583552843051,-0.03891634932373813,0.28921749486230125
0.367,-0.8709158130515905,-0.022772015756885585,0.44494928608965534,0.37859471206976747,-0.5078051641560348,-0.043299674552145666,0.28881319066662015
0.368,-0.648182893307914,0.07742735071988663,0.6600920924341367,0.4495175736444667,-0.5113870203244751,-0.047679649372994126,0.28840158927814297
0.369,-0.8866522551527218,0.1609214213069894,0.4291346742652677,0.4049238052451423,-0.5149034656390246,-0.05205593487609816,0.2879827010964455
0.37,-0.8455093780782169,-0.41492347069299945,0.4666735709913108,0.41595991143276445,-0.518354050315701,-0.05642819243674081,0.28755653670521275
0.371,-0.9081788716648826,-0.03705715072666271,0.4474372108982574,0.4070280168702543,-0.521738332994671,-0.06079608374187607,0.28712310687197135
0.372,-0.7155616956202844,-0.11966374413991734,0.6450112221858947,0.43025770951727943,-0.5250558807967041,-0.06515927081630718,0.28668242254781756
0.373,-0.9955667661725623,0.027467707740936747,0.36399943314744265,0.37672448195074704,-0.5283062693785417,-0.06951741604883692,0.28623449486714053
0.374,-0.888168130058852,-0.2057043386277607,0.532029411131579,0.39895868239752386,-0.5314890829871745,-0.07387018221839169,0.2857793351473412
0.375,-0.9716367305981888,0.07333792837095632,0.38513858233964543,0.4224989019322484,-0.5346039145130207,-0.07821723252011538,0.2853169548885461
0.376,-0.8603602146990814,-0.17174913982845041,0.5439955769746457,0.44417006895077926,-0.5376503655419993,-0.08255823059142905,0.28484736577331665
0.377,-1.0009103378920847,-0.3013314610805143,0.35672213988186224,0.4406379367114528,-0.5406280464064902,-0.08689284053805843,0.28437057966635465
0.378,-0.9850125629005083,-0.09408903773151209,0.37498523168523024,0.4255333382155047,-0.5435365762351766,-0.09122072696002508,0.28388660861420156
0.379,-0.8228513794585,0.05712205808116021,0.5427240272345293,0.40533992204208646,-0.5463755830017606,-0.0955415549775974,0.28339546484493505
0.38,-0.9796255136152281,-0.1425217757725659,0.41532015032154074,0.43443529619487037,-0.5491447035725505,-0.09985499025720342,0.28289716076785937
0.381,-0.9641368925472178,-0.1401172271500319,0.45434878347638613,0.3921711618633691,-0.5518435837529072,-0.1041606990373011,0.2823917089731921
0.382,-0.9422558035665624,-0.13013496752784517,0.46801010873491866,0.40226946153465803,-0.5544718783325493,-0.1084583481542027,0.28187912223174605
0.383,-0.880795648863762,-0.22327738670744285,0.48553942159094937,0.42617093460810446,-0.5570292511297089,-0.11274760506785464,0.28135941349460664
0.384,-1.0134633845081509,-0.22908120501202717,0.3898873154556285,0.4458137571989158,-0.5595153750341311,-0.11702813788756916,0.28083259589280446
0.385,-0.9122479082061693,-0.340358806857436,0.49413662827717647,0.42930193678125894,-0.5619299320489154,-0.12129961539770359,0.2802986827369836
0.386,-0.9663618181521554,-0.4056023349961973,0.4483008219427802,0.4131045423385324,-0.5642726133311897,-0.12556170708329062,0.27975768751706553
0.387,-0.8942645582791358,-0.60843287738838,0.49412563301866164,0.4494882647954903,-0.5665431192316144,-0.12981408315561116,0.27920962390190796
0.388,-0.8671413170616771,-0.547651922924889,0.5876641741733072,0.3908136924960055,-0.5687411593327093,-0.134056414577713,0.27865450573895967
0.389,-0.8467641081670357,-0.2623647927503698,0.5548299640731951,0.4560211360361721,-0.5708664524860013,-0.1382883730898715,0.27809234705391056
0.39,-0.9545488711925731,-0.6203374545548755,0.47541435656695724,0.40015860442355605,-0.5729187268479857,-0.1425096312349881,0.2775231620503374
0.391,-1.0787546601534834,-0.22501689269677633,0.35080328643780495,0.42534452206348045,-0.5748977199148971,-0.14671986238392873,0.2769469651093448
0.392,-0.8596999588876792,-0.2504899254288994,0.5527899745673126,0.42946470037174767,-0.5768031785562859,-0.15091874076079798,0.2763637707892018
0.393,-0.9891181702607584,-0.40277134980104745,0.42118399994349964,0.4511236906763486,-0.5786348590473961,-0.15510594146814546,0.2757735938249744
0.394,-0.9843362309723419,-0.23402286109499582,0.4605622473160492,0.4046950344654713,-0.5803925271003395,-0.15928114051210632,0.2751764491281529
0.395,-1.078756414164072,-0.5875660464213384,0.3613601967734503,0.44733874771919885,-0.5820759578940634,-0.16344401482747126,0.27457235178627526
0.396,-0.9938251458145332,-0.02477021878692784,0.46536811623454205,0.43183135744597484,-0.5836849361031076,-0.16759424230268344,0.27396131706254584
0.397,-0.8542623969262709,-0.4029457137159032,0.5772825196293612,0.40547680861820523,-0.5852192559251452,-0.17173150180476307,0.27334336039545
0.398,-0.8653733988295642,-0.2346330336570127,0.5825198287843568,0.447227166172798,-0.5866787211073078,-0.17585547320415643,0.2727184973983636
0.399,-0.9777680241953084,-0.23349395798009998,0.4373781342062051,0.4387039542660264,-0.5880631449712872,-0.17996583739950534,0.27208674385915904
0.4,-0.9472419973071119,-0.06592541236752471,0.4997932055557759,0.4233848244642763,-0.5893723504372133,-0.18406227634233896,0.2714481157398058
0.401,-0.9159319800251103,-0.35240302928004735,0.512736911723004,0.4409898864337713,-0.5906061700463041,-0.18814447306168416,0.27080262917596776
0.402,-0.9608992152351165,-0.25291121676892875,0.49637412298564226,0.43515575007168417,-0.591764445982286,-0.19221211168859048,0.2701503004765948
0.403,-1.0084239111530777,-0.3799560496039332,0.46463441685191703,0.41961751264067637,-0.5928470300915784,-0.19626487748057198,0.2694911461235113
0.404,-0.9750204239183595,-0.23806576298545812,0.4567062590221272,0.4216768316758813,-0.5938537839022445,-0.20030245684596154,0.26882518277099965
0.405,-0.9685757125452266,-0.5701638577037966,0.5007833786980804,0.3931304873930983,-0.594784578641704,-0.20432453736817446,0.26815242724537913
0.406,-0.9103728927601482,-0.08340335468067156,0.5358556671939066,0.42418902339738124,-0.5956392952532024,-0.20833080782988397,0.267472896544581
0.407,-1.0277677474766433,-0.19715281274159518,0.426627191120948,0.454545547691332,-0.5964178244110411,-0.2123209582371006,0.2667866078377191
0.408,-0.8080669973151997,-0.2607656084975971,0.6344644605681509,0.408813170020872,-0.5971200665345601,-0.2162946798431602,0.266093578464656
0.409,-1.0362743354779762,-0.3487434066950553,0.3730734536007605,0.4141400061946128,-0.5977459318008752,-0.22025166517261324,0.2653938259355645
0.41,-1.0788193398964923,-0.49943812506392643,0.3689489470524824,0.43028709070764526,-0.5982953401563683,-0.22419160804501606,0.26468736793048603
0.411,-0.9594316285204756,-0.5472269043851016,0.44180527985735524,0.437775160474515,-0.5987682213269253,-0.2281142035986225,0.2639742222988832
0.412,-0.9093022511091837,-0.4842209058965048,0.4820215986010613,0.39448867924023356,-0.5991645148269259,-0.23201914831397405,0.26325440705918907
0.413,-0.9312835102813203,-0.4294265524162064,0.5209016037518452,0.399909833296298,-0.5994841699669798,-0.23590614003738394,0.26252794039835214
0.414,-0.9841011832563574,-0.3719651520622069,0.44188425462673053,0.4462281216104612,-0.5997271458604106,-0.2397748780043177,0.26179484067137637
0.415,-0.9368724809359319,-0.3225385912366606,0.44553937471915156,0.4345991384954514,-0.5998934114284854,-0.24362506286266605,0.2610551264008577
0.416,-0.9551389867743663,-0.3298639486803078,0.4653712452514273,0.44828923827333894,-0.5999829454043898,-0.24745639669590658,0.2603088162765162
0.417,-0.9632046914642166,-0.363709425894885,0.5040288603962588,0.46904860137274434,-0.5999957363359484,-0.2512685830461565,0.2595559291547234
0.418,-1.069469672799465,-0.30973017579075973,0.4118381001241066,0.43738014625704563,-0.5999317825870898,-0.25506132693711225,0.25879648405802635
0.419,-1.1058875292895076,-0.4839600256826274,0.35186604352604567,0.4477225774416606,-0.5997910923380555,-0.2588343348968725,0.2580305001746666
