time,roll_setpoint,roll_gyro,pitch_setpoint,pitch_gyro,yaw_setpoint,yaw_gyro
0.0,3.221088436188455,0.0,3.543197279807301,0.0,2.2547619053319186,0.0
0.001,3.299582398918418,0.0,3.62954063881026,0.0,2.3097076792428926,0.0
0.002,3.3777459409858164,0.0,3.7155205350843983,0.0,2.364422158690071,0.0
0.003,3.455574210797501,0.0,3.8011316318772517,0.0,2.4189019475582505,0.0
0.004,3.533062390490227,0.0,3.88636862953925,0.0,2.473143673343159,0.0
0.005,3.6102056963405573,0.0,3.9712262659746136,0.0,2.52714398743839,0.0
0.006,3.686999379171322,0.0,4.055699317088455,0.0,2.580899565419925,0.0
0.007,3.763438724754603,0.0,4.139782597230063,0.0,2.634407107328222,0.0
0.008,3.839519054211185,0.0,4.223470959632304,0.0,2.6876633379478294,0.0
0.009,3.9152357244064526,0.0,4.3067592968470985,0.0,2.740665007084517,0.0
0.01,3.9905841283426917,0.0,4.389642541176961,0.0,2.793408889839884,0.0
0.011,4.0655596955477415,0.0,4.472115665102516,0.0,2.845891786883419,0.0
0.012,4.140157892459986,0.0,4.5541736817059855,0.0,2.8981105247219903,0.0
0.013,4.214374222809629,0.0,4.635811645090592,0.0,2.95006195596674,0.0
0.014,4.28820422799622,0.0,4.7170246507958415,0.0,3.0017429595973537,0.0
0.015,4.3616434874624,0.0,4.797807836208641,0.0,3.05315044122368,0.0
0.016,4.4346876190638245,0.0,4.878156380970207,0.0,3.104281333344677,0.0
0.017,4.507332279435237,0.0,4.958065507378761,0.0,3.1551325956046656,0.0
0.018,4.5795731643526425,0.0,5.0375304807879075,0.0,3.2057012150468496,0.0
0.019,4.651406009091567,0.0,5.116546610000724,0.0,3.2559842063640967,0.0
0.02,4.722826588781357,0.0,5.195109247659493,0.0,3.30597861214695,0.0
0.021,4.793830718755473,0.0,5.27321379063102,0.0,3.3556815031288307,0.0
0.022,4.864414254897774,0.0,5.350855680387552,0.0,3.4050899784284416,0.0
0.023,4.934573093984735,0.0,5.428030403383209,0.0,3.454201165789314,0.0
0.024,5.004303174023567,0.0,5.504733491425925,0.0,3.5030122218164967,0.0
0.025,5.073600474586228,0.0,5.580960522044851,0.0,3.5515203322103592,0.0
0.026,5.142461017139256,0.0,5.656707118853182,0.0,3.599722711997479,0.0
0.027,5.210880865369442,0.0,5.731968951906387,0.0,3.6476166057586092,0.0
0.028,5.278856125505255,0.0,5.8067417380557815,0.0,3.6951992878536783,0.0
0.029,5.346382946634043,0.0,5.881021241297448,0.0,3.7424680626438303,0.0
0.03,5.413457521014937,0.0,5.954803273116432,0.0,3.7894202647104556,0.0
0.031,5.480076084387463,0.0,6.028083692826209,0.0,3.8360532590712237,0.0
0.032,5.546234916275796,0.0,6.100858407903376,0.0,3.8823644413930567,0.0
0.033,5.611930340288663,0.0,6.17312337431753,0.0,3.928351238202064,0.0
0.034,5.6771587244148485,0.0,6.2448745968563335,0.0,3.974011107090394,0.0
0.035,5.741916481314269,0.1803809524265535,6.316108129445697,0.1984190476692089,4.019341536919988,0.12626666669858747
0.036,5.806200068604601,0.3525309000961262,6.386820075465061,0.38778399010573883,4.064340048023221,0.24677163006728836
0.037,5.8700059891434355,0.5170075097846031,6.457006588057779,0.5687082607630635,4.109004192400405,0.36190525684922215
0.038,5.933330791305923,0.674329139904341,6.526663870436516,0.7417620538947751,4.153331553914145,0.47203039793303864
0.039,5.996171069257885,0.8249775939784898,6.5957881761836745,0.9074753533763389,4.19731974848052,0.5774843157849429
0.04,6.058523463224383,0.9694006813950667,6.664375809546822,1.0663407495345736,4.240966424257068,0.6785804769765467
0.041,6.120384659753688,1.1080145989310062,6.732423125729057,1.2188160588241068,4.284269261827581,0.7756102192517043
0.042,6.181751391976656,1.2412061455920935,6.7999265311743216,1.3653267601513028,4.3272259743836585,0.8688443019144654
0.043,6.242620439861469,1.3693347824364734,6.866882483847616,1.5062682606801208,4.3698343079030275,0.9585343477055313
0.044,6.302988630463721,1.4927345482326817,6.933287493510094,1.6420080030559498,4.4120920413246045,1.044914183762877
0.045,6.3628528381718334,1.6117158410435848,6.999138121989017,1.7728874251479432,4.453996986720283,1.1282010887305092
0.046,6.422209984947755,1.7265670751212074,7.064430983442531,1.899223782633328,4.495546989463429,1.208596952584845
0.047,6.481057040562951,1.8375562218404822,7.129162744619247,2.02131184402453,4.5367399283940655,1.2862893552883372
0.048,6.5393910228296495,1.9449322427889877,7.193330125112615,2.1394254670678863,4.577573715980754,1.361452569952291
0.049,6.597208997827305,2.048926422561547,7.2569298976100365,2.2538190648177014,4.618046298479113,1.4342484957930826
0.05,6.654508080124296,2.149753608280133,7.319958888136727,2.364728969108146,4.658155656087007,1.5048275257960928
0.051,6.711285432994797,2.2476133623680976,7.382413976294277,2.4723746986049076,4.697899803096357,1.5733293536576682
0.052,6.76753826863083,2.342691034650704,7.444292095493913,2.5769601381157745,4.73727678804158,1.6398837242554927
0.053,6.82326384834947,2.435158759428903,7.505590233184417,2.678674635371793,4.776284693844628,1.7046111316002317
0.054,6.878459482795181,2.5251763827780076,7.566305431074699,2.777694021055808,4.814921637956626,1.767623467944605
0.055,6.933122532137267,2.612892324955303,7.626434785350994,2.874181557450833,4.8531857724960865,1.8290246274687119
0.056,6.987250406262419,2.6984443824587383,7.685975446888661,2.968288820704612,4.891075284383692,1.8889110677211165
0.057,7.0408405649623464,2.781960473960902,7.744924621458582,3.0601565213569923,4.928588395473642,1.947372331772631
0.058,7.093890518116458,2.863559334046784,7.803279569928105,3.1499152674514628,4.96572336268152,2.0044915338327485
0.059,7.1463978258696095,2.943351158408829,7.861037608456571,3.2376862742497123,5.002478478108726,2.06034581088618
0.06,7.198360098804855,3.0214382038970395,7.918196108685342,3.323582024286744,5.038852069163398,2.1150067427279273
0.061,7.249774998111233,3.097915346584045,7.974752497922357,3.4077068812424502,5.074842498677863,2.1685407426088315
0.062,7.30064023574654,3.1728706007838507,8.030704259321194,3.4901576608622364,5.110448165022578,2.2210094205486954
0.063,7.350953574595092,3.2463856017572756,8.086048932054602,3.571024161933004,5.145667502216564,2.2724699212300927
0.064,7.400712828620459,3.3185360546457727,8.140784111482505,3.650389660110351,5.180498980034321,2.3229752382520408
0.065,7.449915863013141,3.3893921519974053,8.194907449314455,3.7283313671971468,5.214941104109198,2.3725745063981836
0.066,7.498560594333212,3.459018962083285,8.248416653766535,3.8049208582916143,5.248992416033248,2.421313273458299
0.067,7.546644990647877,3.5274767900488997,8.301309489712665,3.88022446905379,5.282651493453514,2.469233753034229
0.068,7.594167071663945,3.5948215138016417,8.35358377883034,3.9543036651818064,5.315916950164761,2.516375059661149
0.069,7.641124908855225,3.661104896402758,8.405237399740749,4.027215386043035,5.348787436198657,2.5627734274819307
0.07,7.687516625584808,3.726374876608164,8.45626828814329,4.099012364268981,5.381261637909366,2.608462413625715
0.071,7.733340397222232,3.7906758390874504,8.506674436944456,4.169743422996196,5.413338278055562,2.653473087361215
0.072,7.77859445125553,3.854048865743361,8.556453896381084,4.239453752317698,5.445016115878871,2.6978342060203526
0.073,7.8232770673981396,3.9165319694544576,8.605604774137953,4.3081851663999045,5.476293947178697,2.74157237861812
0.074,7.867386577690672,3.978160311471087,8.65412523545974,4.375976342618197,5.50717060438347,2.7847122180297608
0.075,7.910921366597526,4.0389664036086765,8.702013503257279,4.442863043969545,5.5376449566182675,2.827276482526073
0.076,7.953879871098349,4.098980296302276,8.749267858208185,4.508878325932504,5.567715909768844,2.8692862074115926
0.077,7.996260580774324,4.15822975351181,8.795886638851757,4.574052728862991,5.597382406542026,2.910760827458266
0.078,8.038062037889294,4.216740415398226,8.841868241678224,4.638414456938048,5.626643426522505,2.951718290778757
0.079,8.07928283746568,4.274535949626318,8.887211121212248,4.70198954458895,5.655497986225976,2.992175164738422
0.08,8.119921627355257,4.331638192090098,8.931913790090784,4.764802011299109,5.68394513914868,3.032146734463068
0.081,8.159977108304703,4.388067277800865,8.975974819135175,4.826874005580953,5.711983975813292,3.0716470944606056
0.082,8.199448034015951,4.44384176262633,9.019392837417547,4.888225938888964,5.739613623811166,3.1106892338384307
0.083,8.238333211201375,4.4989787365209475,9.062166532321514,4.948876610173043,5.766833247840962,3.1492851155646626
0.084,8.27663149963373,4.55349392884281,9.104294649597104,5.008843321727092,5.79364204974361,3.1874457501899665
0.085,8.314341812190914,4.607401806310774,9.145775993410007,5.0681419869418525,5.820039268533639,3.2251812644175413
0.086,8.351463114895509,4.660715664116728,9.186609426385061,5.126787230528402,5.846024180426856,3.2625009648817094
0.087,8.387994426949106,4.713447710671884,9.226793869644018,5.184792481739073,5.871596098864374,3.2994133974703184
0.088,8.423934820761426,4.765609146432423,9.26632830283757,5.242170061075666,5.896754374532998,3.3359264025026953
0.089,8.459283421974213,4.817210237218684,9.305211764171634,5.298931260940552,5.921498395381949,3.3720471660530777
0.09,8.494039409479925,4.868260382413063,9.343443350427918,5.355086420654369,5.9458275866359465,3.4077822676891434
0.091,8.528202015435198,4.918768178394845,9.38102221697872,5.410644996234328,5.969741410804638,3.44313772487639
0.092,8.5617705252691,4.968741477545097,9.417947577796012,5.465615625299606,5.9932393676883695,3.478119034281567
0.093,8.594744277686168,5.018187443131462,9.454218705454785,5.520006187444608,6.016320994380317,3.5127312101920225
0.094,8.627122664664231,5.067112600360958,9.489834931130655,5.573823860397053,6.038985865264961,3.5469788202526695
0.095,8.65890513144703,5.115522883868763,9.524795644591734,5.627075172255639,6.061233592012921,3.580866018708133
0.096,8.690091176531613,5.163423681892179,9.559100294184775,5.679766050081396,6.083063823572129,3.6143965773245244
0.097,8.720680351650541,5.210819877361533,9.592748386815597,5.731901865097685,6.104476246155379,3.647573914153072
0.098,8.750672261748878,5.257715886123551,9.625739487923767,5.783487474735905,6.125470583224215,3.6804011202864846
0.099,8.780066564955995,5.304115692497648,9.658073221451595,5.834527261747412,6.146046595469196,3.712880984748353
0.1,8.80886297255217,5.350022882351548,9.689749269807388,5.885025170586703,6.166204080786518,3.7450160176460834
0.101,8.837061248930006,5.3954406738696,9.720767373823007,5.934984741256559,6.185942874251004,3.7768084717087196
0.102,8.864661211550661,5.440371946175009,9.751127332705728,5.9844091407925095,6.205262848085463,3.808260362322506
0.103,8.891662730894913,5.48481926595594,9.780829003984405,6.033301192551533,6.224163911626438,3.839373486169157
0.104,8.918065730409031,5.528784912234917,9.809872303449936,6.081663403458408,6.242646011286322,3.870149438564441
0.105,8.943870186445512,5.5722708994112224,9.838257205090065,6.129497989352344,6.260709130511858,3.9005896295878544
0.106,8.969076128198637,5.615278998696882,9.865983741018502,6.17680689856657,6.278353289739045,3.930695299087816
0.107,8.9936836376349,5.657810758058409,9.893052001398392,6.22359183386425,6.29557854634443,3.9604675306408854
0.108,9.017692849418289,5.699867520768617,9.919462134360119,6.269854272845478,6.312384994592802,3.9899072645380307
0.109,9.04110395083043,5.741450442665491,9.945214345913472,6.3155954869320405,6.3287727655813,4.019015309865843
0.11,9.063917181685632,5.782560508208368,9.970308899854196,6.360816559029205,6.344742027179942,4.047792355745857
0.111,9.086132834240804,5.8231985454152895,9.994746117664885,6.405518399956819,6.360292983968562,4.076238981790702
0.112,9.107751253100284,5.863365239759581,10.018526378410314,6.44970176373554,6.375425877170199,4.104355667831706
0.113,9.128772835115576,5.903061147098211,10.041650118627135,6.493367261808032,6.390140984580903,4.1321428029687475
0.114,9.149198029280011,5.942286705699415,10.064117832208014,6.536515376269356,6.404438620496007,4.1596006939895895
0.115,9.169027336618353,5.98104224743235,10.085930070280188,6.579146472175585,6.418319135632847,4.186729573202644
0.116,9.18826131007134,6.0193280081771485,10.107087441078475,6.6212608089948635,6.431782917049937,4.213529605724004
0.117,9.206900554375213,6.057144137509641,10.127590609812735,6.662858551260606,6.444830388062649,4.240000896256749
0.118,9.224945725936184,6.094490707711243,10.147440298529803,6.703939778482368,6.4574620081553284,4.266143495397871
0.119,9.242397532699936,6.131367722150945,10.16663728596993,6.744504494366041,6.469678272889955,4.291957405505662
0.12,9.259256734016097,6.167775123083071,10.185182407417708,6.784552635391378,6.481479713811267,4.317442586158149
0.121,9.275524140497758,6.203712798901404,10.203076554547534,6.824084078791545,6.492866898348431,4.342598959230982
0.122,9.291200613876011,6.239180590887456,10.220320675263613,6.863098649976202,6.5038404297132075,4.367426413621218
0.123,9.306287066849553,6.274178299487973,10.236915773534509,6.901596129436771,6.514400946794686,4.391924809641581
0.124,9.32078446292935,6.308705690154371,10.252862909222285,6.939576259169809,6.524549124050544,4.416093983108059
0.125,9.334693816278396,6.342762498774441,10.268163197906237,6.977038748651886,6.534285671394876,4.439933749142108
0.126,9.34801619154658,6.3763484367246015,10.28281781070124,7.013983280397062,6.543611334082606,4.46344390570722
0.127,9.360752703700658,6.409463195568949,10.296827974070725,7.050409515125844,6.5525268925904605,4.486624236898264
0.128,9.372904517849397,6.442106451429548,10.310194969634338,7.086317096572503,6.561033162494578,4.509474516000683
0.129,9.384472849063851,6.474277869050677,10.322920133970237,7.121705655955744,6.569130994344695,4.531994508335473
0.13,9.395458962192835,6.505977105578163,10.33500485841212,7.156574816135979,6.576821273534985,4.554183973904713
0.131,9.405864171673603,6.537203814073462,10.346450588840964,7.190924195480808,6.584104920171521,4.5760426698514225
0.132,9.415689841337734,6.56795764678075,10.357258825471508,7.224753411458825,6.590982888936414,4.597570352746525
0.133,9.42493738421227,6.598238258164034,10.367431122633498,7.258062083980438,6.5974561689485895,4.618766780714824
0.134,9.433608262316135,6.628045307730088,10.37696908854775,7.290849838503097,6.6035257836212935,4.639631715411062
0.135,9.441703986451794,6.657378462651903,10.385874385096974,7.323116308917093,6.609192790516255,4.660164923856333
0.136,9.449226115992277,6.68623740020635,10.394148727591505,7.354861140226985,6.614458281194593,4.680366180144445
0.137,9.4561762586635,6.714621810038743,10.401793884529852,7.386083991042617,6.61932338106445,4.700235267027121
0.138,9.462556070321966,6.742531396266146,10.408811677354164,7.41678453589276,6.623789249225376,4.719771977386303
0.139,9.468367254727813,6.769965879430421,10.415203980200594,7.446962467373464,6.627857078309469,4.738976115601296
0.14,9.473611563313298,6.7969249983112405,10.42097271964463,7.476617498142365,6.631528094319308,4.757847498817869
0.141,9.478290794946707,6.823408511608577,10.426119874441378,7.505749362769436,6.634803556462694,4.776385958126005
0.142,9.482406795691702,6.849416199503532,10.430647475260873,7.534357819453885,6.637684756984191,4.794591339652472
0.143,9.485961458562159,6.8749478651057085,10.434557604418375,7.56244265161628,6.640173020993511,4.812463505573996
0.144,9.488956723272521,6.900003335794813,10.437852395599775,7.590003669374295,6.642269706290764,4.83000233505637
0.145,9.49139457598367,6.924582464463572,10.440534033582036,7.617040710909929,6.6439762031885685,4.847207725124501
0.146,9.493277049044373,6.948685130668607,10.44260475394881,7.643553643735468,6.645293934331061,4.864079591468025
0.147,9.494606220728304,6.9723112416954205,10.444066842801135,7.669542365864963,6.646224354509813,4.8806178691867945
0.148,9.495384214966695,6.995460733543213,10.444922636463366,7.695006806897536,6.646768950476686,4.89682251348025
0.149,9.495613201076615,7.018133571834869,10.445174521184278,7.719946929018357,6.6469292407536305,4.9126935002844085
0.15,9.495295393484954,7.040329752657056,10.44482493283345,7.744362727922763,6.646706775439467,4.92823082685994
0.151,9.494433051448059,7.062049303335057,10.443876356592865,7.768254233668564,6.646103136013641,4.943434512334541
0.152,9.493028478767169,7.083292283146615,10.442331326643886,7.791621511461278,6.645119935137018,4.9583045982026315
0.153,9.491084023499546,7.104058783978778,10.440192425849501,7.814464662376658,6.643758816449682,4.972841148785146
0.154,9.488602077665455,7.12434893093146,10.437462285432002,7.836783824024607,6.642021454365818,4.987044251652023
0.155,9.485585076950926,7.14416288287116,10.43414358464602,7.858579171158277,6.639909553865648,5.000914018009812
0.156,9.482035500406411,7.163500832938053,10.430239050447053,7.8798509162318595,6.6374248502844875,5.014450583056638
0.157,9.477955870141287,7.182363009009446,10.425751457155416,7.900599309910392,6.6345691090989005,5.0276541063066125
0.158,9.473348751014328,7.20074967412236,10.42068362611576,7.9208246415345975,6.631344125710029,5.040524771885652
0.159,9.46821675032008,7.218661126857838,10.415038425352089,7.9405272395436235,6.627751725224056,5.053062788800487
0.16,9.462562517471255,7.2360977016893795,10.408818769218382,7.959707471858319,6.623793762229878,5.065268391182566
0.161,9.456388743677138,7.253059769297732,10.402027618044853,7.978365746227507,6.619472120573996,5.077141838508412
0.162,9.449698161618043,7.269547736854127,10.394667977779848,7.996502510539542,6.61478871313263,5.088683415797889
0.163,9.442493545115852,7.2855620482739045,10.386742899627437,8.014118253101296,6.609745481581096,5.099893433791733
0.164,9.434777708800691,7.301103184442307,10.378255479680762,8.031213502886539,6.604344396160483,5.110772229109615
0.165,9.426553507773752,7.316171663414145,10.369208858551128,8.047788829755559,6.598587455441626,5.121320164389901
0.166,9.417823837266303,7.330768040588876,10.359606220992934,8.063844844647765,6.592476686086411,5.131537628412213
0.167,9.408591632294945,7.344892908862568,10.34945079552444,8.079382199748826,6.586014142606461,5.141425036203797
0.168,9.398859867313115,7.3585468987580755,10.338745854044427,8.094401588633884,6.57920190711918,5.150982829130652
0.169,9.388631555858904,7.371730678534714,10.327494711444794,8.108903746388187,6.572042089101233,5.160211474974298
0.17,9.377909750199194,7.384444954278584,10.315700725219115,8.122889449706443,6.564536825139435,5.169111467995008
0.171,9.3666975409702,7.396690469974651,10.303367295067222,8.136359516972117,6.55668827867914,5.177683328982255
0.172,9.354998056814399,7.408468007561582,10.290497862495839,8.14931480831774,6.548498639770079,5.185927605293106
0.173,9.342814464013909,7.419778386970301,10.2770959104153,8.161756225667332,6.539970124809736,5.193844870879209
0.174,9.330149966120391,7.430622466147137,10.26316496273243,8.173684712761853,6.531104976284274,5.201435726302995
0.175,9.31700780358143,7.441001141062382,10.248708583939573,8.185101255168622,6.521905462507,5.208700798743666
0.176,9.303391253363527,7.450915345705031,10.23373037869988,8.196006880275535,6.512373877354468,5.2156407419935205
0.177,9.289303628571663,7.460366052064415,10.21823399142883,8.206402657270857,6.502512540000163,5.222256236445089
0.178,9.274748278065541,7.4693542700993865,10.202223105872095,8.216289697109326,6.492323794645879,5.228547989069569
0.179,9.259728586072473,7.477881047695691,10.18570144467972,8.225669152465262,6.481810010250731,5.234516733386982
0.18,9.244247971797048,7.485947470612078,10.168672768976753,8.234542217673287,6.470973580257933,5.240163229428454
0.181,9.22830988902751,7.493554662415717,10.151140877930262,8.24291012865729,6.459816922319257,5.245488263691001
0.182,9.211917825738986,7.500703784407403,10.133109608312886,8.250774162848144,6.44834247801729,5.250492649085181
0.183,9.195075303693534,7.5073960355370195,10.114582834062888,8.258135639090723,6.436552712585473,5.255177224875912
0.184,9.177785878037115,7.5136326523097186,10.095564465840827,8.264995917540691,6.42445011462598,5.259542856616802
0.185,9.160053136893463,7.519414908683196,10.07605845058281,8.271356399551516,6.412037195825424,5.263590436078236
0.186,9.141880700954951,7.524744115956463,10.056068771050448,8.27721852755211,6.399316490668466,5.267320881169524
0.187,9.123272223070467,7.529621622650472,10.035599445377514,8.28258378491552,6.386290556149326,5.27073513585533
0.188,9.104231387830358,7.534048814380914,10.014654526613395,8.287453695819005,6.37296197148125,5.273834170066639
0.189,9.084761911148467,7.5380271137235155,9.993238102263314,8.291829825095867,6.3593333378039265,5.27661897960646
0.19,9.064867539841323,7.541557980072121,9.971354293825456,8.295713778079334,6.345407277888926,5.279090586050484
0.191,9.044552051204521,7.5446429094898315,9.949007256324974,8.299107200438815,6.331186435843164,5.281250036642882
0.192,9.023819252586343,7.547283434553456,9.926201177844977,8.3020117780088,6.31667347681044,5.2830984041874185
0.193,9.002672980958634,7.549481124191516,9.902940279054498,8.304429236610668,6.301871086671043,5.284636786934061
0.194,8.98111710248504,7.551237583516034,9.879228812733546,8.306361341867639,6.2867819717395275,5.285866308461224
0.195,8.959155512086577,7.552554453648302,9.855071063295235,8.307809899013133,6.271408858460603,5.286788117553812
0.196,8.936792133004632,7.55343341153884,9.830471346305096,8.308776752692726,6.255754493103242,5.2874033880771885
0.197,8.914030916361419,7.553876169781732,9.805434007997562,8.309263786759907,6.239821641452993,5.287713318847213
0.198,8.890875840717941,7.553884476423498,9.779963424789736,8.30927292406585,6.2236130885025585,5.2877191334964495
0.199,8.8673309116295,7.5534601147666915,9.75406400279245,8.308806126243363,6.207131638140649,5.287422080336685
0.2,8.843400161198787,7.552604903168353,9.727740177318665,8.30786539348519,6.190380112839151,5.286823432217848
0.201,8.819087647626652,7.551320694833481,9.700996412389319,8.306452764316832,6.173361353338656,5.285924486383438
0.202,8.794397454760514,7.549609377603654,9.673837200236566,8.304570315364023,6.156078218332359,5.284726564322559
0.203,8.769333691640556,7.547472873740933,9.646267060804613,8.302220161115029,6.138533584148389,5.283231011618654
0.204,8.74390049204365,7.544913139707166,9.618290541248015,8.299404453677885,6.120730344430555,5.2814391977950175
0.205,8.718102014025147,7.541932165938819,9.589912215427663,8.296125382532704,6.102671409817603,5.279352516157175
0.206,8.691942439458552,7.538531976617433,9.561136683404408,8.292385174279179,6.084359707620986,5.276972383632205
0.207,8.665425973573068,7.534714629435819,9.531968570930376,8.288186092379403,6.0657981815011475,5.274300240605075
0.208,8.63855684448918,7.530482215360091,9.502412528938098,8.283530436896102,6.046989791142426,5.271337550752064
0.209,8.611339302752206,7.525836858387627,9.472473233027427,8.27842054422639,6.027937511926544,5.268085800871339
0.21,8.583777620863946,7.520780715301053,9.442155382950341,8.27285878683116,6.008644334604762,5.264546500710737
0.211,8.555876092812435,7.515315975418337,9.411463702093679,8.266847572960172,5.9891132649687036,5.260721182792835
0.212,8.52763903359985,7.509444860339067,9.380402936959836,8.260389346372975,5.969347323519895,5.256611402237346
0.213,8.499070778768669,7.503169623687002,9.348977856645536,8.253486586055704,5.949349545138068,5.252218736580901
0.214,8.470175683926028,7.496492550848971,9.317193252318631,8.246141805933869,5.929122978748219,5.247544785594279
0.215,8.440958124266466,7.489415958710177,9.285053936693114,8.238357554581196,5.908670686986525,5.242591171097124
0.216,8.411422494092951,7.481942195386005,9.252564743502248,8.230136414924607,5.887995745865066,5.237359536770204
0.217,8.381573206336393,7.474073639950368,9.219730526970032,8.221481003945406,5.867101244435474,5.231851547965258
0.218,8.351414692073535,7.46581270216068,9.186556161280889,8.21239397237675,5.8459902844514735,5.226068891512476
0.219,8.32095140004344,7.457161822179511,9.153046540047784,8.202878004397464,5.8246659800304075,5.220013275525657
0.22,8.29018779616245,7.4481234702929795,9.119206575778694,8.19293581732228,5.8031314573137145,5.213686429205085
0.221,8.25912836303783,7.438700146625949,9.085041199341614,8.182570161288545,5.7813898541264805,5.207090102638163
0.222,8.227777599480001,7.428894380854079,9.050555359428003,8.171783818939488,5.759444319636001,5.200226066597854
0.223,8.196140020013551,7.418708731912793,9.015754022014907,8.160579605104074,5.737298014009486,5.193096112338955
0.224,8.164220154386934,7.408145787703212,8.980642169825629,8.148960366473535,5.714954108070853,5.185702051392248
0.225,8.13202254708104,7.397208164795101,8.945224801789143,8.136928981274613,5.6924157829567275,5.17804571535657
0.226,8.099551756816574,7.385898508126897,8.909506932498232,8.124488358939589,5.669686229771601,5.170128955688828
0.227,8.066812356060401,7.374219490702849,8.873493591666442,8.111641439773136,5.64676864924228,5.161953643491994
0.228,8.033808930530784,7.362173813287333,8.837189823583863,8.098391194616068,5.6236662513715485,5.153521669301133
0.229,8.000546078701703,7.349764204096382,8.800600686571874,8.084740624506022,5.6003822550911915,5.144834942867467
0.23,7.967028411306167,7.336993418486483,8.763731252436784,8.070692760335133,5.5769198879143165,5.135895392940538
0.231,7.933260550838723,7.323864238640689,8.726586605922595,8.056250662504759,5.553282385587106,5.126704967048482
0.232,7.899247131057032,7.31037947325208,8.689171844162736,8.04141742057729,5.529472991739922,5.117265631276457
0.233,7.86499279648276,7.2965419572046395,8.651492076131037,8.026196152925104,5.505494957537931,5.107579370043248
0.234,7.830502201901646,7.282354551251567,8.61355242209181,8.010590006376724,5.4813515413311515,5.097648185876097
0.235,7.795780011862973,7.2678201416910895,8.575358013049271,7.994602155860198,5.457046008304081,5.087474099183763
0.236,7.760830900178323,7.252941640039806,8.536913990196156,7.978235804043786,5.432581630124826,5.077059148027864
0.237,7.725659549419841,7.237721982703608,8.498225504361825,7.961494180973968,5.4079616845938885,5.066405387892526
0.238,7.690270650417884,7.2221641306462265,8.459297715459673,7.944380543710849,5.383189455292518,5.055514891452359
0.239,7.654668901758282,7.206271069055435,8.420135791934111,7.926898175960978,5.358268231230797,5.044389748338805
0.24,7.61885900927909,7.190045807006963,8.380744910207,7.909050387707659,5.333201306495362,5.033032064904875
0.241,7.582845685567045,7.173491377126155,8.34113025412375,7.89084051483877,5.307991979896931,5.021443963988308
0.242,7.54663364945363,7.156610835247416,8.301297014398994,7.872271918772157,5.2826435546175405,5.009627584673191
0.243,7.510227625510939,7.139407260071491,8.261250388062033,7.8533479860786395,5.257159337857657,4.997585082050043
0.244,7.47363234354725,7.12188375282061,8.220995577901975,7.834072128102671,5.231542640483075,4.9853186269744265
0.245,7.436852538102515,7.104043436891549,8.180537791912768,7.814447780580703,5.20579677667176,4.972830405824084
0.246,7.3998929479436475,7.085889457506637,8.139882242738013,7.794478403257299,5.179925063560553,4.960122620254645
0.247,7.3627583155598275,7.067424981362764,8.09903414711581,7.774167479499039,5.153930820891879,4.947197486953934
0.248,7.3254533866577285,7.0486531962784165,8.057998725323502,7.753518515906256,5.127817370660409,4.9340572373948905
0.249,7.287982909656843,7.029577310838785,8.016781200622528,7.732535041922661,5.1015880367597894,4.920704117587149
0.25,7.2503516351848445,7.010200554038992,7.97538679870333,7.711220609442889,5.075246144629391,4.907140387827294
0.251,7.212564315573152,6.990526174925468,7.933820747130468,7.689578792418013,5.048795020901206,4.893368322447827
0.252,7.174625704352627,6.970557442235523,7.89208827478789,7.667613186459074,5.022237993046838,4.879390209564866
0.253,7.136540555749578,6.950297644035155,7.850194611324537,7.645327408438669,4.995578389024704,4.865208350824608
0.254,7.098313624182009,6.929750087355127,7.808144986600211,7.622725096090638,4.968819536927406,4.850825061148588
0.255,7.059949663756272,6.9089180978253655,7.7659446301319,7.5998099076078995,4.94196476462939,4.836242668477754
0.256,7.0214534277640634,6.8878050193077085,7.7235987705404705,7.576585521238477,4.915017399434844,4.821463513515394
0.257,6.982829668179929,6.866414213527049,7.681112634997922,7.553055634879752,4.88798076772595,4.806489949468933
0.258,6.944083135159224,6.844749059700915,7.638491448675147,7.5292239656710045,4.860858194611457,4.791324341790639
0.259,6.905218576536675,6.822812954167519,7.595740434190343,7.505094249584269,4.833653003575672,4.775969067917262
0.26,6.866240737325496,6.800609310012331,7.552864811058046,7.480670241013563,4.806368516127847,4.76042651700863
0.261,6.827154359217225,6.778141556693196,7.509869795138948,7.455955712362514,4.779008051452057,4.744699089685236
0.262,6.7879641800821995,6.755413139664055,7.46676059809042,7.430954453630459,4.75157492605754,4.728789197764837
0.263,6.748674933470865,6.732427519997295,7.423542426817953,7.405670271997024,4.7240724534296055,4.712699263998106
0.264,6.709291348115822,6.7091881740047805,7.380220482927404,7.380106991405257,4.696503943681075,4.696431721803346
0.265,6.6698181474348015,6.685698592857591,7.336799962178282,7.354268452143349,4.668872703204361,4.679989015000313
0.266,6.630260049034488,6.661962282204528,7.293286053937938,7.32815851042498,4.6411820343241414,4.663373597543169
0.267,6.59062176421538,6.637982761789405,7.249683940636919,7.301781037968344,4.613435234950766,4.646587933252582
0.268,6.550907997477579,6.613763565067181,7.205998797225337,7.275139921573898,4.5856355982343056,4.629634495547026
0.269,6.5111234460277165,6.589308238818971,7.162235790630489,7.248239062700867,4.557786412219401,4.612515767173279
0.27,6.471272799286959,6.564620342765969,7.118400079215656,7.221082377042565,4.529890959500871,4.595234239936178
0.271,6.431360738400166,6.539703449182337,7.074496812240183,7.193673794100571,4.501952516880116,4.577792414427636
0.272,6.391391935746305,6.514561142507085,7.030531129320936,7.166017256757793,4.473974355022413,4.560192799754959
0.273,6.351371054450077,6.48919701895499,6.986508159895085,7.138116720850489,4.445959738115054,4.5424379132684924
0.274,6.311302747894917,6.463614686126605,6.942433022684409,7.109976154739265,4.417911923526441,4.524530280288623
0.275,6.271191659237288,6.437817762617372,6.898310825161017,7.081599538879108,4.389834161466101,4.50647243383216
0.276,6.23104242092246,6.4118098776259105,6.854146663014706,7.052990865388501,4.361729694645722,4.488266914338137
0.277,6.1908596542016845,6.3855946705615,6.809945619621853,7.024154137617649,4.333601757941179,4.46991626939305
0.278,6.150647968650945,6.3591757906508075,6.7657127655160405,6.995093369715888,4.305453578055661,4.4514230534555645
0.279,6.110411961691203,6.332556896543897,6.721453157860324,6.965812586198286,4.277288373183842,4.432789827580727
0.28,6.070156218110315,6.305741655919565,6.677171839921346,6.936315821511521,4.24910935267722,4.414019159143695
0.281,6.029885309586552,6.27873374509004,6.632873840545208,6.906607119599043,4.220919716710586,4.395113621563028
0.282,5.989603794213879,6.251536848605088,6.588564173635268,6.876690533465595,4.192722655949716,4.376075794023561
0.283,5.94931621602894,6.224154658855565,6.5442478376318345,6.8465701247411195,4.164521351220258,4.356908261198894
0.284,5.9090271045398755,6.196590875676459,6.499929814993863,6.816249963244103,4.136318973177913,4.33761361297352
0.285,5.868740974256994,6.168849205949458,6.455615071682694,6.785734126544402,4.108118681979896,4.31819444416462
0.286,5.82846232422531,6.140933363205092,6.411308556647842,6.7550266995256,4.079923626957717,4.298653354243564
0.287,5.788195637559081,6.112847067224483,6.36701520131499,6.7241317739469295,4.051736946291356,4.278992947057137
0.288,5.7479453809782655,6.084594043640746,6.322739919076093,6.693053448004819,4.023561766684786,4.259215830548521
0.289,5.707716004347111,6.056178023540086,6.278487604781822,6.661795825894093,3.9954012030429773,4.23932461647806
0.29,5.667511940214732,6.027602743062632,6.234263134236206,6.630363017368893,3.9672583581503122,4.219321920143841
0.291,5.627337603357918,5.998871943003035,6.19007136369371,6.598759137303337,3.9391363223505422,4.199210360102123
0.292,5.5871973903260335,5.969989368410898,6.145917129358637,6.5669883052519875,3.9110381732282233,4.178992557887628
0.293,5.547095678988222,5.940958768191052,6.101805246887045,6.535054645010157,3.882966975291755,4.1586711377337355
0.294,5.507036828082819,5.911783894703732,6.057740510891101,6.502962284174105,3.8549257796579726,4.138248726292612
0.295,5.467025176769138,5.882468503364699,6.013727694446052,6.470715353701168,3.826917623738396,4.117727952355288
0.296,5.427065044181566,5.8530163522453345,5.969771548599723,6.438317987469867,3.798945530927096,4.097111446571733
0.297,5.387160728986127,5.823431201672764,5.9258768018847405,6.40577432184004,3.771012510290289,4.076401841170934
0.298,5.347316508939439,5.793716813830039,5.882048159833384,6.373088495213042,3.743121556257607,4.055601769681027
0.299,5.307536640450233,5.763876952356422,5.838290304495257,6.340264647592064,3.715275648315163,4.034713866649495
0.3,5.267825358143346,5.7339153819478215,5.794607893957681,6.3073069201426035,3.6874777507003422,4.013740767363474
0.301,5.228186874426374,5.703835867957405,5.751005561869012,6.274219454753146,3.6597308120984615,3.9926851075701832
0.302,5.188625379058888,5.673642175996449,5.707487916964777,6.241006393596093,3.6320377653412215,3.9715495231975133
0.303,5.149145038724393,5.6433380715354415,5.664059542596833,6.207671878688986,3.604401527107075,3.9503366500748083
0.304,5.109749996604938,5.612927319505513,5.620724996265432,6.174220051456064,3.5768249976234565,3.9290491236538583
0.305,5.070444371958542,5.582413683900197,5.5774888091543975,6.140655052290216,3.549311060370979,3.907689578730137
0.306,5.03123225969939,5.551800927377593,5.534355485669329,6.106981020115351,3.521862581789573,3.886260649164314
0.307,4.9921177299809045,5.521092810862954,5.491329502978996,6.073202091949249,3.494482410986633,3.864764967604067
0.308,4.953104827781667,5.4902930931517515,5.448415310559834,6.039322402466927,3.467173379447167,3.8432051652062253
0.309,4.914197572494326,5.459405530513244,5.40561732974376,6.005346083564569,3.4399383007460282,3.8215838713592705
0.31,4.875399957517412,5.428433876294605,5.362939953269153,5.971277263924066,3.412779970262188,3.799903713406223
0.311,4.836715949850232,5.39738188052564,5.320387544835255,5.9371200685782055,3.3857011648951625,3.7781673163679477
0.312,4.798149489690758,5.366253289524139,5.277964438659834,5.902878618476555,3.3587046427835303,3.7563773026668974
0.313,4.759704490036671,5.335051845501902,5.235674939040338,5.868557030052094,3.3317931430256693,3.7345362918513314
0.314,4.721384836289494,5.303781286171477,5.193523319918444,5.834159414788625,3.3049693854026456,3.7126469003200335
0.315,4.683194385861908,5.272445344353651,5.1515138244481,5.7996898787890165,3.2782360701033353,3.6907117410475556
0.316,4.645136967788326,5.241047747585742,5.109650664567159,5.765152522344317,3.251595877451828,3.6687334233100195
0.317,4.6072163823386525,5.209592217730717,5.067938020572518,5.73055143950379,3.2250514676370567,3.646714552411502
0.318,4.569436400635408,5.178082470587187,5.02638004069895,5.6958907176459075,3.1986054804447854,3.6246577294110316
0.319,4.5318007642741245,5.146522215500317,4.984980840701537,5.6611744370503505,3.172260534991887,3.6025655508502226
0.32,4.494313184947167,5.114915154973687,4.943744503441884,5.626406670471057,3.1460192294630165,3.580440608481581
0.321,4.456977344070912,5.083264984282146,4.902675078478004,5.591591482710362,3.1198841408496385,3.5582854889975026
0.322,4.419796892416423,5.051575391085705,4.861776581658066,5.556732930194276,3.0938578246914963,3.5361027737599935
0.323,4.382775449743562,5.019850055044488,4.821052994717919,5.521835060548938,3.0679428148204932,3.513895038531142
0.324,4.345916604438667,4.988092647434812,4.780508264882534,5.486901912178294,3.042141623107067,3.491664853204369
0.325,4.309223913155743,4.9563068307664,4.740146304471318,5.451937513843041,3.01645673920902,3.469414781536481
0.326,4.2727009004612935,4.924496258400795,4.699970990507423,5.416945884240876,2.9908906303229053,3.4471473808805575
0.327,4.236351058482729,4.892664574170998,4.659986164331002,5.381931031588098,2.96544574093791,3.424865201919699
0.328,4.200177846560496,4.860815412002369,4.620195631216546,5.346896953202606,2.9401244925923473,3.402570788401658
0.329,4.164184690903849,4.828952395534841,4.580603159994235,5.311847635088325,2.9149292836326945,3.3802666768743883
0.33,4.128374984250415,4.797079137746474,4.541212482675458,5.276787051521121,2.8898624889752904,3.3579553964225313
0.331,4.092752085529465,4.765199240578388,4.502027294082412,5.241719164636227,2.8649264598706257,3.3356394684048714
0.332,4.057319319529055,4.733316294561124,4.463051251481962,5.206647924017236,2.8401235236703384,3.3133214061927867
0.333,4.022079976566935,4.7014338784424545,4.4242879742236285,5.1715772662866994,2.8154559835968542,3.2910037149097175
0.334,3.987037312165387,4.669555558816696,4.385741043381926,5.136511114698365,2.7909261185157708,3.2686888911716863
0.335,3.9521945467299187,4.637684889755555,4.347414001402911,5.10145337873111,2.7665361827109427,3.2463794228288876
0.336,3.917554865231928,4.605825412440542,4.309310351755121,5.066407953684597,2.7422884056623493,3.2240777887083794
0.337,3.883121416895297,4.573980654797002,4.271433558584827,5.031378720276702,2.718184991826708,3.201786458357901
0.338,3.848897314887025,4.542154131129778,4.233787046375728,4.996369544242756,2.694228120420917,3.1795078917908444
0.339,3.8148856360118426,4.510349341760571,4.196374199613027,4.961384275936627,2.6704199452082897,3.1572445392323987
0.34,3.781089420410936,4.478569772667009,4.15919836245203,4.926426749933709,2.646762594287655,3.1349988408669054
0.341,3.7475116712647107,4.446818895123484,4.122262838391182,4.891500784635832,2.6232581698852973,3.1127732265864383
0.342,3.7141553544997175,4.415100165343771,4.08557088994969,4.856610181878147,2.599908748149802,3.090570115740639
0.343,3.6810233984996916,4.383417024125481,4.0491257383496615,4.821758726538027,2.576716378949784,3.0683919168878355
0.344,3.6481186938207983,4.35177289649638,4.012930563202879,4.786950186146016,2.5536830856745585,3.0462410275474645
0.345,3.615444092911062,4.320171191362609,3.9769885022021687,4.752188310498868,2.5308108650377434,3.0241198339538244
0.346,3.5830024098340374,4.288615301158839,3.9413026508174416,4.7174768312747215,2.508101686883826,3.002030710811186
0.347,3.5507964199967583,4.257108601500403,3.9058760619964343,4.682819461650442,2.4855574939977307,2.9799760210502804
0.348,3.5188288598819355,4.225654450837428,3.8707117458701292,4.648219895921169,2.4631802019173548,2.957958115586198
0.349,3.48710242678452,4.19425619011102,3.835812669462972,4.61368180912212,2.4409716987491636,2.935979333077712
0.35,3.4556197785525606,4.162917142411515,3.801181756407817,4.579208856652666,2.418933844986792,2.914041999688059
0.351,3.4243835333324704,4.131640612638855,3.7668218866657175,4.54480467390274,2.397068473332729,2.8921484288471975
0.352,3.3933962693186492,4.1004298871651,3.7327358962505146,4.510472875881609,2.3753773885230545,2.870300921015569
0.353,3.3626605245075565,4.069288233499125,3.6989265769583124,4.476217056849038,2.353862367155289,2.848501763449387
0.354,3.3321787964562013,4.038218899953537,3.6653966761018215,4.442040789948891,2.3325251575193406,2.8267532299674754
0.355,3.30195354204512,4.0072251153138305,3.632148896249632,4.407947626845214,2.311367479431584,2.805057580719681
0.356,3.271987177245819,3.9763100885098335,3.599185894970401,4.3739410973608175,2.2903910240720733,2.783417061956883
0.357,3.242282076892762,3.945477008289465,3.5665102845820384,4.340024709118412,2.2695974538249333,2.761833905802625
0.358,3.2128405744598574,3.914729042894842,3.5341246319058435,4.306201947184326,2.2489884021219,2.740310330026389
0.359,3.18366496184154,3.884069339740768,3.5020314580256944,4.272476273714846,2.228565473289078,2.7188485378185376
0.36,3.154757489138409,3.853501025095636,3.4702332380522503,4.2388511276052006,2.2083302423968862,2.6974507175669453
0.361,3.126120364447458,3.8230272037647737,3.438732400892204,4.205329924141252,2.1882842551132207,2.676119042635342
0.362,3.0977557536569647,3.7926509587762722,3.407531329022661,4.1719160546539005,2.168429027559875,2.654855671143391
0.363,3.069665780245983,3.762375351069321,3.3766323582705815,4.138612886176254,2.148766046172188,2.6336627457485253
0.364,3.041852525088518,3.732203419185084,3.34603777759737,4.1054237611035935,2.1292967675619625,2.6125423934295595
0.365,3.014318026262373,3.7021381789601517,3.3157498288886105,4.072351996856168,2.110022618383661,2.5914967252721066
0.366,2.987064278862709,3.672182623222591,3.28577070674898,4.039400885544851,2.090944995203896,2.570527836255814
0.367,2.9600932348203015,3.642339721490637,3.2561025583023318,4.006573693639702,2.072065264374211,2.5496378050434463
0.368,2.933406802724554,3.6126124196740403,3.22674748299701,3.973873661641446,2.053384761907188,2.5288286937718287
0.369,2.9070068476512523,3.583003639778119,3.197707532416378,3.9413040037559326,2.0349047933558766,2.508102547844684
0.37,2.880895190995096,3.5535162796105264,3.168984710094606,3.9088679075715804,2.0166266336965673,2.487461395727369
0.371,2.8550736103070076,3.5241532124907775,3.1405809713377084,3.8765685337398565,1.9985515272149053,2.4669072487435444
0.372,2.829543839136263,3.4949172869625595,3.112498223049889,3.844409015658817,1.980680687395384,2.4464421008737918
0.373,2.804307566877406,3.4658113265088537,3.084738323565147,3.8123924591597405,1.963015296814184,2.426067928556198
0.374,2.779366438622046,3.4368381292698973,3.0573030824842506,3.7805219421968883,1.945556507035432,2.4057866904889282
0.375,2.7547220550154448,3.4080004677640168,3.0301942605169896,3.7488005145404197,1.9283054385108112,2.385600327434812
0.376,2.7303759721180167,3.3793010886113595,3.0034135693298185,3.7172311974724965,1.9112631804826117,2.365510762027952
0.377,2.7063297012716676,3.3507427122605487,2.9769626713988346,3.6858169834866046,1.8944307908901672,2.345519898582384
0.378,2.6825847089710386,3.322328032718293,2.950843179868143,3.6545608359901234,1.8778092962797268,2.325629622902805
0.379,2.659142416739649,3.294059717281977,2.9250566584136144,3.623465689010176,1.8613996917177542,2.305841802097384
0.38,2.63600420101094,3.2659404062752584,2.8996046211120343,3.592534446902785,1.845202940707658,2.286158284392681
0.381,2.613171393014259,3.2379727127866964,2.874488532315685,3.561769984065367,1.8292199751099811,2.2665808989506875
0.382,2.59064527866576,3.210159222411446,2.8497098065323363,3.5311751446525914,1.813451695066032,2.247111455688012
0.383,2.568427098464264,3.1825024929960333,2.825269808310691,3.5007527422956373,1.7978989689249847,2.227751745097223
0.384,2.5465180473920634,3.155005054386244,2.8011698521312702,3.4705055598248693,1.7825626331744442,2.208503538070371
0.385,2.524919274820694,3.1276694081781504,2.7774112023027637,3.4404363489959664,1.7674434923744855,2.189368585724705
0.386,2.503631884421682,3.100498027472298,2.7539950728638507,3.410547830219529,1.7525423190951772,2.1703486192306087
0.387,2.4826569340822626,3.0734933566310816,2.730922627490489,3.3808426922941908,1.7378598538575838,2.151445349641757
0.388,2.4619954358261067,3.046657811039329,2.7081949794087175,3.3513235921432627,1.7233968050782746,2.1326604677275305
0.389,2.4416483557390185,3.0199937768681235,2.6858131913129206,3.3219931545549364,1.7091538490173128,2.1139956438076863
0.39,2.4216166138996558,2.9935036108418815,2.6637782752896215,3.2928539719260703,1.695131629729759,2.095452527589317
0.391,2.401901084315253,2.9671896400087157,2.6420911927467787,3.263908604009588,1.681330759020677,2.077032748006101
0.392,2.382502594862352,2.9410541615141,2.6207528543485874,3.235159577665511,1.6677518164036462,2.05873791305987
0.393,2.3634219272325687,2.915099442377865,2.5997641199558257,3.206609386615652,1.654395349062798,2.0405696096645056
0.394,2.3446598168833717,2.889327719274541,2.579125798571709,3.1782604912019954,1.64126187181836,2.022529403492179
0.395,2.326216952993895,2.863741198317074,2.5588386482932846,3.1501153181487815,1.6283518670957264,2.004618838821952
0.396,2.308093978425778,2.8383420548439364,2.538903376268356,3.12217626032833,1.6156657848980447,1.986839438390756
0.397,2.2902914896890554,2.813132433209651,2.519320638657961,3.094445676530616,1.6032040427823386,1.969192703246756
0.398,2.2728100369130715,2.78811444657875,2.500091040604379,3.0669258912366253,1.59096702583915,1.9516801126051255
0.399,2.2556501238224396,2.7632901767231948,2.4812151362046837,3.0396191943955144,1.5789550866757076,1.9343031237062367
0.4,2.2388122077180492,2.738661673823264,2.4626934284898545,3.0125278412055905,1.5671685454026343,1.9170631716762851
0.401,2.222296699463114,2.714230956271947,2.444526369409426,2.985654051899142,1.5556076896241797,1.8999616693903634
0.402,2.2061039634742547,2.690000010482848,2.4267143598216805,2.9590000115311326,1.5442727744319782,1.8830000073379938
0.403,2.1902343177176444,2.6659707907016235,2.409257749489409,2.932567869771786,1.533164022402351,1.8661795534911367
0.404,2.174688033710181,2.6421452188209797,2.3921568370811994,2.906359740703078,1.5222816235971266,1.8495016531746862
0.405,2.159465336525713,2.6185251841992367,2.3754118701782847,2.8803777026191604,1.511625735567999,1.8329676289394659
0.406,2.1445664048063042,2.5951125434824824,2.3590230452869347,2.854623797830731,1.501196483364413,1.816578780437738
0.407,2.129991370778531,2.5719091204303393,2.3429905078563844,2.8291000324733737,1.4909939595449715,1.8003363843012379
0.408,2.1157403202748313,2.5489167057453503,2.3273143523023148,2.803808376319886,1.4810182241923817,1.7842416940217456
0.409,2.1018132927598687,2.5261370569060104,2.3119946220358556,2.778750762596612,1.471269304931908,1.7682959398342075
0.41,2.088210281361948,2.5035718980034547,2.297031309498143,2.7539290878038005,1.4617471969533635,1.7525003286024183
0.411,2.074931232909436,2.4812229195818216,2.2824243562003796,2.7293452115400045,1.4524518630366052,1.7368560437072753
0.412,2.061976047972218,2.4590917784823074,2.26817365276944,2.705000956330539,1.4433832335805523,1.7213642449376154
0.413,2.0493445809081665,2.437180097690924,2.2542790389989835,2.680898107460017,1.4345412066357164,1.706026068383647
0.414,2.037036639914625,2.4154894661899795,2.2407403039060876,2.657038412808978,1.4259256479402374,1.6908426263329859
0.415,2.0250519870848827,2.3940214388132937,2.227557185793371,2.6334235826946237,1.4175363909594179,1.6758150071693056
0.416,2.0133903384696703,2.3727775361051617,2.2147293723166377,2.6100552897156786,1.409373236928769,1.6609442752736132
0.417,2.0020513641436244,2.351759244183083,2.202256500557987,2.586935168601392,1.401435954900537,1.646231470928158
0.418,1.9910346882767485,2.330968014604266,2.1901381571044234,2.5640648160646933,1.3937242817937239,1.6316776102229862
0.419,1.9803398892108435,2.310405264235923,2.178373878131928,2.541445790659516,1.3862379224475903,1.617283684965146
0.42,1.969966499540913,2.2900723751293675,2.1669631494950043,2.5190796126423045,1.378976549678639,1.603050662590557
0.421,1.9599140062015126,2.269970694397926,2.155905406821664,2.496967763837719,1.3719398043410587,1.588979486078548
0.422,1.9501818505580548,2.250101534098678,2.1452000356138603,2.475111687508546,1.3651272953906384,1.5750710738690743
0.423,1.9407694285030574,2.2304661711180325,2.134846371353363,2.453512788229836,1.3585385999521402,1.5613263197826224
0.424,1.9316760905572998,2.211065847061155,2.12484369961303,2.432172431767271,1.3521732633901098,1.5477460929428084
0.425,1.9229011419759177,2.191901768145255,2.11519125617351,2.4110919449597805,1.3460307993831422,1.5343312377016782
0.426,1.9144438428593826,2.172975105096741,2.105888227145321,2.3902726156064156,1.3401106900015678,1.5210825735677187
0.427,1.9063034082693822,2.1542869930522612,2.0969337490963205,2.3697156923574876,1.3344123857885675,1.5080008951365826
0.428,1.898479008349577,2.135838531463627,2.088326909184535,2.3494223846099898,1.3289353058447038,1.4950869720245386
0.429,1.8909697684512272,2.117630784006642,2.08006674529635,2.329393862407306,1.323678837915859,1.482341548804649
0.43,1.883774769263657,2.099664778493835,2.072152246190023,2.3096312563432186,1.3186423384845598,1.4697653449456842
0.431,1.8768930469495766,2.08194150679111,2.0645823516445345,2.290135657470221,1.3138251328647035,1.457359054753777
0.432,1.8703235932852076,2.0644619247383194,2.0573559526137286,2.2709081172121515,1.3092265152996452,1.4451233473168235
0.433,1.864065355805229,2.047226952073769,2.050471891385752,2.251949647281146,1.3048457490636602,1.4330588664516382
0.434,1.858117237952511,2.0302374723626615,2.0439289617477625,2.233261219598928,1.3006820665667576,1.421166230653863
0.435,1.85247809923262,2.013494332929486,2.037725909155882,2.214843766222435,1.2967346694628339,1.4094460330506402
0.436,1.8471467553730863,1.9969983447943562,2.031861430910395,2.1966981792737923,1.2930027287611603,1.3978988413560494
0.437,1.842121978487417,1.9807502826133097,2.026334176336159,2.178825310874641,1.2894853849411918,1.3865251978293167
0.438,1.8374024972438239,1.964750884622566,2.0211427469682066,2.161225973084823,1.2861817480706765,1.375325619235796
0.439,1.8329869970386614,1.9490008525867566,2.0162856967425276,2.1439009378454323,1.283090897927063,1.3643005968107296
0.44,1.8288741201745573,1.9335008517511236,2.011761532192013,2.126850936926236,1.2802118841221901,1.3534505962257863
0.441,1.8250624660431978,1.918251510797698,2.007568712647518,2.110076661877468,1.2775437262302383,1.3427760575583885
0.442,1.821550591312775,1.9032534218054569,2.0037056504440525,2.0935787639860024,1.2750854139189425,1.3322773952638196
0.443,1.8183370101200547,1.8885071402144655,2.00017071113206,2.077357854235912,1.2728359070840383,1.3219549981501255
0.444,1.8154201942670474,1.8740131847940056,1.9969622136937524,2.061414503273406,1.270794135986933,1.3118092293558037
0.445,1.8127985734222793,1.8597720376146942,1.9940784307645074,2.0457492413761638,1.2689590013955954,1.3018404263302858
0.446,1.8104705353266182,1.8457841440245941,1.9915175888592802,2.0303625584270537,1.2673293747286327,1.2920489008172158
0.447,1.8084344260036413,1.8320499126293168,1.9892778686040056,2.0152549038922487,1.265904098202549,1.2824349388405216
0.448,1.806688549974532,1.818569715276122,1.9873574049719853,2.0004266868037344,1.2646819849821722,1.2729988006932853
0.449,1.8052311704774624,1.8053438870420124,1.9857542875252088,1.985878275746214,1.2636618193342235,1.2637407209294087
0.45,1.8040605096914613,1.7923727262258249,1.9844665606606076,1.9716099988484077,1.2628423567840228,1.2546609083580775
0.451,1.803174748964727,1.7796564943443187,1.9834922238611998,1.9576221437787509,1.2622223242753088,1.2457595460410231
0.452,1.8025720290473677,1.7671954161322594,1.9828292319521046,1.9439149577454855,1.2618004203331572,1.2370367912925815
0.453,1.8022504503285388,1.7549896795464992,1.9824754953613928,1.9304886475011491,1.2615753152299771,1.2284927756825492
0.454,1.8022080730779644,1.7430394357740515,1.982428880385761,1.9173433793514567,1.261545651154575,1.220127605041836
0.455,1.8024429176918,1.731344799244159,1.9826872094609802,1.904479279168575,1.26171004238426,1.2119413594709112
0.456,1.802952964942829,1.7199058476443527,1.983248261437112,1.891896432408788,1.2620670754599803,1.2039340933510467
0.457,1.80373615623495,1.7087226219404992,1.9841097718584453,1.879594884134549,1.262615309364465,1.1961058353583491
0.458,1.8047903938619356,1.6977951264008355,1.9852694332481293,1.867574639040919,1.2633532757033548,1.1884565884805844
0.459,1.8061135412704337,1.6871233286239857,1.9867248953974772,1.8558356614863842,1.2642794788893035,1.1809863300367898
0.46,1.8077034233271956,1.6767071595709582,1.9884737656599154,1.844377875528054,1.2653923963290368,1.1736950116996705
0.461,1.8095578265904706,1.6665465136011166,1.990513609249518,1.833201164961228,1.2666904786133293,1.1665825595207813
0.462,1.8116744995855782,1.6566412485121238,1.9928419495441363,1.822305373363336,1.2681721497099048,1.1596488739584863
0.463,1.814051153084601,1.6469911855838515,1.9954562683930614,1.8116903041422365,1.2698358071592206,1.1528938299086957
0.464,1.816685460390171,1.6375961096262506,1.9983540064291883,1.8013557205888755,1.2716798222731196,1.1463172767383751
0.465,1.8195750576233425,1.6284557690311778,2.001532563385677,1.7913013459342955,1.2737025403363396,1.1399190383218243
0.466,1.8227175440154886,1.6195698758281716,2.0049892984170374,1.7815268634109886,1.275902280810842,1.13369891307972
0.467,1.826110482204212,1.6109381057441712,2.0087215304246335,1.7720319163185883,1.2782773375429484,1.1276566740209197
0.468,1.8297513985332339,1.602560098267172,2.0127265383865574,1.7628161080938891,1.2808259789732637,1.1217920687870204
0.469,1.833637783356227,1.5944354567138106,2.01700156169185,1.7538790023851916,1.2835464483493588,1.1161048196996675
0.47,1.837767091344562,1.5865637483008705,2.0215438004790185,1.7452201231309576,1.2864369639411934,1.1105946238106095
0.471,1.842136741798937,1.5789445042207024,2.026350415978831,1.7368389546427727,1.2894957192592558,1.1052611529544918
0.472,1.846744118964848,1.5715772197205486,2.031418530861333,1.7287349416926034,1.2927208832753934,1.100104053804384
0.473,1.851586572351887,1.5644613541857644,2.036745229587076,1.7209074896043408,1.2961106006463208,1.095122947930035
0.474,1.8566614170568054,1.5575963312269259,2.0423275587624863,1.7133559643496186,1.2996629919397638,1.0903174318588482
0.475,1.8619659340903398,1.5509815387708163,2.048162527499374,1.706079692647898,1.3033761538632378,1.0856870771395715
0.476,1.867497370707739,1.5446163291552784,2.054247107778513,1.6990779620708063,1.307248159495417,1.0812314304086947
0.477,1.8732529407429737,1.5385000192279243,2.060578234817271,1.6923500211507168,1.3112770585200815,1.0769500134595469
0.478,1.8792298249465933,1.5326318904486926,2.0671528074412526,1.6858950794935619,1.3154608774626153,1.0728423233140847
0.479,1.8854251713271757,1.5270111889962388,2.073967688459893,1.6797123078958627,1.319797619929023,1.068907832297367
0.48,1.8918360954963678,1.5216371258781498,2.0810197050460046,1.6738008384659646,1.3242852668474574,1.0651459881147047
0.481,1.8984596810174428,1.51650887704497,2.0883056491191874,1.6681597647494668,1.32892177671221,1.061556213931479
0.482,1.9052929797573674,1.511625583508026,2.095822277733104,1.6627881418588284,1.3337050858301571,1.0581379084556182
0.483,1.9123330122423248,1.506986351461038,2.1035663134665574,1.6576849866071417,1.3386331085696273,1.0548904460227266
0.484,1.9195767680166638,1.5025902524055033,2.1115344448183304,1.6528492776460535,1.3437037376116645,1.0518131766838523
0.485,1.9270212060052332,1.4984363232798399,2.1197233266057567,1.6482799556078238,1.3489148442036631,1.048905426295888
0.486,1.9346632548790637,1.4945235665922758,2.12812958036697,1.6439759232515034,1.3542642784153445,1.046166496614593
0.487,1.9424998134243556,1.4908509505574692,2.1367497947667915,1.6399360456132162,1.359749869397049,1.0435956653902283
0.488,1.9505277509147518,1.4874174092368446,2.1455805260062273,1.636159150160529,1.3653694256403262,1.0411921864657911
0.489,1.9587439074868187,1.4842218426826315,2.154618298235501,1.6326440269508946,1.371120735240773,1.038955289877842
0.49,1.967145094518746,1.481263117085588,2.163859603970621,1.6293894287941468,1.377001566163122,1.0368841819599117
0.491,1.9757280950121707,1.4785400649263953,2.173300904513388,1.6263940714190348,1.3830096665085194,1.0349780454484767
0.492,1.9844896639771443,1.476051485130705,2.182938630374859,1.6236566336437752,1.389142764784001,1.0332360395914935
0.493,1.9934265288201418,1.473796143227824,2.192769181702156,1.6211757575506063,1.3953985701740992,1.0316573002594769
0.494,2.0025353897351255,1.4717727715130204,2.2027889287086384,1.6189500486643225,1.4017747728145877,1.0302409400591146
0.495,2.0118129200975825,1.469980069213432,2.212994212107341,1.6169780761347752,1.4082690440683077,1.0289860484494027
0.496,2.0212557668615254,1.468416702657558,2.223381343547678,1.6152583729233139,1.4148790368030677,1.027891691860291
0.497,2.0308605509593827,1.4670813054483214,2.233946606055321,1.6137894359931535,1.4216023856715678,1.0269569138138253
0.498,2.0406238677047766,1.4659724786396766,2.2446862544752544,1.6125697265036443,1.4284367073933435,1.0261807350477739
0.499,2.0505422871980974,1.465088790916749,2.255596515917907,1.6115976700084238,1.4353796010386681,1.0255621536417243
0.5,2.0606123547348876,1.4644287787794836,2.2666735902083763,1.6108716566574321,1.4424286483144213,1.0251001451456387
0.501,2.0708305912169314,1.4639909467297871,2.2779136503386246,1.610390041402766,1.449581413851852,1.0247936627108511
0.502,2.0811934935660705,1.4637737674621378,2.2893128429226777,1.610151144208352,1.4568354454962493,1.0246416372234968
0.503,2.0916975351406473,1.4637756820576493,2.3008672886547124,1.6101532502634146,1.464188274598453,1.0246429774403547
0.504,2.1023391661545654,1.4639951001815625,2.312573082770022,1.6103946101997193,1.4716374163081958,1.024796570127094
0.505,2.1131148140989167,1.4644304002841486,2.3244262955088084,1.610873440312564,1.4791803698692416,1.0251012801989043
0.506,2.1240208841661135,1.4650799298049988,2.336422972582725,1.611587922785499,1.4868146189162794,1.0255559508634993
0.507,2.1350537596765173,1.4659420053806804,2.348559135644169,1.6125362059187487,1.4945376317735621,1.0261594037664763
0.508,2.146209802507475,1.4670149130557384,2.3608307827582227,1.6137164043613126,1.5023468617552325,1.026910439139017
0.509,2.1574853535247573,1.4682969084970179,2.373233888877233,1.6151265993467199,1.5102397474673301,1.0278078359479126
0.51,2.1688767330163254,1.4697862172112857,2.3857644063179584,1.6167648389324145,1.5182137131114277,1.0288503520479
0.511,2.180380241128406,1.4714810347661291,2.398418265241247,1.6186291382427422,1.5262661687898842,1.0300367243362905
0.512,2.191992158303792,1.4733795270141066,2.4111913741341713,1.6207174797155175,1.5343945108126542,1.0313656689098747
0.513,2.203708745722372,1.4754798303201284,2.4240796202946093,1.6230278133521414,1.5425961220056603,1.0328358812240899
0.514,2.215526245743802,1.4777800517920412,2.437078870318182,1.6255580569712456,1.5508683720206613,1.0344460362544288
0.515,2.227440882352285,1.480278269514395,2.4501849705875136,1.6283060964658347,1.5592086176465996,1.0361947886600764
0.516,2.239448861603425,1.4829725327853642,2.4633937477637677,1.6312697860639007,1.5676142031223974,1.0380807729497548
0.517,2.2515463720730913,1.4858608623568013,2.4767010092804007,1.6344469485924815,1.5760824604511638,1.0401026036497607
0.518,2.2637295853082486,1.4889412506773954,2.4901025438390736,1.637835375745135,1.584610709715774,1.0422588754741766
0.519,2.2759946562797237,1.4922116621389108,2.5035941219076965,1.641432828352802,1.5931962593958064,1.0445481634972376
0.52,2.2883377238368245,1.49567003332548,2.517171496220507,1.6452370366580282,1.601836406685777,1.0469690233278361
0.521,2.300754911163821,1.499314273265924,2.5308304022802033,1.6492457005925165,1.6105284378146745,1.0495199912861468
0.522,2.3132423262381616,1.5031422636890732,2.544566558861978,1.6534564900579807,1.619269628366713,1.0521995845823513
0.523,2.3257960622904665,1.5071518592820643,2.5583756685195134,1.6578670452102708,1.6280572436033265,1.055006301497445
0.524,2.338412198266168,1.5113408879515817,2.5722534180927847,1.66247497674674,1.6368885387863175,1.057938621566107
0.525,2.3510867992888125,1.515707151088021,2.586195479217694,1.6672778661968228,1.6457607595021686,1.0609950057616144
0.526,2.363815917124929,1.520248423832541,2.600197508837422,1.6722732662157949,1.6546711419874502,1.0641738966827785
0.527,2.3765955906504557,1.5249624553469834,2.6142551497155013,1.6774587008816813,1.663616913455319,1.067473718742888
0.528,2.3894218463186316,1.5298469690866225,2.628364030950495,1.6828316659952842,1.672595292423042,1.0708928783606353
0.529,2.402290698629357,1.534899663075726,2.6425197684922925,1.688389629383298,1.6816034890405498,1.0744297641530078
0.53,2.4151981505999167,1.5401182101858897,2.6567179656599085,1.6941300312044782,1.6906387054199417,1.0780827471301224
